[
    {
        "storeNumber":"30647",
        "name":"Chicago Ridge",
        "address":"660 Chicago Ridge Mall",
        "city":"Chicago Ridge",
        "state":"IL",
        "zip":"60415",
        "phone":"708-346-0599",
        "latitude":41.71899,
        "longitude":-87.78252,
        "brand":"HOL",
        "open_date":1195084800000
    },
    {
        "storeNumber":"33564",
        "name":"Water Tower",
        "address":"835 N Michigan Ave, Unit 5000",
        "city":"Chicago",
        "state":"IL",
        "zip":"60611",
        "phone":"312-284-1702",
        "latitude":41.89812,
        "longitude":-87.624,
        "brand":"HOL",
        "open_date":null
    },
    {
        "storeNumber":"53564",
        "name":"Water Tower",
        "address":"835 N Michigan Ave, Unit 5000",
        "city":"Chicago",
        "state":"IL",
        "zip":"60611",
        "phone":"312-284-1702",
        "latitude":41.89812,
        "longitude":-87.624,
        "brand":"GH",
        "open_date":null
    },
    {
        "storeNumber":"31538",
        "name":"Orland Square",
        "address":"534 Orland Square Dr",
        "city":"Orland Park",
        "state":"IL",
        "zip":"60462",
        "phone":"708-349-0970",
        "latitude":41.6198,
        "longitude":-87.8483,
        "brand":"HOL",
        "open_date":1476403200000
    },
    {
        "storeNumber":"32092",
        "name":"Harlem Irving",
        "address":"4190 North Harlem Ave",
        "city":"Norridge",
        "state":"IL",
        "zip":"60706",
        "phone":"708-402-9027",
        "latitude":41.95755,
        "longitude":-87.80764,
        "brand":"HOL",
        "open_date":1685664000000
    },
    {
        "storeNumber":"52092",
        "name":"Harlem Irving",
        "address":"4190 North Harlem Ave",
        "city":"Norridge",
        "state":"IL",
        "zip":"60706",
        "phone":null,
        "latitude":41.95755,
        "longitude":-87.80764,
        "brand":"GH",
        "open_date":1685664000000
    },
    {
        "storeNumber":"31733",
        "name":"Oakbrook",
        "address":"79 Oakbrook Center",
        "city":"Oak Brook",
        "state":"IL",
        "zip":"60523",
        "phone":"630-230-3078",
        "latitude":41.85416,
        "longitude":-87.96537,
        "brand":"HOL",
        "open_date":1563494400000
    },
    {
        "storeNumber":"51684",
        "name":"Oakbrook",
        "address":"100 Oakbrook Center",
        "city":"Oak Brook",
        "state":"IL",
        "zip":"60523",
        "phone":"630 203 0159",
        "latitude":41.85416,
        "longitude":-87.96537,
        "brand":"GH",
        "open_date":1663286400000
    },
    {
        "storeNumber":"30047",
        "name":"Fashion Outlets Of Chicago",
        "address":"5220 Fashion Outlets Way",
        "city":"Rosemont",
        "state":"IL",
        "zip":"60018",
        "phone":"847-653-0504",
        "latitude":41.9751,
        "longitude":-87.86717,
        "brand":"HOL",
        "open_date":1668124800000
    },
    {
        "storeNumber":"30648",
        "name":"Old Orchard",
        "address":"4999 Old Orchard Shopping Center",
        "city":"Skokie",
        "state":"IL",
        "zip":"60077",
        "phone":"847-329-0225",
        "latitude":42.0615,
        "longitude":-87.74737,
        "brand":"HOL",
        "open_date":1193875200000
    },
    {
        "storeNumber":"30127",
        "name":"Woodfield",
        "address":"G111 Woodfield Mall",
        "city":"Schaumburg",
        "state":"IL",
        "zip":"60173",
        "phone":"847-995-0884",
        "latitude":42.04556,
        "longitude":-88.03723,
        "brand":"HOL",
        "open_date":1006300800000
    },
    {
        "storeNumber":"51678",
        "name":"Woodfield",
        "address":"E132 Woodfield Mall",
        "city":"Schaumburg",
        "state":"IL",
        "zip":"60173",
        "phone":"847-598-4789",
        "latitude":42.04556,
        "longitude":-88.03723,
        "brand":"GH",
        "open_date":1668729600000
    },
    {
        "storeNumber":"30257",
        "name":"Fox Valley",
        "address":"1520 Fox Valley Center Dr",
        "city":"Aurora",
        "state":"IL",
        "zip":"60504",
        "phone":"630-898-3582",
        "latitude":41.75881,
        "longitude":-88.21276,
        "brand":"HOL",
        "open_date":1071187200000
    },
    {
        "storeNumber":"31253",
        "name":"Chicago Po",
        "address":"1650 Premium Outlet Blvd",
        "city":"Aurora",
        "state":"IL",
        "zip":"60502",
        "phone":"331-212-3127",
        "latitude":41.80028,
        "longitude":-88.27391,
        "brand":"HOL",
        "open_date":1658448000000
    },
    {
        "storeNumber":"30134",
        "name":"Southlake",
        "address":"2266 Southlake Mall",
        "city":"Merrillville",
        "state":"IN",
        "zip":"46410",
        "phone":"219-769-0135",
        "latitude":41.47074,
        "longitude":-87.31079,
        "brand":"HOL",
        "open_date":1004745600000
    },
    {
        "storeNumber":"30243",
        "name":"Geneva Commons",
        "address":"314 Commons Drive",
        "city":"Geneva",
        "state":"IL",
        "zip":"60134",
        "phone":"630-845-8365",
        "latitude":41.89302,
        "longitude":-88.34166,
        "brand":"HOL",
        "open_date":1057363200000
    },
    {
        "storeNumber":"30305",
        "name":"Algonquin Commons",
        "address":"1912 S. Randall Road",
        "city":"Algonquin",
        "state":"IL",
        "zip":"60102",
        "phone":"847-854-9829",
        "latitude":42.14855,
        "longitude":-88.33582,
        "brand":"HOL",
        "open_date":1097107200000
    },
    {
        "storeNumber":"30593",
        "name":"Lighthouse Place Outlet",
        "address":"217 Lighthouse Place",
        "city":"Michigan City",
        "state":"IN",
        "zip":"46360",
        "phone":"219-873-9560",
        "latitude":41.71956,
        "longitude":-86.90706,
        "brand":"HOL",
        "open_date":1169683200000
    },
    {
        "storeNumber":"31281",
        "name":"Gurnee Mills Outlet",
        "address":"6170 Grand Ave",
        "city":"Gurnee",
        "state":"IL",
        "zip":"60031",
        "phone":"847-855-2819",
        "latitude":42.38481,
        "longitude":-87.95502,
        "brand":"HOL",
        "open_date":1352332800000
    },
    {
        "storeNumber":"30353",
        "name":"Cherryvale",
        "address":"7200 Harrison Avenue, Unit F77",
        "city":"Rockford",
        "state":"IL",
        "zip":"61112",
        "phone":"815-332-9335",
        "latitude":42.2412,
        "longitude":-88.97542,
        "brand":"HOL",
        "open_date":1085011200000
    },
    {
        "storeNumber":"30555",
        "name":"Cielo Vista",
        "address":"8401 Gateway Blvd W, Ste J6",
        "city":"El Paso",
        "state":"TX",
        "zip":"79925",
        "phone":"915-887-0966",
        "latitude":31.77636,
        "longitude":-106.37923,
        "brand":"HOL",
        "open_date":1161216000000
    },
    {
        "storeNumber":"30435",
        "name":"Shoppes At Solana",
        "address":"750 Sunland Park Drive, Ste B10",
        "city":"El Paso",
        "state":"TX",
        "zip":"79912",
        "phone":"915-842-9126",
        "latitude":31.81324,
        "longitude":-106.54461,
        "brand":"HOL",
        "open_date":1106784000000
    },
    {
        "storeNumber":"30048",
        "name":"Outlet Shoppes At El Paso",
        "address":"7051 S Desert Blvd",
        "city":"Canutillo",
        "state":"TX",
        "zip":"79835",
        "phone":"915-321-3001",
        "latitude":31.91228,
        "longitude":-106.58547,
        "brand":"HOL",
        "open_date":1668124800000
    },
    {
        "storeNumber":"30342",
        "name":"Mesilla Valley",
        "address":"700 S Telshor Blvd, Ste 1440",
        "city":"Las Cruces",
        "state":"NM",
        "zip":"88011",
        "phone":"575-532-1983",
        "latitude":32.3116,
        "longitude":-106.745,
        "brand":"HOL",
        "open_date":1075334400000
    },
    {
        "storeNumber":"31691",
        "name":"Queens Center",
        "address":"90-15 Queens Blvd",
        "city":"Queens",
        "state":"NY",
        "zip":"11373",
        "phone":"718-489-9915",
        "latitude":40.7348,
        "longitude":-73.8694,
        "brand":"HOL",
        "open_date":1477612800000
    },
    {
        "storeNumber":"31303",
        "name":"34th Street",
        "address":"130 W 34th St",
        "city":"New York",
        "state":"NY",
        "zip":"10001-2169",
        "phone":"646-200-5190",
        "latitude":40.75023,
        "longitude":-73.98938,
        "brand":"HOL",
        "open_date":null
    },
    {
        "storeNumber":"51303",
        "name":"34th Street",
        "address":"130 W 34th St, Frnt 1",
        "city":"New York",
        "state":"NY",
        "zip":"10001-2169",
        "phone":"646-200-5190",
        "latitude":40.75023,
        "longitude":-73.98938,
        "brand":"GH",
        "open_date":null
    },
    {
        "storeNumber":"31763",
        "name":"Bay Plaza",
        "address":"200 Baychester Ave",
        "city":"Bronx",
        "state":"NY",
        "zip":"10475",
        "phone":"347-607-3815",
        "latitude":40.86447,
        "longitude":-73.82649,
        "brand":"HOL",
        "open_date":1657843200000
    },
    {
        "storeNumber":"31229",
        "name":"Green Acres",
        "address":"2034 Green Acres Mall",
        "city":"Valley Stream",
        "state":"NY",
        "zip":"11581-1545",
        "phone":"516-537-0042",
        "latitude":40.662,
        "longitude":-73.7197,
        "brand":"HOL",
        "open_date":1539302400000
    },
    {
        "storeNumber":"30676",
        "name":"Newport Centre",
        "address":"30 Mall Dr W, Ste 234",
        "city":"Jersey City",
        "state":"NJ",
        "zip":"07310",
        "phone":"201-222-3222",
        "latitude":40.72803,
        "longitude":-74.03833,
        "brand":"HOL",
        "open_date":1215734400000
    },
    {
        "storeNumber":"31663",
        "name":"Kings Plaza",
        "address":"5100 Kings Plaza, Ste 2",
        "city":"Brooklyn",
        "state":"NY",
        "zip":"11234-5225",
        "phone":"718-377-0913",
        "latitude":40.6097,
        "longitude":-73.9194,
        "brand":"HOL",
        "open_date":1510876800000
    },
    {
        "storeNumber":"31661",
        "name":"Cross County",
        "address":"8000 Mall Walk",
        "city":"Yonkers",
        "state":"NY",
        "zip":"10704",
        "phone":"914-885-0083",
        "latitude":40.9284,
        "longitude":-73.8555,
        "brand":"HOL",
        "open_date":1532044800000
    },
    {
        "storeNumber":"31762",
        "name":"Roosevelt Field",
        "address":"630 Old Country Rd",
        "city":"Garden City",
        "state":"NY",
        "zip":"11530",
        "phone":"516 214 5147",
        "latitude":40.73997,
        "longitude":-73.61357,
        "brand":"HOL",
        "open_date":null
    },
    {
        "storeNumber":"31501",
        "name":"American Dream",
        "address":"1 American Dream Way",
        "city":"East Rutherford",
        "state":"NJ",
        "zip":"07073",
        "phone":"201-549-5009",
        "latitude":40.8097,
        "longitude":-74.11805,
        "brand":"HOL",
        "open_date":1601510400000
    },
    {
        "storeNumber":"30115",
        "name":"Garden State",
        "address":"282 Garden State Plaza Blvd",
        "city":"Paramus",
        "state":"NJ",
        "zip":"07652",
        "phone":"201-291-1877",
        "latitude":40.91811,
        "longitude":-74.07636,
        "brand":"HOL",
        "open_date":null
    },
    {
        "storeNumber":"52009",
        "name":"Garden State",
        "address":"282 Garden State Plz",
        "city":"Paramus",
        "state":"NJ",
        "zip":"07652",
        "phone":"201-291-1877",
        "latitude":40.91811,
        "longitude":-74.07636,
        "brand":"GH",
        "open_date":null
    },
    {
        "storeNumber":"30670",
        "name":"Broadway Mall",
        "address":"875 Broadway Mall",
        "city":"Hicksville",
        "state":"NY",
        "zip":"11801",
        "phone":"516-433-4230",
        "latitude":40.77305,
        "longitude":-73.52946,
        "brand":"HOL",
        "open_date":1224115200000
    },
    {
        "storeNumber":"31405",
        "name":"Jersey Gardens Outlet",
        "address":"651 Kapkowski Rd",
        "city":"Elizabeth",
        "state":"NJ",
        "zip":"07201",
        "phone":"908-662-6560",
        "latitude":40.66553,
        "longitude":-74.17184,
        "brand":"HOL",
        "open_date":1665187200000
    },
    {
        "storeNumber":"30539",
        "name":"Staten Island",
        "address":"2655 Richmond Avenue",
        "city":"Staten Island",
        "state":"NY",
        "zip":"10314",
        "phone":"718-873-0000",
        "latitude":40.58091,
        "longitude":-74.16911,
        "brand":"HOL",
        "open_date":1152144000000
    },
    {
        "storeNumber":"50538",
        "name":"Willowbrook",
        "address":"1400 Willowbrook Mall",
        "city":"Wayne",
        "state":"NJ",
        "zip":"07470",
        "phone":"973-812-1012",
        "latitude":40.89041,
        "longitude":-74.26062,
        "brand":"GH",
        "open_date":null
    },
    {
        "storeNumber":"30538",
        "name":"Willowbrook",
        "address":"1400 Willowbrook Mall Space 2058",
        "city":"Wayne",
        "state":"NJ",
        "zip":"07470",
        "phone":"973-812-1012",
        "latitude":40.89027,
        "longitude":-74.26077,
        "brand":"HOL",
        "open_date":null
    },
    {
        "storeNumber":"30126",
        "name":"Palisades",
        "address":"2360 Palisades Center Drive",
        "city":"West Nyack",
        "state":"NY",
        "zip":"10994",
        "phone":"845-348-9573",
        "latitude":41.09878,
        "longitude":-73.95455,
        "brand":"HOL",
        "open_date":996192000000
    },
    {
        "storeNumber":"30620",
        "name":"Livingston",
        "address":"112 Eisenhower Pkwy, Ste 83",
        "city":"Livingston",
        "state":"NJ",
        "zip":"07039",
        "phone":"973-992-7054",
        "latitude":40.77656,
        "longitude":-74.35356,
        "brand":"HOL",
        "open_date":1214438400000
    },
    {
        "storeNumber":"31307",
        "name":"Woodbridge",
        "address":"250 Woodbridge Center Dr",
        "city":"Woodbridge",
        "state":"NJ",
        "zip":"07095-1341",
        "phone":"732-636-1959",
        "latitude":40.55411,
        "longitude":-74.30009,
        "brand":"HOL",
        "open_date":1494547200000
    },
    {
        "storeNumber":"33513",
        "name":"Deer Park Outlet",
        "address":"152 The Arches Circle, Ste 549",
        "city":"Deer Park",
        "state":"NY",
        "zip":"11729",
        "phone":"631-392-2335",
        "latitude":40.76498,
        "longitude":-73.30382,
        "brand":"HOL",
        "open_date":1626998400000
    },
    {
        "storeNumber":"30570",
        "name":"Menlo Park",
        "address":"100 Menlo Park, Ste 500",
        "city":"Edison",
        "state":"NJ",
        "zip":"08837",
        "phone":"732-494-4928",
        "latitude":40.54883,
        "longitude":-74.33559,
        "brand":"HOL",
        "open_date":1191456000000
    },
    {
        "storeNumber":"31522",
        "name":"Sono Collection",
        "address":"105 West Avenue, Space 3600",
        "city":"Norwalk",
        "state":"CT",
        "zip":"06854",
        "phone":"203-295-2704",
        "latitude":41.10509,
        "longitude":-73.41909,
        "brand":"HOL",
        "open_date":1574380800000
    },
    {
        "storeNumber":"30700",
        "name":"Brunswick Square",
        "address":"755 State Route 18, Ste 738a",
        "city":"East Brunswick",
        "state":"NJ",
        "zip":"08816",
        "phone":"732-613-1806",
        "latitude":40.42765,
        "longitude":-74.38271,
        "brand":"HOL",
        "open_date":1217462400000
    },
    {
        "storeNumber":"30388",
        "name":"Rockaway",
        "address":"301 Mt Hope Ave",
        "city":"Rockaway",
        "state":"NJ",
        "zip":"07866",
        "phone":"973-361-4571",
        "latitude":40.9068,
        "longitude":-74.5538,
        "brand":"HOL",
        "open_date":1120176000000
    },
    {
        "storeNumber":"31535",
        "name":"Jersey Shore Po",
        "address":"1 Premium Outlet Blvd",
        "city":"Tinton Falls",
        "state":"NJ",
        "zip":"07753",
        "phone":"732-481-4688",
        "latitude":40.22581,
        "longitude":-74.09326,
        "brand":"HOL",
        "open_date":null
    },
    {
        "storeNumber":"51535",
        "name":"Jersey Shore Po",
        "address":"1 Premium Outlet Blvd",
        "city":"Tinton Falls",
        "state":"NJ",
        "zip":"07753",
        "phone":"732-481-4688",
        "latitude":40.22581,
        "longitude":-74.09326,
        "brand":"GH",
        "open_date":null
    },
    {
        "storeNumber":"31526",
        "name":"Smith Haven",
        "address":"313 Smith Haven Mall",
        "city":"Lake Grove",
        "state":"NY",
        "zip":"11755",
        "phone":"631-724-4657",
        "latitude":40.86346,
        "longitude":-73.12929,
        "brand":"HOL",
        "open_date":1508457600000
    },
    {
        "storeNumber":"30206",
        "name":"Freehold Raceway",
        "address":"3710 Us Highway 9, Ste 1503",
        "city":"Freehold",
        "state":"NJ",
        "zip":"07728",
        "phone":"732-761-8920",
        "latitude":40.25454,
        "longitude":-74.29736,
        "brand":"HOL",
        "open_date":1037923200000
    },
    {
        "storeNumber":"30708",
        "name":"Bridgewater Commons",
        "address":"400 Commons Way, Ste 451",
        "city":"Bridgewater",
        "state":"NJ",
        "zip":"08807",
        "phone":"908-231-0220",
        "latitude":40.58645,
        "longitude":-74.61821,
        "brand":"HOL",
        "open_date":null
    },
    {
        "storeNumber":"50708",
        "name":"Bridgewater Commons",
        "address":"400 Commons Way, Ste 451",
        "city":"Bridgewater",
        "state":"NJ",
        "zip":"08807",
        "phone":"908-231-0220",
        "latitude":40.58645,
        "longitude":-74.61821,
        "brand":"GH",
        "open_date":null
    },
    {
        "storeNumber":"30452",
        "name":"Trumbull",
        "address":"5065 Main Street, Ste F169",
        "city":"Trumbull",
        "state":"CT",
        "zip":"06611",
        "phone":"203-365-0337",
        "latitude":41.2299,
        "longitude":-73.22549,
        "brand":"HOL",
        "open_date":1123804800000
    },
    {
        "storeNumber":"30458",
        "name":"Danbury Fair",
        "address":"7 Backus Avenue, Ste 227",
        "city":"Danbury",
        "state":"CT",
        "zip":"06810",
        "phone":"203-797-0820",
        "latitude":41.37972,
        "longitude":-73.4807,
        "brand":"HOL",
        "open_date":1179446400000
    },
    {
        "storeNumber":"30499",
        "name":"Connecticut Post",
        "address":"1201 Boston Post Road",
        "city":"Milford",
        "state":"CT",
        "zip":"06460",
        "phone":"203-877-6900",
        "latitude":41.23495,
        "longitude":-73.03791,
        "brand":"HOL",
        "open_date":1144281600000
    },
    {
        "storeNumber":"30682",
        "name":"Galleria-Crystal Run",
        "address":"1 N Galleria Drive, Ste 144",
        "city":"Middletown",
        "state":"NY",
        "zip":"10941",
        "phone":"845-692-6311",
        "latitude":41.45452,
        "longitude":-74.37007,
        "brand":"HOL",
        "open_date":1221696000000
    },
    {
        "storeNumber":"30387",
        "name":"Ocean County",
        "address":"1201 Hooper Avenue, Ste 12",
        "city":"Toms River",
        "state":"NJ",
        "zip":"08753",
        "phone":"732-286-1304",
        "latitude":39.97896,
        "longitude":-74.18263,
        "brand":"HOL",
        "open_date":1127520000000
    },
    {
        "storeNumber":"30624",
        "name":"Poughkeepsie",
        "address":"2001 South Road, Ste 115",
        "city":"Poughkeepsie",
        "state":"NY",
        "zip":"12601",
        "phone":"845-297-2891",
        "latitude":41.62379,
        "longitude":-73.91767,
        "brand":"HOL",
        "open_date":1211414400000
    },
    {
        "storeNumber":"33508",
        "name":"Riverhead Outlet",
        "address":"1770 W Main Street, Space 1410",
        "city":"Riverhead",
        "state":"NY",
        "zip":"11901",
        "phone":"631-284-6010",
        "latitude":40.92109,
        "longitude":-72.71293,
        "brand":"HOL",
        "open_date":1565913600000
    },
    {
        "storeNumber":"30234",
        "name":"Oxford Valley",
        "address":"2300 E Lincoln Hwy, Ste 170",
        "city":"Langhorne",
        "state":"PA",
        "zip":"19047",
        "phone":"215-752-1851",
        "latitude":40.18353,
        "longitude":-74.88093,
        "brand":"HOL",
        "open_date":1059004800000
    },
    {
        "storeNumber":"31628",
        "name":"Citadel Outlets",
        "address":"100 Citadel Dr",
        "city":"Commerce",
        "state":"CA",
        "zip":"90040",
        "phone":"323-803-2966",
        "latitude":34.00638,
        "longitude":-118.15083,
        "brand":"HOL",
        "open_date":1665100800000
    },
    {
        "storeNumber":"30698",
        "name":"Westfield Culver City",
        "address":"6000 Sepulveda Blvd,Suite 2151",
        "city":"Culver City",
        "state":"CA",
        "zip":"90230",
        "phone":"310-397-1814",
        "latitude":33.98643,
        "longitude":-118.39366,
        "brand":"HOL",
        "open_date":1254960000000
    },
    {
        "storeNumber":"31475",
        "name":"Stonewood Center",
        "address":"228 Stonewood Street, Space F15",
        "city":"Downey",
        "state":"CA",
        "zip":"90241",
        "phone":"562-382-1162",
        "latitude":33.9357,
        "longitude":-118.11912,
        "brand":"HOL",
        "open_date":1456531200000
    },
    {
        "storeNumber":"30358",
        "name":"Glendale Galleria",
        "address":"2158 Glendale Galleria",
        "city":"Glendale",
        "state":"CA",
        "zip":"91210",
        "phone":"818-241-2870",
        "latitude":34.14518,
        "longitude":-118.25855,
        "brand":"HOL",
        "open_date":null
    },
    {
        "storeNumber":"50358",
        "name":"Glendale Galleria",
        "address":"2158 Glendale Galleria",
        "city":"Glendale",
        "state":"CA",
        "zip":"91210",
        "phone":"818-241-2870",
        "latitude":34.14518,
        "longitude":-118.25855,
        "brand":"GH",
        "open_date":null
    },
    {
        "storeNumber":"51590",
        "name":"Glendale Galleria",
        "address":"2124 Glendale Galleria",
        "city":"Glendale",
        "state":"CA",
        "zip":"91210",
        "phone":"818-539-1962",
        "latitude":34.14518,
        "longitude":-118.25855,
        "brand":"GH",
        "open_date":1675382400000
    },
    {
        "storeNumber":"30584",
        "name":"Montebello",
        "address":"1727 Montebello Town Center",
        "city":"Montebello",
        "state":"CA",
        "zip":"90640",
        "phone":"323-727-6076",
        "latitude":34.03739,
        "longitude":-118.08183,
        "brand":"HOL",
        "open_date":null
    },
    {
        "storeNumber":"30546",
        "name":"Lakewood",
        "address":"315 Lakewood Center Mall Space 82",
        "city":"Lakewood",
        "state":"CA",
        "zip":"90712",
        "phone":"562-630-4178",
        "latitude":33.85293,
        "longitude":-118.14047,
        "brand":"HOL",
        "open_date":1163635200000
    },
    {
        "storeNumber":"30217",
        "name":"Del Amo Fashion",
        "address":"21712 Hawthorne Blvd, Ste 226a",
        "city":"Torrance",
        "state":"CA",
        "zip":"90503",
        "phone":"310-371-1753",
        "latitude":33.83123,
        "longitude":-118.35214,
        "brand":"HOL",
        "open_date":1398902400000
    },
    {
        "storeNumber":"33555",
        "name":"Third Street Promenade",
        "address":"1437 3rd Street Promenade",
        "city":"Santa Monica",
        "state":"CA",
        "zip":"90401",
        "phone":"310-460-0147",
        "latitude":34.01612,
        "longitude":-118.49643,
        "brand":"HOL",
        "open_date":1582243200000
    },
    {
        "storeNumber":"30258",
        "name":"Los Cerritos",
        "address":"151 Los Cerritos Center",
        "city":"Cerritos",
        "state":"CA",
        "zip":"90703",
        "phone":"562-924-3353",
        "latitude":33.86344,
        "longitude":-118.09366,
        "brand":"HOL",
        "open_date":1058400000000
    },
    {
        "storeNumber":"31725",
        "name":"Wfd Fashion Square",
        "address":"14006 Riverside Dr, Ste 243",
        "city":"Sherman Oaks",
        "state":"CA",
        "zip":"91423",
        "phone":"747-998-4125",
        "latitude":34.1569,
        "longitude":-118.4374,
        "brand":"HOL",
        "open_date":1568246400000
    },
    {
        "storeNumber":"30254",
        "name":"Santa Anita",
        "address":"400 S Baldwin Ave Ste 718",
        "city":"Arcadia",
        "state":"CA",
        "zip":"91007",
        "phone":"626-254-0066",
        "latitude":34.1328,
        "longitude":-118.05157,
        "brand":"HOL",
        "open_date":null
    },
    {
        "storeNumber":"50254",
        "name":"Santa Anita",
        "address":"400 S Baldwin Ave Ste 718",
        "city":"Arcadia",
        "state":"CA",
        "zip":"91007",
        "phone":"626-254-0066",
        "latitude":34.1328,
        "longitude":-118.05157,
        "brand":"GH",
        "open_date":null
    },
    {
        "storeNumber":"30256",
        "name":"West Covina",
        "address":"783 Plaza Drive",
        "city":"West Covina",
        "state":"CA",
        "zip":"91790",
        "phone":"626-472-6381",
        "latitude":34.0698,
        "longitude":-117.9268,
        "brand":"HOL",
        "open_date":1062633600000
    },
    {
        "storeNumber":"30124",
        "name":"Brea",
        "address":"1065 Brea Mall, Ste 2014c",
        "city":"Brea",
        "state":"CA",
        "zip":"92821",
        "phone":"714-671-1013",
        "latitude":33.91538,
        "longitude":-117.88751,
        "brand":"HOL",
        "open_date":996105600000
    },
    {
        "storeNumber":"30357",
        "name":"Northridge Fashion",
        "address":"9301 Tampa Ave Unit 36",
        "city":"Northridge",
        "state":"CA",
        "zip":"91324",
        "phone":"818-576-9027",
        "latitude":34.23895,
        "longitude":-118.55707,
        "brand":"HOL",
        "open_date":1127520000000
    },
    {
        "storeNumber":"30111",
        "name":"Topanga",
        "address":"6600 Topanga Canyon Blvd, Ste 84b",
        "city":"Canoga Park",
        "state":"CA",
        "zip":"91303",
        "phone":"818-992-4403",
        "latitude":34.19046,
        "longitude":-118.60494,
        "brand":"HOL",
        "open_date":null
    },
    {
        "storeNumber":"52007",
        "name":"Topanga",
        "address":"6600 Topanga Canyon Blvd",
        "city":"Canoga Park",
        "state":"CA",
        "zip":"91303",
        "phone":"818-992-4403",
        "latitude":34.19046,
        "longitude":-118.60494,
        "brand":"GH",
        "open_date":null
    },
    {
        "storeNumber":"30367",
        "name":"Outlets At Orange",
        "address":"20 City Blvd W Suite 301",
        "city":"Orange",
        "state":"CA",
        "zip":"92868",
        "phone":"714-923-0007",
        "latitude":33.78585,
        "longitude":-117.89277,
        "brand":"HOL",
        "open_date":1095292800000
    },
    {
        "storeNumber":"30332",
        "name":"Montclair Place",
        "address":"5033 E Montclair Plaza Ln",
        "city":"Montclair",
        "state":"CA",
        "zip":"91763",
        "phone":"909-624-2800",
        "latitude":34.08827,
        "longitude":-117.69535,
        "brand":"HOL",
        "open_date":1069804800000
    },
    {
        "storeNumber":"30202",
        "name":"Valencia",
        "address":"24201 Valencia Blvd, Ste 1234",
        "city":"Valencia",
        "state":"CA",
        "zip":"91355",
        "phone":"661-753-9491",
        "latitude":34.41606,
        "longitude":-118.55766,
        "brand":"HOL",
        "open_date":1036195200000
    },
    {
        "storeNumber":"30395",
        "name":"Irvine Spectrum",
        "address":"647 Spectrum Center Drive",
        "city":"Irvine",
        "state":"CA",
        "zip":"92618",
        "phone":"949-727-4388",
        "latitude":33.65136,
        "longitude":-117.74438,
        "brand":"HOL",
        "open_date":1099526400000
    },
    {
        "storeNumber":"51683",
        "name":"Irvine Spectrum",
        "address":"653 Spectrum Center Dr",
        "city":"Irvine",
        "state":"CA",
        "zip":"92618",
        "phone":"949-739-7459",
        "latitude":33.65136,
        "longitude":-117.74438,
        "brand":"GH",
        "open_date":1666310400000
    },
    {
        "storeNumber":"31412",
        "name":"Ontario Mills Outlet",
        "address":"1 Mills Cir",
        "city":"Ontario",
        "state":"CA",
        "zip":"91764",
        "phone":"909-360-5970",
        "latitude":34.07296,
        "longitude":-117.55109,
        "brand":"HOL",
        "open_date":null
    },
    {
        "storeNumber":"51412",
        "name":"Ontario Mills Outlet",
        "address":"1 Mills Cir",
        "city":"Ontario",
        "state":"CA",
        "zip":"91764",
        "phone":"909-360-5970",
        "latitude":34.07296,
        "longitude":-117.55109,
        "brand":"GH",
        "open_date":null
    },
    {
        "storeNumber":"30537",
        "name":"Antelope Valley",
        "address":"1233 W Rancho Vista Blvd",
        "city":"Palmdale",
        "state":"CA",
        "zip":"93551",
        "phone":"661-273-5780",
        "latitude":34.60215,
        "longitude":-118.15187,
        "brand":"HOL",
        "open_date":1151539200000
    },
    {
        "storeNumber":"30261",
        "name":"Victoria Gardens",
        "address":"12580 N Mainstreet",
        "city":"Rancho Cucamonga",
        "state":"CA",
        "zip":"91739",
        "phone":"909-646-8830",
        "latitude":34.11207,
        "longitude":-117.53219,
        "brand":"HOL",
        "open_date":1098921600000
    },
    {
        "storeNumber":"31761",
        "name":"Mission Viejo",
        "address":"555 The Shops At Mission Viejo",
        "city":"Mission Viejo",
        "state":"CA",
        "zip":"92691",
        "phone":"949-485-3538",
        "latitude":33.5594,
        "longitude":-117.66899,
        "brand":"HOL",
        "open_date":1659657600000
    },
    {
        "storeNumber":"30195",
        "name":"Galleria At Tyler",
        "address":"1250 Galleria At Tyler",
        "city":"Riverside",
        "state":"CA",
        "zip":"92503",
        "phone":"951-509-3836",
        "latitude":33.90915,
        "longitude":-117.45851,
        "brand":"HOL",
        "open_date":1027555200000
    },
    {
        "storeNumber":"30517",
        "name":"Inland",
        "address":"550 Inland Center Dr",
        "city":"San Bernardino",
        "state":"CA",
        "zip":"92408",
        "phone":"909-386-1600",
        "latitude":34.09042,
        "longitude":-117.2958,
        "brand":"HOL",
        "open_date":1152144000000
    },
    {
        "storeNumber":"30692",
        "name":"Moreno Valley",
        "address":"22500 Town Cir Suite 1044",
        "city":"Moreno Valley",
        "state":"CA",
        "zip":"92553",
        "phone":"951-653-5099",
        "latitude":33.93855,
        "longitude":-117.27133,
        "brand":"HOL",
        "open_date":1219276800000
    },
    {
        "storeNumber":"30544",
        "name":"Pacific View",
        "address":"3301 E Main St",
        "city":"Ventura",
        "state":"CA",
        "zip":"93003",
        "phone":"805-477-0742",
        "latitude":34.27182,
        "longitude":-119.25073,
        "brand":"HOL",
        "open_date":1147996800000
    },
    {
        "storeNumber":"31101",
        "name":"Victor Valley",
        "address":"14400 Bear Valley Road",
        "city":"Victorville",
        "state":"CA",
        "zip":"92392",
        "phone":"760-269-4262",
        "latitude":34.47375,
        "longitude":-117.3472,
        "brand":"HOL",
        "open_date":1542758400000
    },
    {
        "storeNumber":"31827",
        "name":"Promenade",
        "address":"40820 Winchester Road",
        "city":"Temecula",
        "state":"CA",
        "zip":"92591",
        "phone":"951-466-3901",
        "latitude":33.52479,
        "longitude":-117.15307,
        "brand":"HOL",
        "open_date":null
    },
    {
        "storeNumber":"51827",
        "name":"Promenade",
        "address":"40820 Winchester Road",
        "city":"Temecula",
        "state":"CA",
        "zip":"92591",
        "phone":"951-466-3901",
        "latitude":33.52479,
        "longitude":-117.15307,
        "brand":"GH",
        "open_date":null
    },
    {
        "storeNumber":"30238",
        "name":"Shoppes At Carlsbad",
        "address":"2525 El Camino Real, Suite 157",
        "city":"Carlsbad",
        "state":"CA",
        "zip":"92008",
        "phone":"760-434-3656",
        "latitude":33.17852,
        "longitude":-117.33008,
        "brand":"HOL",
        "open_date":1088640000000
    },
    {
        "storeNumber":"31658",
        "name":"Paseo Nuevo",
        "address":"721 State Street",
        "city":"Santa Barbara",
        "state":"CA",
        "zip":"93101",
        "phone":"805-564-7047",
        "latitude":34.41914,
        "longitude":-119.69895,
        "brand":"HOL",
        "open_date":1614297600000
    },
    {
        "storeNumber":"33565",
        "name":"Willow Grove Park",
        "address":"2500 W Moreland Rd, Ste 1032",
        "city":"Willow Grove",
        "state":"PA",
        "zip":"19090",
        "phone":"215-346-5124",
        "latitude":40.14022,
        "longitude":-75.12422,
        "brand":"HOL",
        "open_date":1574726400000
    },
    {
        "storeNumber":"31945",
        "name":"Cherry Hill",
        "address":"2000 State Route 38",
        "city":"Cherry Hill",
        "state":"NJ",
        "zip":"08002",
        "phone":"856-488-8247",
        "latitude":39.94103,
        "longitude":-75.02501,
        "brand":"HOL",
        "open_date":null
    },
    {
        "storeNumber":"51945",
        "name":"Cherry Hill",
        "address":"2000 Route 38 Ste 1795",
        "city":"Cherry Hill",
        "state":"NJ",
        "zip":"08002",
        "phone":"856-488-8247",
        "latitude":39.9419,
        "longitude":-75.03,
        "brand":"GH",
        "open_date":null
    }
]