{
"type": "FeatureCollection",
"crs": { "type": "name", "properties": { "name": "urn:ogc:def:crs:OGC:1.3:CRS84" } },
"features": [
{ "type": "Feature", "properties": { "city": "Houston", "street": "9011 W Sam Houston Parkway N", "state": "TX", "zip": "77064", "country": "US", "latitude": 29.903814303394554, "longitude": -95.554024522111149 }, "geometry": { "type": "Point", "coordinates": [ -95.554024522111149, 29.903814303394554 ] } },
{ "type": "Feature", "properties": { "city": "Miami", "street": "10725 NW 41st Street", "state": "FL", "zip": "33178", "country": "US", "latitude": 25.812096013206872, "longitude": -80.370704781002985 }, "geometry": { "type": "Point", "coordinates": [ -80.370704781002985, 25.812096013206872 ] } },
{ "type": "Feature", "properties": { "city": "Wantagh", "street": "1198 Wantagh Avenue", "state": "NY", "zip": "11793", "country": "US", "latitude": 40.693785136786744, "longitude": -73.507965421657389 }, "geometry": { "type": "Point", "coordinates": [ -73.507965421657389, 40.693785136786744 ] } },
{ "type": "Feature", "properties": { "city": "North Baldwin", "street": "1221 Grand Avenue", "state": "NY", "zip": "11510", "country": "US", "latitude": 40.680517616500147, "longitude": -73.614521630930199 }, "geometry": { "type": "Point", "coordinates": [ -73.614521630930199, 40.680517616500147 ] } },
{ "type": "Feature", "properties": { "city": "Poinciana", "street": "4466 Pleasant Hill Road", "state": "FL", "zip": "34758", "country": "US", "latitude": 28.156124124740028, "longitude": -81.440618346314523 }, "geometry": { "type": "Point", "coordinates": [ -81.440618346314523, 28.156124124740028 ] } },
{ "type": "Feature", "properties": { "city": "Charlotte", "street": "2834 Boyer Street", "state": "NC", "zip": "28208", "country": "US", "latitude": 35.228433111277894, "longitude": -80.92399220558616 }, "geometry": { "type": "Point", "coordinates": [ -80.92399220558616, 35.228433111277894 ] } },
{ "type": "Feature", "properties": { "city": "Charlotte", "street": "6424 Albemarle Rd", "state": "NC", "zip": "28212", "country": "US", "latitude": 35.202552021636897, "longitude": -80.735309020691261 }, "geometry": { "type": "Point", "coordinates": [ -80.735309020691261, 35.202552021636897 ] } },
{ "type": "Feature", "properties": { "city": "Coral Springs", "street": "5850 Wiles Road", "state": "FL", "zip": "33067", "country": "US", "latitude": 26.2857903, "longitude": -80.2041542 }, "geometry": { "type": "Point", "coordinates": [ -80.2041542, 26.2857903 ] } },
{ "type": "Feature", "properties": { "city": "Jacksonville", "street": "4495 Roosevelt Blvd", "state": "FL", "zip": "32210", "country": "US", "latitude": 30.280957061054757, "longitude": -81.719757060317761 }, "geometry": { "type": "Point", "coordinates": [ -81.719757060317761, 30.280957061054757 ] } },
{ "type": "Feature", "properties": { "city": "Florence", "street": "2060 W. Evans St", "state": "SC", "zip": "29501", "country": "US", "latitude": 34.192713088043682, "longitude": -79.807651096312497 }, "geometry": { "type": "Point", "coordinates": [ -79.807651096312497, 34.192713088043682 ] } },
{ "type": "Feature", "properties": { "city": "Sunnyvale", "street": "1065 East El Camino Real", "state": "CA", "zip": "94087", "country": "US", "latitude": 37.352596825300971, "longitude": -122.00373134340128 }, "geometry": { "type": "Point", "coordinates": [ -122.003731343401284, 37.352596825300971 ] } },
{ "type": "Feature", "properties": { "city": "Modesto", "street": "3250 Dale Road", "state": "CA", "zip": "95356", "country": "US", "latitude": 37.686596884381878, "longitude": -121.04934331039226 }, "geometry": { "type": "Point", "coordinates": [ -121.04934331039226, 37.686596884381878 ] } },
{ "type": "Feature", "properties": { "city": "Saint Augustine", "street": "1805 U.S. Highway 1, S", "state": "FL", "zip": "32084", "country": "US", "latitude": 29.868242088735713, "longitude": -81.323915043568604 }, "geometry": { "type": "Point", "coordinates": [ -81.323915043568604, 29.868242088735713 ] } },
{ "type": "Feature", "properties": { "city": "McKeesport", "street": "640 Longrun Road; Olympia Ctr", "state": "PA", "zip": "15132", "country": "US", "latitude": 40.323208078886587, "longitude": -79.832688717179281 }, "geometry": { "type": "Point", "coordinates": [ -79.832688717179281, 40.323208078886587 ] } },
{ "type": "Feature", "properties": { "city": "Clear Lake", "street": "10 Plaza Drive", "state": "IA", "zip": "50428", "country": "US", "latitude": 43.14602518401923, "longitude": -93.361369358878164 }, "geometry": { "type": "Point", "coordinates": [ -93.361369358878164, 43.14602518401923 ] } },
{ "type": "Feature", "properties": { "city": "Leeds", "street": "1815 Ashville Road NE Highway 411", "state": "AL", "zip": "35094", "country": "US", "latitude": 33.56195, "longitude": -86.522892 }, "geometry": { "type": "Point", "coordinates": [ -86.522892, 33.56195 ] } },
{ "type": "Feature", "properties": { "city": "Upper Marlboro", "street": "10 Watkins Park Drive", "state": "MD", "zip": "20774", "country": "US", "latitude": 38.899530118561714, "longitude": -76.791444659507192 }, "geometry": { "type": "Point", "coordinates": [ -76.791444659507192, 38.899530118561714 ] } },
{ "type": "Feature", "properties": { "city": "Coronado", "street": "100 B Ave", "state": "CA", "zip": "92118", "country": "US", "latitude": 32.6977182, "longitude": -117.1702474 }, "geometry": { "type": "Point", "coordinates": [ -117.1702474, 32.6977182 ] } },
{ "type": "Feature", "properties": { "city": "Danville", "street": "100 May Blvd", "state": "KY", "zip": "40422", "country": "US", "latitude": 37.616346, "longitude": -84.777875 }, "geometry": { "type": "Point", "coordinates": [ -84.777875, 37.616346 ] } },
{ "type": "Feature", "properties": { "city": "Auburn", "street": "1002 Auburn Way", "state": "WA", "zip": "98002", "country": "US", "latitude": 47.317176048949413, "longitude": -122.22148756951304 }, "geometry": { "type": "Point", "coordinates": [ -122.221487569513044, 47.317176048949413 ] } },
{ "type": "Feature", "properties": { "city": "Dallas", "street": "1003 Dallas-Cherryville Highway", "state": "NC", "zip": "28034", "country": "US", "latitude": 35.315251861092143, "longitude": -81.19044664723873 }, "geometry": { "type": "Point", "coordinates": [ -81.19044664723873, 35.315251861092143 ] } },
{ "type": "Feature", "properties": { "city": "Pelzer", "street": "101 Depot Road", "state": "SC", "zip": "29669", "country": "US", "latitude": 34.642695867349552, "longitude": -82.466530445554099 }, "geometry": { "type": "Point", "coordinates": [ -82.466530445554099, 34.642695867349552 ] } },
{ "type": "Feature", "properties": { "city": "Huntsville", "street": "1003 Jordan Lane", "state": "AL", "zip": "35816", "country": "US", "latitude": 34.735935495206085, "longitude": -86.627718175417669 }, "geometry": { "type": "Point", "coordinates": [ -86.627718175417669, 34.735935495206085 ] } },
{ "type": "Feature", "properties": { "city": "Lemoore", "street": "1019 North Lemoore Avenue", "state": "CA", "zip": "93245", "country": "US", "latitude": 36.311669930581232, "longitude": -119.78121134106357 }, "geometry": { "type": "Point", "coordinates": [ -119.781211341063567, 36.311669930581232 ] } },
{ "type": "Feature", "properties": { "city": "Opelika", "street": "101 Sixth Street North", "state": "AL", "zip": "36801", "country": "US", "latitude": 32.651324841721554, "longitude": -85.377843848462135 }, "geometry": { "type": "Point", "coordinates": [ -85.377843848462135, 32.651324841721554 ] } },
{ "type": "Feature", "properties": { "city": "Columbia", "street": "10125 Two Notch Rd", "state": "SC", "zip": "29223", "country": "US", "latitude": 34.115485522423356, "longitude": -80.885823223907209 }, "geometry": { "type": "Point", "coordinates": [ -80.885823223907209, 34.115485522423356 ] } },
{ "type": "Feature", "properties": { "city": "Shelbyville", "street": "102 Madison Street", "state": "TN", "zip": "37160", "country": "US", "latitude": 35.489645848925925, "longitude": -86.458658531696187 }, "geometry": { "type": "Point", "coordinates": [ -86.458658531696187, 35.489645848925925 ] } },
{ "type": "Feature", "properties": { "city": "Nashville", "street": "1027 8th Ave. N", "state": "TN", "zip": "37208", "country": "US", "latitude": 36.172193874452532, "longitude": -86.79112915035401 }, "geometry": { "type": "Point", "coordinates": [ -86.79112915035401, 36.172193874452532 ] } },
{ "type": "Feature", "properties": { "city": "Staunton", "street": "1022 Richmond Avenue", "state": "VA", "zip": "24401", "country": "US", "latitude": 38.137067154881692, "longitude": -79.046677949336015 }, "geometry": { "type": "Point", "coordinates": [ -79.046677949336015, 38.137067154881692 ] } },
{ "type": "Feature", "properties": { "city": "Rancho Cordova", "street": "10399 Folsom Blvd", "state": "CA", "zip": "95670", "country": "US", "latitude": 38.5891551, "longitude": -121.3035242 }, "geometry": { "type": "Point", "coordinates": [ -121.3035242, 38.5891551 ] } },
{ "type": "Feature", "properties": { "city": "Clinton", "street": "105 W. Carolina Avenue", "state": "SC", "zip": "29325", "country": "US", "latitude": 34.472232211214752, "longitude": -81.882388776040102 }, "geometry": { "type": "Point", "coordinates": [ -81.882388776040102, 34.472232211214752 ] } },
{ "type": "Feature", "properties": { "city": "Leland", "street": "104 Village Road", "state": "NC", "zip": "28451", "country": "US", "latitude": 34.233910190880579, "longitude": -77.996032594494807 }, "geometry": { "type": "Point", "coordinates": [ -77.996032594494807, 34.233910190880579 ] } },
{ "type": "Feature", "properties": { "city": "Demopolis", "street": "105 Highway 80 East", "state": "AL", "zip": "36732", "country": "US", "latitude": 32.5037361, "longitude": -87.8374426 }, "geometry": { "type": "Point", "coordinates": [ -87.8374426, 32.5037361 ] } },
{ "type": "Feature", "properties": { "city": "Kent", "street": "10414 SE 260th Street", "state": "WA", "zip": "98030", "country": "US", "latitude": 47.369212826780554, "longitude": -122.20196928641934 }, "geometry": { "type": "Point", "coordinates": [ -122.201969286419342, 47.369212826780554 ] } },
{ "type": "Feature", "properties": { "city": "Abbeville", "street": "105 West Greenwood St", "state": "SC", "zip": "29620", "country": "US", "latitude": 34.172641424298206, "longitude": -82.375282189566633 }, "geometry": { "type": "Point", "coordinates": [ -82.375282189566633, 34.172641424298206 ] } },
{ "type": "Feature", "properties": { "city": "Saint Louis", "street": "10557 Page", "state": "MO", "zip": "63132", "country": "US", "latitude": 38.69233458554185, "longitude": -90.394429469505667 }, "geometry": { "type": "Point", "coordinates": [ -90.394429469505667, 38.69233458554185 ] } },
{ "type": "Feature", "properties": { "city": "Imperial Beach", "street": "1056 13th St", "state": "CA", "zip": "91932", "country": "US", "latitude": 32.5772417, "longitude": -117.1059997 }, "geometry": { "type": "Point", "coordinates": [ -117.1059997, 32.5772417 ] } },
{ "type": "Feature", "properties": { "city": "Covina", "street": "1057 N. Grand Avenue", "state": "CA", "zip": "91724", "country": "US", "latitude": 34.098782023684535, "longitude": -117.87297805518443 }, "geometry": { "type": "Point", "coordinates": [ -117.872978055184433, 34.098782023684535 ] } },
{ "type": "Feature", "properties": { "city": "Pembroke", "street": "106 North Odum Street", "state": "NC", "zip": "28372", "country": "US", "latitude": 34.684889704809365, "longitude": -79.198937898735721 }, "geometry": { "type": "Point", "coordinates": [ -79.198937898735721, 34.684889704809365 ] } },
{ "type": "Feature", "properties": { "city": "Chicago", "street": "10556 South Indianapolis", "state": "IL", "zip": "60617", "country": "US", "latitude": 41.702944261918311, "longitude": -87.525277172369954 }, "geometry": { "type": "Point", "coordinates": [ -87.525277172369954, 41.702944261918311 ] } },
{ "type": "Feature", "properties": { "city": "Ridgeland", "street": "1068 County Line Road", "state": "MS", "zip": "39157", "country": "US", "latitude": 32.399838071128208, "longitude": -90.136075151537909 }, "geometry": { "type": "Point", "coordinates": [ -90.136075151537909, 32.399838071128208 ] } },
{ "type": "Feature", "properties": { "city": "West Columbia", "street": "107 12th Street", "state": "SC", "zip": "29169", "country": "US", "latitude": 33.989451209943596, "longitude": -81.073745159483622 }, "geometry": { "type": "Point", "coordinates": [ -81.073745159483622, 33.989451209943596 ] } },
{ "type": "Feature", "properties": { "city": "Yakima", "street": "107 South 5th Avenue", "state": "WA", "zip": "98902", "country": "US", "latitude": 46.598617584685137, "longitude": -120.5143509036875 }, "geometry": { "type": "Point", "coordinates": [ -120.5143509036875, 46.598617584685137 ] } },
{ "type": "Feature", "properties": { "city": "Fallbrook", "street": "1077 S Mission Rd", "state": "CA", "zip": "92028", "country": "US", "latitude": 33.373383570217456, "longitude": -117.25394812307087 }, "geometry": { "type": "Point", "coordinates": [ -117.25394812307087, 33.373383570217456 ] } },
{ "type": "Feature", "properties": { "city": "Northglenn", "street": "10790 Washington Street", "state": "CO", "zip": "80233", "country": "US", "latitude": 39.892297388893503, "longitude": -104.97720020428181 }, "geometry": { "type": "Point", "coordinates": [ -104.977200204281814, 39.892297388893503 ] } },
{ "type": "Feature", "properties": { "city": "Prosser", "street": "109 Merlot Drive", "state": "WA", "zip": "99350", "country": "US", "latitude": 46.2203657, "longitude": -119.7877754 }, "geometry": { "type": "Point", "coordinates": [ -119.7877754, 46.2203657 ] } },
{ "type": "Feature", "properties": { "city": "Norwalk", "street": "10937 Alondra Blvd", "state": "CA", "zip": "90650", "country": "US", "latitude": 33.888078817493913, "longitude": -118.1013900756991 }, "geometry": { "type": "Point", "coordinates": [ -118.101390075699101, 33.888078817493913 ] } },
{ "type": "Feature", "properties": { "city": "Newberry", "street": "110 Heritage Drive", "state": "SC", "zip": "29108", "country": "US", "latitude": 34.283011087517316, "longitude": -81.590955221478453 }, "geometry": { "type": "Point", "coordinates": [ -81.590955221478453, 34.283011087517316 ] } },
{ "type": "Feature", "properties": { "city": "Yakima", "street": "110 North 40th Avenue", "state": "WA", "zip": "98908", "country": "US", "latitude": 46.599095261917135, "longitude": -120.56228268216807 }, "geometry": { "type": "Point", "coordinates": [ -120.562282682168075, 46.599095261917135 ] } },
{ "type": "Feature", "properties": { "city": "Monroe", "street": "1100 West Spring Street", "state": "GA", "zip": "30655", "country": "US", "latitude": 33.793326840737855, "longitude": -83.731436414103541 }, "geometry": { "type": "Point", "coordinates": [ -83.731436414103541, 33.793326840737855 ] } },
{ "type": "Feature", "properties": { "city": "Tuscaloosa", "street": "1101 Lurleen Wallace Boulevard South", "state": "AL", "zip": "35401", "country": "US", "latitude": 33.203025206245485, "longitude": -87.56818274049283 }, "geometry": { "type": "Point", "coordinates": [ -87.56818274049283, 33.203025206245485 ] } },
{ "type": "Feature", "properties": { "city": "Shelby", "street": "1102 East Dixon Boulevard", "state": "NC", "zip": "28152", "country": "US", "latitude": 35.27278109489383, "longitude": -81.524572484175849 }, "geometry": { "type": "Point", "coordinates": [ -81.524572484175849, 35.27278109489383 ] } },
{ "type": "Feature", "properties": { "city": "Fresno", "street": "1110 C Street", "state": "CA", "zip": "93706", "country": "US", "latitude": 36.729609641810221, "longitude": -119.79897414045809 }, "geometry": { "type": "Point", "coordinates": [ -119.798974140458085, 36.729609641810221 ] } },
{ "type": "Feature", "properties": { "city": "Tuscaloosa", "street": "1111 Skyland Boulevard", "state": "AL", "zip": "35405", "country": "US", "latitude": 33.167753403531599, "longitude": -87.521730584239776 }, "geometry": { "type": "Point", "coordinates": [ -87.521730584239776, 33.167753403531599 ] } },
{ "type": "Feature", "properties": { "city": "Marion", "street": "1110 Highway 70, W", "state": "NC", "zip": "28752", "country": "US", "latitude": 35.71228333, "longitude": -82.03552167 }, "geometry": { "type": "Point", "coordinates": [ -82.03552167, 35.71228333 ] } },
{ "type": "Feature", "properties": { "city": "Mayfield", "street": "1115 Paris Road", "state": "KY", "zip": "42066", "country": "US", "latitude": 36.723458051650923, "longitude": -88.62821955398465 }, "geometry": { "type": "Point", "coordinates": [ -88.62821955398465, 36.723458051650923 ] } },
{ "type": "Feature", "properties": { "city": "Rocky Mount", "street": "1120 Fairview Road", "state": "NC", "zip": "27801", "country": "US", "latitude": 35.943519543554146, "longitude": -77.775932886490807 }, "geometry": { "type": "Point", "coordinates": [ -77.775932886490807, 35.943519543554146 ] } },
{ "type": "Feature", "properties": { "city": "Yuma", "street": "11183 S. Frontage Drive", "state": "AZ", "zip": "85367", "country": "US", "latitude": 32.668540395660372, "longitude": -114.44238670609951 }, "geometry": { "type": "Point", "coordinates": [ -114.442386706099512, 32.668540395660372 ] } },
{ "type": "Feature", "properties": { "city": "Duarte", "street": "1128 East Huntington Drive", "state": "CA", "zip": "91010", "country": "US", "latitude": 34.139180986619742, "longitude": -117.98064201165676 }, "geometry": { "type": "Point", "coordinates": [ -117.980642011656755, 34.139180986619742 ] } },
{ "type": "Feature", "properties": { "city": "El Paso", "street": "11330 Montwood Drive", "state": "TX", "zip": "79936", "country": "US", "latitude": 31.768926, "longitude": -106.301099 }, "geometry": { "type": "Point", "coordinates": [ -106.301099, 31.768926 ] } },
{ "type": "Feature", "properties": { "city": "Seaside", "street": "1175 Fremont Boulevard", "state": "CA", "zip": "93955", "country": "US", "latitude": 36.602292760713993, "longitude": -121.84922419816496 }, "geometry": { "type": "Point", "coordinates": [ -121.849224198164961, 36.602292760713993 ] } },
{ "type": "Feature", "properties": { "city": "Houston", "street": "11791 S. Sam Houston Parkway East", "state": "TX", "zip": "77089", "country": "US", "latitude": 29.602109675172862, "longitude": -95.214418189566629 }, "geometry": { "type": "Point", "coordinates": [ -95.214418189566629, 29.602109675172862 ] } },
{ "type": "Feature", "properties": { "city": "Clemson", "street": "118 Pinnacle St", "state": "SC", "zip": "29631", "country": "US", "latitude": 34.689735538568158, "longitude": -82.825070921292308 }, "geometry": { "type": "Point", "coordinates": [ -82.825070921292308, 34.689735538568158 ] } },
{ "type": "Feature", "properties": { "city": "Anna", "street": "1195 E. Vienna Street", "state": "IL", "zip": "62906", "country": "US", "latitude": 37.462385, "longitude": -89.2297379 }, "geometry": { "type": "Point", "coordinates": [ -89.2297379, 37.462385 ] } },
{ "type": "Feature", "properties": { "city": "Raeford", "street": "103 Laurinburg Road", "state": "NC", "zip": "28376", "country": "US", "latitude": 34.978375649606946, "longitude": -79.23603081859352 }, "geometry": { "type": "Point", "coordinates": [ -79.23603081859352, 34.978375649606946 ] } },
{ "type": "Feature", "properties": { "city": "Stanton", "street": "12007 Beach Blvd", "state": "CA", "zip": "90680", "country": "US", "latitude": 33.787721083225478, "longitude": -117.9934927404928 }, "geometry": { "type": "Point", "coordinates": [ -117.993492740492798, 33.787721083225478 ] } },
{ "type": "Feature", "properties": { "city": "Bowling Green", "street": "1201 US 31W Byp", "state": "KY", "zip": "42101", "country": "US", "latitude": 36.982968106481763, "longitude": -86.440182973628055 }, "geometry": { "type": "Point", "coordinates": [ -86.440182973628055, 36.982968106481763 ] } },
{ "type": "Feature", "properties": { "city": "Corinth", "street": "1209 Highway 72 East", "state": "MS", "zip": "38834", "country": "US", "latitude": 34.930086061330584, "longitude": -88.535867665029741 }, "geometry": { "type": "Point", "coordinates": [ -88.535867665029741, 34.930086061330584 ] } },
{ "type": "Feature", "properties": { "city": "Sylacauga", "street": "1204 Talladega Highway", "state": "AL", "zip": "35150", "country": "US", "latitude": 33.184440973999727, "longitude": -86.245469077631242 }, "geometry": { "type": "Point", "coordinates": [ -86.245469077631242, 33.184440973999727 ] } },
{ "type": "Feature", "properties": { "city": "Garden Grove", "street": "12042 Valley View Blvd", "state": "CA", "zip": "92845", "country": "US", "latitude": 33.787624669638852, "longitude": -118.02818069936473 }, "geometry": { "type": "Point", "coordinates": [ -118.028180699364725, 33.787624669638852 ] } },
{ "type": "Feature", "properties": { "city": "Salinas", "street": "1209 South Main Street", "state": "CA", "zip": "93901", "country": "US", "latitude": 36.657832685122969, "longitude": -121.65916662037313 }, "geometry": { "type": "Point", "coordinates": [ -121.659166620373128, 36.657832685122969 ] } },
{ "type": "Feature", "properties": { "city": "Puyallup", "street": "12118 Meridian Street, East", "state": "WA", "zip": "98373", "country": "US", "latitude": 47.145893993391432, "longitude": -122.29345367356973 }, "geometry": { "type": "Point", "coordinates": [ -122.293453673569729, 47.145893993391432 ] } },
{ "type": "Feature", "properties": { "city": "El Paso", "street": "12130 Montwood Drive", "state": "TX", "zip": "79936", "country": "US", "latitude": 31.760395325633525, "longitude": -106.27172982514855 }, "geometry": { "type": "Point", "coordinates": [ -106.271729825148554, 31.760395325633525 ] } },
{ "type": "Feature", "properties": { "city": "Fort Collins", "street": "1227 E. Magnolia", "state": "CO", "zip": "80524", "country": "US", "latitude": 40.58400070821402, "longitude": -105.05611701038566 }, "geometry": { "type": "Point", "coordinates": [ -105.056117010385663, 40.58400070821402 ] } },
{ "type": "Feature", "properties": { "city": "Forestdale", "street": "1229 Forestdale Boulevard", "state": "AL", "zip": "35214", "country": "US", "latitude": 33.560725587714664, "longitude": -86.891806122107482 }, "geometry": { "type": "Point", "coordinates": [ -86.891806122107482, 33.560725587714664 ] } },
{ "type": "Feature", "properties": { "city": "Mount Vernon", "street": "1230 Richmond Street N", "state": "KY", "zip": "40456", "country": "US", "latitude": 37.370163196878927, "longitude": -84.33489439147786 }, "geometry": { "type": "Point", "coordinates": [ -84.33489439147786, 37.370163196878927 ] } },
{ "type": "Feature", "properties": { "city": "Starkville", "street": "127A Highway 12 West", "state": "MS", "zip": "39759", "country": "US", "latitude": 33.453687294815488, "longitude": -88.817917939734002 }, "geometry": { "type": "Point", "coordinates": [ -88.817917939734002, 33.453687294815488 ] } },
{ "type": "Feature", "properties": { "city": "Mocksville", "street": "1230 Yadkinville Road", "state": "NC", "zip": "27028", "country": "US", "latitude": 35.915242210808358, "longitude": -80.581898512856583 }, "geometry": { "type": "Point", "coordinates": [ -80.581898512856583, 35.915242210808358 ] } },
{ "type": "Feature", "properties": { "city": "Kenosha", "street": "12303 W. 75th Street", "state": "WI", "zip": "53142", "country": "US", "latitude": 42.566877, "longitude": -87.956552 }, "geometry": { "type": "Point", "coordinates": [ -87.956552, 42.566877 ] } },
{ "type": "Feature", "properties": { "city": "Sanford", "street": "1244 Main Street", "state": "ME", "zip": "04073", "country": "US", "latitude": 43.419794823652005, "longitude": -70.755760326551638 }, "geometry": { "type": "Point", "coordinates": [ -70.755760326551638, 43.419794823652005 ] } },
{ "type": "Feature", "properties": { "city": "Albuquerque", "street": "12921 Central Avenue N.E", "state": "NM", "zip": "87123", "country": "US", "latitude": 35.06930885625809, "longitude": -106.50453797546322 }, "geometry": { "type": "Point", "coordinates": [ -106.504537975463222, 35.06930885625809 ] } },
{ "type": "Feature", "properties": { "city": "Hayward", "street": "1299 West Tennyson Road", "state": "CA", "zip": "94544", "country": "US", "latitude": 37.631638004117946, "longitude": -122.07903813739966 }, "geometry": { "type": "Point", "coordinates": [ -122.079038137399664, 37.631638004117946 ] } },
{ "type": "Feature", "properties": { "city": "King City", "street": "1300 Broadway Circle", "state": "CA", "zip": "93930", "country": "US", "latitude": 36.203299887555339, "longitude": -121.137744344699 }, "geometry": { "type": "Point", "coordinates": [ -121.137744344699001, 36.203299887555339 ] } },
{ "type": "Feature", "properties": { "city": "Greenwood", "street": "1300 S. Main Street", "state": "SC", "zip": "29646", "country": "US", "latitude": 34.177443299464748, "longitude": -82.152224227595298 }, "geometry": { "type": "Point", "coordinates": [ -82.152224227595298, 34.177443299464748 ] } },
{ "type": "Feature", "properties": { "city": "Quincy", "street": "1307 W. Jefferson St", "state": "FL", "zip": "32351", "country": "US", "latitude": 30.587650655334667, "longitude": -84.592919268760852 }, "geometry": { "type": "Point", "coordinates": [ -84.592919268760852, 30.587650655334667 ] } },
{ "type": "Feature", "properties": { "city": "Port Orchard", "street": "1310 Bay Street", "state": "WA", "zip": "98366", "country": "US", "latitude": 47.541782028570402, "longitude": -122.62745539380751 }, "geometry": { "type": "Point", "coordinates": [ -122.627455393807509, 47.541782028570402 ] } },
{ "type": "Feature", "properties": { "city": "Whittier", "street": "13106 Whittier Boulevard", "state": "CA", "zip": "90602", "country": "US", "latitude": 33.964719297262, "longitude": -118.03606556869983 }, "geometry": { "type": "Point", "coordinates": [ -118.036065568699826, 33.964719297262 ] } },
{ "type": "Feature", "properties": { "city": "Murphy", "street": "1321 Andrews Road", "state": "NC", "zip": "28906", "country": "US", "latitude": 35.105639287692306, "longitude": -84.014460088740464 }, "geometry": { "type": "Point", "coordinates": [ -84.014460088740464, 35.105639287692306 ] } },
{ "type": "Feature", "properties": { "city": "Santa Ana", "street": "1345 South Main Street", "state": "CA", "zip": "92707", "country": "US", "latitude": 33.730124667919661, "longitude": -117.86748481275686 }, "geometry": { "type": "Point", "coordinates": [ -117.867484812756857, 33.730124667919661 ] } },
{ "type": "Feature", "properties": { "city": "Livonia", "street": "13485 Farmington Road", "state": "MI", "zip": "48150", "country": "US", "latitude": 42.381410736444757, "longitude": -83.373393787690588 }, "geometry": { "type": "Point", "coordinates": [ -83.373393787690588, 42.381410736444757 ] } },
{ "type": "Feature", "properties": { "city": "Clawson", "street": "1345 North Main", "state": "MI", "zip": "48017", "country": "US", "latitude": 42.545098332589895, "longitude": -83.147277991942133 }, "geometry": { "type": "Point", "coordinates": [ -83.147277991942133, 42.545098332589895 ] } },
{ "type": "Feature", "properties": { "city": "Santa Clara", "street": "1353 El Camino Real", "state": "CA", "zip": "95050", "country": "US", "latitude": 37.353368816726856, "longitude": -121.95115443094949 }, "geometry": { "type": "Point", "coordinates": [ -121.951154430949487, 37.353368816726856 ] } },
{ "type": "Feature", "properties": { "city": "Crosby", "street": "13727 FM 2100", "state": "TX", "zip": "77532", "country": "US", "latitude": 29.887023025240687, "longitude": -95.063606093831083 }, "geometry": { "type": "Point", "coordinates": [ -95.063606093831083, 29.887023025240687 ] } },
{ "type": "Feature", "properties": { "city": "Indian Trail", "street": "13900 US Highway 74", "state": "NC", "zip": "28079", "country": "US", "latitude": 35.079616543022404, "longitude": -80.656965171052718 }, "geometry": { "type": "Point", "coordinates": [ -80.656965171052718, 35.079616543022404 ] } },
{ "type": "Feature", "properties": { "city": "Rockingham", "street": "1354 E. Broad St", "state": "NC", "zip": "28379", "country": "US", "latitude": 34.920423793446602, "longitude": -79.748632918402677 }, "geometry": { "type": "Point", "coordinates": [ -79.748632918402677, 34.920423793446602 ] } },
{ "type": "Feature", "properties": { "city": "Aiken", "street": "1406 Richland Avenue W", "state": "SC", "zip": "29801", "country": "US", "latitude": 33.566026247037229, "longitude": -81.737901346586114 }, "geometry": { "type": "Point", "coordinates": [ -81.737901346586114, 33.566026247037229 ] } },
{ "type": "Feature", "properties": { "city": "La Mirada", "street": "13970 Imperial Highway", "state": "CA", "zip": "90638", "country": "US", "latitude": 33.916804839077002, "longitude": -118.03413195031453 }, "geometry": { "type": "Point", "coordinates": [ -118.034131950314531, 33.916804839077002 ] } },
{ "type": "Feature", "properties": { "city": "Bradenton", "street": "1420 Cortez Road West", "state": "FL", "zip": "34207", "country": "US", "latitude": 27.462757490687132, "longitude": -82.576822953372925 }, "geometry": { "type": "Point", "coordinates": [ -82.576822953372925, 27.462757490687132 ] } },
{ "type": "Feature", "properties": { "city": "Seneca", "street": "1425 Sandifer Blvd", "state": "SC", "zip": "29678", "country": "US", "latitude": 34.6918796, "longitude": -82.986471 }, "geometry": { "type": "Point", "coordinates": [ -82.986471, 34.6918796 ] } },
{ "type": "Feature", "properties": { "city": "Alhambra", "street": "1425 South New", "state": "CA", "zip": "91801", "country": "US", "latitude": 34.078349340816615, "longitude": -118.10855665889551 }, "geometry": { "type": "Point", "coordinates": [ -118.108556658895509, 34.078349340816615 ] } },
{ "type": "Feature", "properties": { "city": "Victorville", "street": "14284 Outer 7th Street", "state": "CA", "zip": "92395", "country": "US", "latitude": 34.510471562754844, "longitude": -117.31981897190133 }, "geometry": { "type": "Point", "coordinates": [ -117.319818971901327, 34.510471562754844 ] } },
{ "type": "Feature", "properties": { "city": "Garland", "street": "1430 W. Buckingham Rd", "state": "TX", "zip": "75042", "country": "US", "latitude": 32.930344, "longitude": -96.649007 }, "geometry": { "type": "Point", "coordinates": [ -96.649007, 32.930344 ] } },
{ "type": "Feature", "properties": { "city": "Van Nuys", "street": "14522 Burbank Blvd", "state": "CA", "zip": "91411", "country": "US", "latitude": 34.171870873642064, "longitude": -118.44948090451874 }, "geometry": { "type": "Point", "coordinates": [ -118.449480904518737, 34.171870873642064 ] } },
{ "type": "Feature", "properties": { "city": "Santa Paula", "street": "150 E Harvard Blvd", "state": "CA", "zip": "93060", "country": "US", "latitude": 34.346462034104789, "longitude": -119.0703514974378 }, "geometry": { "type": "Point", "coordinates": [ -119.070351497437798, 34.346462034104789 ] } },
{ "type": "Feature", "properties": { "city": "Cornelia", "street": "1467 Highway 441 Bypass", "state": "GA", "zip": "30531", "country": "US", "latitude": 34.509920556228792, "longitude": -83.545586664609289 }, "geometry": { "type": "Point", "coordinates": [ -83.545586664609289, 34.509920556228792 ] } },
{ "type": "Feature", "properties": { "city": "Lexington", "street": "1494 Boardwalk", "state": "KY", "zip": "40511", "country": "US", "latitude": 38.071695418571643, "longitude": -84.48248950425824 }, "geometry": { "type": "Point", "coordinates": [ -84.48248950425824, 38.071695418571643 ] } },
{ "type": "Feature", "properties": { "city": "Elkin", "street": "1485 N. Bridge Street", "state": "NC", "zip": "28621", "country": "US", "latitude": 36.270885466594798, "longitude": -80.853929359904384 }, "geometry": { "type": "Point", "coordinates": [ -80.853929359904384, 36.270885466594798 ] } },
{ "type": "Feature", "properties": { "city": "Lathrop", "street": "150 E. Louise Ave", "state": "CA", "zip": "95330", "country": "US", "latitude": 37.811376728777219, "longitude": -121.29274095689834 }, "geometry": { "type": "Point", "coordinates": [ -121.292740956898342, 37.811376728777219 ] } },
{ "type": "Feature", "properties": { "city": "Sacramento", "street": "1501 Meadowview Road", "state": "CA", "zip": "95832", "country": "US", "latitude": 38.481550010960973, "longitude": -121.50086275887816 }, "geometry": { "type": "Point", "coordinates": [ -121.500862758878156, 38.481550010960973 ] } },
{ "type": "Feature", "properties": { "city": "Granite City", "street": "1510 Johnson Road", "state": "IL", "zip": "62040", "country": "US", "latitude": 38.722784857414439, "longitude": -90.12170038467508 }, "geometry": { "type": "Point", "coordinates": [ -90.12170038467508, 38.722784857414439 ] } },
{ "type": "Feature", "properties": { "city": "Marysville", "street": "1501 Gratiot", "state": "MI", "zip": "48040", "country": "US", "latitude": 42.919270086382532, "longitude": -82.477426473823471 }, "geometry": { "type": "Point", "coordinates": [ -82.477426473823471, 42.919270086382532 ] } },
{ "type": "Feature", "properties": { "city": "Laurinburg", "street": "1513 S. Main", "state": "NC", "zip": "28352", "country": "US", "latitude": 34.758570695152024, "longitude": -79.471944708765875 }, "geometry": { "type": "Point", "coordinates": [ -79.471944708765875, 34.758570695152024 ] } },
{ "type": "Feature", "properties": { "city": "Burien", "street": "15209 1st Ave. South", "state": "WA", "zip": "98148", "country": "US", "latitude": 47.466580256287763, "longitude": -122.3344388337469 }, "geometry": { "type": "Point", "coordinates": [ -122.334438833746901, 47.466580256287763 ] } },
{ "type": "Feature", "properties": { "city": "Stockton", "street": "1537 N. Wilson Way", "state": "CA", "zip": "95205", "country": "US", "latitude": 37.971067016399523, "longitude": -121.27611397362807 }, "geometry": { "type": "Point", "coordinates": [ -121.276113973628071, 37.971067016399523 ] } },
{ "type": "Feature", "properties": { "city": "Phoenix", "street": "1525 N 43rd Ave", "state": "AZ", "zip": "85009", "country": "US", "latitude": 33.465233775981815, "longitude": -112.15147166796413 }, "geometry": { "type": "Point", "coordinates": [ -112.151471667964131, 33.465233775981815 ] } },
{ "type": "Feature", "properties": { "city": "Denver", "street": "15495 E. Andrews Drive", "state": "CO", "zip": "80239", "country": "US", "latitude": 39.773700373632678, "longitude": -104.80750119682438 }, "geometry": { "type": "Point", "coordinates": [ -104.807501196824376, 39.773700373632678 ] } },
{ "type": "Feature", "properties": { "city": "Sacramento", "street": "1601 Del Paso Boulevard", "state": "CA", "zip": "95815", "country": "US", "latitude": 38.607329758293965, "longitude": -121.4573542286015 }, "geometry": { "type": "Point", "coordinates": [ -121.457354228601503, 38.607329758293965 ] } },
{ "type": "Feature", "properties": { "city": "Long Beach", "street": "1601 East Seventh Street", "state": "CA", "zip": "90813", "country": "US", "latitude": 33.775541294469171, "longitude": -118.17189414554389 }, "geometry": { "type": "Point", "coordinates": [ -118.171894145543888, 33.775541294469171 ] } },
{ "type": "Feature", "properties": { "city": "Long Beach", "street": "1601 West Willow Street", "state": "CA", "zip": "90810", "country": "US", "latitude": 33.804622199362576, "longitude": -118.21451851347445 }, "geometry": { "type": "Point", "coordinates": [ -118.214518513474445, 33.804622199362576 ] } },
{ "type": "Feature", "properties": { "city": "Watsonville", "street": "1610 Freedom Boulevard", "state": "CA", "zip": "95076", "country": "US", "latitude": 36.932542316690927, "longitude": -121.77007450422246 }, "geometry": { "type": "Point", "coordinates": [ -121.770074504222464, 36.932542316690927 ] } },
{ "type": "Feature", "properties": { "city": "Los Gatos", "street": "16150 Los Gatos Boulevard", "state": "CA", "zip": "95032", "country": "US", "latitude": 37.234214377516238, "longitude": -121.96336472432245 }, "geometry": { "type": "Point", "coordinates": [ -121.963364724322446, 37.234214377516238 ] } },
{ "type": "Feature", "properties": { "city": "Whittier", "street": "16161 Leffingwell Road", "state": "CA", "zip": "90603", "country": "US", "latitude": 33.93243554916176, "longitude": -117.98571556869985 }, "geometry": { "type": "Point", "coordinates": [ -117.985715568699845, 33.93243554916176 ] } },
{ "type": "Feature", "properties": { "city": "Dublin", "street": "1630 Veterans Boulevard", "state": "GA", "zip": "31021", "country": "US", "latitude": 32.535764864978766, "longitude": -82.930690976686492 }, "geometry": { "type": "Point", "coordinates": [ -82.930690976686492, 32.535764864978766 ] } },
{ "type": "Feature", "properties": { "city": "Pueblo", "street": "1644 S. Prairie Avenue", "state": "CO", "zip": "81005", "country": "US", "latitude": 38.239908685782225, "longitude": -104.64332968383633 }, "geometry": { "type": "Point", "coordinates": [ -104.643329683836328, 38.239908685782225 ] } },
{ "type": "Feature", "properties": { "city": "Loveland", "street": "1650 Foxtrail Dr", "state": "CO", "zip": "80538", "country": "US", "latitude": 40.408424508195878, "longitude": -105.00175892088413 }, "geometry": { "type": "Point", "coordinates": [ -105.001758920884129, 40.408424508195878 ] } },
{ "type": "Feature", "properties": { "city": "Birmingham", "street": "1653 Center Point Road", "state": "AL", "zip": "35215", "country": "US", "latitude": 33.630755847418065, "longitude": -86.684331807334047 }, "geometry": { "type": "Point", "coordinates": [ -86.684331807334047, 33.630755847418065 ] } },
{ "type": "Feature", "properties": { "city": "Rock Hill", "street": "1667 Ebenezer Road", "state": "SC", "zip": "29732", "country": "US", "latitude": 34.956130991572145, "longitude": -81.046257434358608 }, "geometry": { "type": "Point", "coordinates": [ -81.046257434358608, 34.956130991572145 ] } },
{ "type": "Feature", "properties": { "city": "Gastonia", "street": "1690 Neal Hawkins Road", "state": "NC", "zip": "28056", "country": "US", "latitude": 35.217082827221247, "longitude": -81.168581925545823 }, "geometry": { "type": "Point", "coordinates": [ -81.168581925545823, 35.217082827221247 ] } },
{ "type": "Feature", "properties": { "city": "Hesperia", "street": "16800 Main Street", "state": "CA", "zip": "92345", "country": "US", "latitude": 34.421235362305048, "longitude": -117.2965062478504 }, "geometry": { "type": "Point", "coordinates": [ -117.296506247850402, 34.421235362305048 ] } },
{ "type": "Feature", "properties": { "city": "Aurora", "street": "16901 East Quincy", "state": "CO", "zip": "80015", "country": "US", "latitude": 39.6388052, "longitude": -104.7909676 }, "geometry": { "type": "Point", "coordinates": [ -104.7909676, 39.6388052 ] } },
{ "type": "Feature", "properties": { "city": "Fontana", "street": "16931 Foothill Blvd", "state": "CA", "zip": "92335", "country": "US", "latitude": 34.106371033639519, "longitude": -117.43482371937205 }, "geometry": { "type": "Point", "coordinates": [ -117.434823719372048, 34.106371033639519 ] } },
{ "type": "Feature", "properties": { "city": "Visalia", "street": "1699 East Noble Avenue", "state": "CA", "zip": "93292", "country": "US", "latitude": 36.325319683179423, "longitude": -119.27460055398467 }, "geometry": { "type": "Point", "coordinates": [ -119.274600553984669, 36.325319683179423 ] } },
{ "type": "Feature", "properties": { "city": "Collinsville", "street": "1700 N. Vandalia", "state": "IL", "zip": "62234", "country": "US", "latitude": 38.689833643168825, "longitude": -89.972548 }, "geometry": { "type": "Point", "coordinates": [ -89.972548, 38.689833643168825 ] } },
{ "type": "Feature", "properties": { "city": "Aberdeen", "street": "1704 N. Sandhills Blvd", "state": "NC", "zip": "28315", "country": "US", "latitude": 35.153517938462393, "longitude": -79.415470845403661 }, "geometry": { "type": "Point", "coordinates": [ -79.415470845403661, 35.153517938462393 ] } },
{ "type": "Feature", "properties": { "city": "Morgan Hill", "street": "17050 Laurel Road", "state": "CA", "zip": "95037", "country": "US", "latitude": 37.130887874596176, "longitude": -121.63652095608791 }, "geometry": { "type": "Point", "coordinates": [ -121.636520956087907, 37.130887874596176 ] } },
{ "type": "Feature", "properties": { "city": "Winnemucca", "street": "1734 W. Winnemucca Boulevard", "state": "NV", "zip": "89445", "country": "US", "latitude": 40.962152010974648, "longitude": -117.74596697069978 }, "geometry": { "type": "Point", "coordinates": [ -117.745966970699783, 40.962152010974648 ] } },
{ "type": "Feature", "properties": { "city": "Fountain Valley", "street": "17239 Brookhurst Street", "state": "CA", "zip": "92708", "country": "US", "latitude": 33.7127881512587, "longitude": -117.95498099136074 }, "geometry": { "type": "Point", "coordinates": [ -117.954980991360742, 33.7127881512587 ] } },
{ "type": "Feature", "properties": { "city": "Puyallup", "street": "17514 Meridian East", "state": "WA", "zip": "98374", "country": "US", "latitude": 47.098105525122897, "longitude": -122.29510643619369 }, "geometry": { "type": "Point", "coordinates": [ -122.295106436193691, 47.098105525122897 ] } },
{ "type": "Feature", "properties": { "city": "Winnsboro", "street": "182 U.S. Highway 321 By-Pass South", "state": "SC", "zip": "29180", "country": "US", "latitude": 34.368312144142067, "longitude": -81.100960023313519 }, "geometry": { "type": "Point", "coordinates": [ -81.100960023313519, 34.368312144142067 ] } },
{ "type": "Feature", "properties": { "city": "Elko", "street": "1760 Mountain City Highway", "state": "NV", "zip": "89801", "country": "US", "latitude": 40.835207758295283, "longitude": -115.78644923318143 }, "geometry": { "type": "Point", "coordinates": [ -115.786449233181429, 40.835207758295283 ] } },
{ "type": "Feature", "properties": { "city": "Campbell", "street": "1805 Winchester Road", "state": "CA", "zip": "95008", "country": "US", "latitude": 37.290904066942112, "longitude": -121.950104 }, "geometry": { "type": "Point", "coordinates": [ -121.950104, 37.290904066942112 ] } },
{ "type": "Feature", "properties": { "city": "Bessemer", "street": "1818 Ninth Avenue North", "state": "AL", "zip": "35020", "country": "US", "latitude": 33.40636565299193, "longitude": -86.961646635581985 }, "geometry": { "type": "Point", "coordinates": [ -86.961646635581985, 33.40636565299193 ] } },
{ "type": "Feature", "properties": { "city": "Augusta", "street": "1816 Walton Way", "state": "GA", "zip": "30904", "country": "US", "latitude": 33.475255711697372, "longitude": -81.998102999584773 }, "geometry": { "type": "Point", "coordinates": [ -81.998102999584773, 33.475255711697372 ] } },
{ "type": "Feature", "properties": { "city": "Carson", "street": "18401 S. Avalon Blvd", "state": "CA", "zip": "90746", "country": "US", "latitude": 33.862888081199735, "longitude": -118.26662383497029 }, "geometry": { "type": "Point", "coordinates": [ -118.266623834970289, 33.862888081199735 ] } },
{ "type": "Feature", "properties": { "city": "Apple Valley", "street": "18447 Highway 18", "state": "CA", "zip": "92307", "country": "US", "latitude": 34.5390183637493, "longitude": -117.26159781345086 }, "geometry": { "type": "Point", "coordinates": [ -117.261597813450862, 34.5390183637493 ] } },
{ "type": "Feature", "properties": { "city": "Phoenix", "street": "1843 West Union Hills Dr", "state": "AZ", "zip": "85027", "country": "US", "latitude": 33.654402420521919, "longitude": -112.09931320676327 }, "geometry": { "type": "Point", "coordinates": [ -112.09931320676327, 33.654402420521919 ] } },
{ "type": "Feature", "properties": { "city": "Woodcrest", "street": "18585 Van Buren Blvd", "state": "CA", "zip": "92504", "country": "US", "latitude": 33.88682722661035, "longitude": -117.33984204662704 }, "geometry": { "type": "Point", "coordinates": [ -117.339842046627041, 33.88682722661035 ] } },
{ "type": "Feature", "properties": { "city": "Clovis", "street": "1860 Ashlan Avenue", "state": "CA", "zip": "93611", "country": "US", "latitude": 36.793571676421415, "longitude": -119.68080373189451 }, "geometry": { "type": "Point", "coordinates": [ -119.680803731894514, 36.793571676421415 ] } },
{ "type": "Feature", "properties": { "city": "Clarksville", "street": "1879 Madison Street", "state": "TN", "zip": "37043", "country": "US", "latitude": 36.514781225540553, "longitude": -87.303905247809496 }, "geometry": { "type": "Point", "coordinates": [ -87.303905247809496, 36.514781225540553 ] } },
{ "type": "Feature", "properties": { "city": "Hickory", "street": "1900 12th Avenue NE", "state": "NC", "zip": "28601", "country": "US", "latitude": 35.742608476171881, "longitude": -81.300510734317072 }, "geometry": { "type": "Point", "coordinates": [ -81.300510734317072, 35.742608476171881 ] } },
{ "type": "Feature", "properties": { "city": "Northport", "street": "1901 32nd Street", "state": "AL", "zip": "35476", "country": "US", "latitude": 33.238160655809097, "longitude": -87.577130961930379 }, "geometry": { "type": "Point", "coordinates": [ -87.577130961930379, 33.238160655809097 ] } },
{ "type": "Feature", "properties": { "city": "Huntington Beach", "street": "19091 Brookhurst Street", "state": "CA", "zip": "92646", "country": "US", "latitude": 33.685389717436223, "longitude": -117.95456073616759 }, "geometry": { "type": "Point", "coordinates": [ -117.954560736167593, 33.685389717436223 ] } },
{ "type": "Feature", "properties": { "city": "Hollister", "street": "191 McCray Street", "state": "CA", "zip": "95023", "country": "US", "latitude": 36.854536105896791, "longitude": -121.39867096193035 }, "geometry": { "type": "Point", "coordinates": [ -121.39867096193035, 36.854536105896791 ] } },
{ "type": "Feature", "properties": { "city": "Sunnyside", "street": "1928 Yakima Valley Hwy", "state": "WA", "zip": "98944", "country": "US", "latitude": 46.325053111084898, "longitude": -119.99438755150317 }, "geometry": { "type": "Point", "coordinates": [ -119.994387551503166, 46.325053111084898 ] } },
{ "type": "Feature", "properties": { "city": "Lincolnton", "street": "1916 East Main Street", "state": "NC", "zip": "28092", "country": "US", "latitude": 35.477891709864601, "longitude": -81.224923749760194 }, "geometry": { "type": "Point", "coordinates": [ -81.224923749760194, 35.477891709864601 ] } },
{ "type": "Feature", "properties": { "city": "Muscle Shoals", "street": "1910 Woodward Avenue", "state": "AL", "zip": "35661", "country": "US", "latitude": 34.74348913734142, "longitude": -87.668056332202923 }, "geometry": { "type": "Point", "coordinates": [ -87.668056332202923, 34.74348913734142 ] } },
{ "type": "Feature", "properties": { "city": "South El Monte", "street": "1927 North Durfee", "state": "CA", "zip": "91733", "country": "US", "latitude": 34.045228142207719, "longitude": -118.03092654305937 }, "geometry": { "type": "Point", "coordinates": [ -118.030926543059365, 34.045228142207719 ] } },
{ "type": "Feature", "properties": { "city": "Mesa", "street": "1950 W Baseline Rd", "state": "AZ", "zip": "85202", "country": "US", "latitude": 33.37894563123406, "longitude": -111.87636613074744 }, "geometry": { "type": "Point", "coordinates": [ -111.876366130747442, 33.37894563123406 ] } },
{ "type": "Feature", "properties": { "city": "Montgomery", "street": "1955 Coliseum Boulevard", "state": "AL", "zip": "36110", "country": "US", "latitude": 32.418414790819227, "longitude": -86.269124679029233 }, "geometry": { "type": "Point", "coordinates": [ -86.269124679029233, 32.418414790819227 ] } },
{ "type": "Feature", "properties": { "city": "Lawrenceburg", "street": "1950 N Locust Ave", "state": "TN", "zip": "38464", "country": "US", "latitude": 35.265449715021305, "longitude": -87.322295903819224 }, "geometry": { "type": "Point", "coordinates": [ -87.322295903819224, 35.265449715021305 ] } },
{ "type": "Feature", "properties": { "city": "Madisonville", "street": "197 Madison Square Drive", "state": "KY", "zip": "42431", "country": "US", "latitude": 37.321820273649521, "longitude": -87.478934329447725 }, "geometry": { "type": "Point", "coordinates": [ -87.478934329447725, 37.321820273649521 ] } },
{ "type": "Feature", "properties": { "city": "Franklin", "street": "441 Holly Springs Plaza", "state": "NC", "zip": "28734", "country": "US", "latitude": 35.182945075424229, "longitude": -83.356088454613655 }, "geometry": { "type": "Point", "coordinates": [ -83.356088454613655, 35.182945075424229 ] } },
{ "type": "Feature", "properties": { "city": "Glendale", "street": "200 N Verdugo Rd", "state": "CA", "zip": "91206", "country": "US", "latitude": 34.148194494825148, "longitude": -118.23530262392524 }, "geometry": { "type": "Point", "coordinates": [ -118.235302623925236, 34.148194494825148 ] } },
{ "type": "Feature", "properties": { "city": "Morehead", "street": "200 Stone Street", "state": "KY", "zip": "40351", "country": "US", "latitude": 38.175971044415775, "longitude": -83.43486317359924 }, "geometry": { "type": "Point", "coordinates": [ -83.43486317359924, 38.175971044415775 ] } },
{ "type": "Feature", "properties": { "city": "Lakewood", "street": "200 Wadsworth Boulevard", "state": "CO", "zip": "80226", "country": "US", "latitude": 39.719841196427346, "longitude": -105.08095241038563 }, "geometry": { "type": "Point", "coordinates": [ -105.080952410385635, 39.719841196427346 ] } },
{ "type": "Feature", "properties": { "city": "Lumberton", "street": "2000 Roberts Avenue", "state": "NC", "zip": "28358", "country": "US", "latitude": 34.638588502200598, "longitude": -78.999315948344815 }, "geometry": { "type": "Point", "coordinates": [ -78.999315948344815, 34.638588502200598 ] } },
{ "type": "Feature", "properties": { "city": "Tacoma", "street": "2006 Sixth Avenue", "state": "WA", "zip": "98403", "country": "US", "latitude": 47.255548279270627, "longitude": -122.46333832112305 }, "geometry": { "type": "Point", "coordinates": [ -122.463338321123047, 47.255548279270627 ] } },
{ "type": "Feature", "properties": { "city": "Monroe", "street": "2021 W. Roosevelt Boulevard", "state": "NC", "zip": "28110", "country": "US", "latitude": 35.003319502853415, "longitude": -80.555339591136487 }, "geometry": { "type": "Point", "coordinates": [ -80.555339591136487, 35.003319502853415 ] } },
{ "type": "Feature", "properties": { "city": "Augusta", "street": "2029 Windsor Springs Road", "state": "GA", "zip": "30906", "country": "US", "latitude": 33.409198, "longitude": -82.026093 }, "geometry": { "type": "Point", "coordinates": [ -82.026093, 33.409198 ] } },
{ "type": "Feature", "properties": { "city": "San Francisco", "street": "2040 Ocean Avenue", "state": "CA", "zip": "94127", "country": "US", "latitude": 37.726544542403317, "longitude": -122.46504588897227 }, "geometry": { "type": "Point", "coordinates": [ -122.46504588897227, 37.726544542403317 ] } },
{ "type": "Feature", "properties": { "city": "Clanton", "street": "2035 Seventh Street South", "state": "AL", "zip": "35045", "country": "US", "latitude": 32.802763745494794, "longitude": -86.587695422701842 }, "geometry": { "type": "Point", "coordinates": [ -86.587695422701842, 32.802763745494794 ] } },
{ "type": "Feature", "properties": { "city": "Salinas", "street": "2040 North Main Street", "state": "CA", "zip": "93906", "country": "US", "latitude": 36.723167820031257, "longitude": -121.65597995885457 }, "geometry": { "type": "Point", "coordinates": [ -121.655979958854573, 36.723167820031257 ] } },
{ "type": "Feature", "properties": { "city": "Fresno", "street": "2031 North Blackstone Avenue", "state": "CA", "zip": "93703", "country": "US", "latitude": 36.769265846946062, "longitude": -119.79095685094353 }, "geometry": { "type": "Point", "coordinates": [ -119.79095685094353, 36.769265846946062 ] } },
{ "type": "Feature", "properties": { "city": "Fayetteville", "street": "205 Highway 314", "state": "GA", "zip": "30214", "country": "US", "latitude": 33.467946530829586, "longitude": -84.449116711062402 }, "geometry": { "type": "Point", "coordinates": [ -84.449116711062402, 33.467946530829586 ] } },
{ "type": "Feature", "properties": { "city": "Pasadena", "street": "2050 Fair Oaks Boulevard", "state": "CA", "zip": "91103", "country": "US", "latitude": 34.181000828828168, "longitude": -118.15052682822437 }, "geometry": { "type": "Point", "coordinates": [ -118.150526828224372, 34.181000828828168 ] } },
{ "type": "Feature", "properties": { "city": "Blythewood", "street": "206 Blythewood Road", "state": "SC", "zip": "29016", "country": "US", "latitude": 34.214568947732076, "longitude": -80.978626763806346 }, "geometry": { "type": "Point", "coordinates": [ -80.978626763806346, 34.214568947732076 ] } },
{ "type": "Feature", "properties": { "city": "Long Beach", "street": "209 E. Pacific Coast Highway", "state": "CA", "zip": "90806", "country": "US", "latitude": 33.790137455295351, "longitude": -118.19074646189301 }, "geometry": { "type": "Point", "coordinates": [ -118.190746461893013, 33.790137455295351 ] } },
{ "type": "Feature", "properties": { "city": "Columbus", "street": "208 Alabama Street", "state": "MS", "zip": "39702", "country": "US", "latitude": 33.495416382908346, "longitude": -88.383582244791967 }, "geometry": { "type": "Point", "coordinates": [ -88.383582244791967, 33.495416382908346 ] } },
{ "type": "Feature", "properties": { "city": "Roseville", "street": "2087 North Snelling", "state": "MN", "zip": "55113", "country": "US", "latitude": 45.003956512052454, "longitude": -93.167412508643395 }, "geometry": { "type": "Point", "coordinates": [ -93.167412508643395, 45.003956512052454 ] } },
{ "type": "Feature", "properties": { "city": "Bonney Lake", "street": "20601 highway 410", "state": "WA", "zip": "98390", "country": "US", "latitude": 47.167895794223497, "longitude": -122.15455618358151 }, "geometry": { "type": "Point", "coordinates": [ -122.154556183581505, 47.167895794223497 ] } },
{ "type": "Feature", "properties": { "city": "Shrewsbury", "street": "21 S Quinsigamond Ave", "state": "MA", "zip": "01545", "country": "US", "latitude": 42.273653381470446, "longitude": -71.750944309804368 }, "geometry": { "type": "Point", "coordinates": [ -71.750944309804368, 42.273653381470446 ] } },
{ "type": "Feature", "properties": { "city": "Columbia", "street": "2104 Broad River Road", "state": "SC", "zip": "29210", "country": "US", "latitude": 34.037683700800535, "longitude": -81.090854961484581 }, "geometry": { "type": "Point", "coordinates": [ -81.090854961484581, 34.037683700800535 ] } },
{ "type": "Feature", "properties": { "city": "Wadesboro", "street": "212 N. Washington St", "state": "NC", "zip": "28170", "country": "US", "latitude": 34.967638356137279, "longitude": -80.074873411045075 }, "geometry": { "type": "Point", "coordinates": [ -80.074873411045075, 34.967638356137279 ] } },
{ "type": "Feature", "properties": { "city": "Rocky Mount", "street": "2108 Stone Rose Dr", "state": "NC", "zip": "27804", "country": "US", "latitude": 35.960130966670675, "longitude": -77.82071825090884 }, "geometry": { "type": "Point", "coordinates": [ -77.82071825090884, 35.960130966670675 ] } },
{ "type": "Feature", "properties": { "city": "Capitola", "street": "2120 41st Avenue", "state": "CA", "zip": "95010", "country": "US", "latitude": 36.979327501403198, "longitude": -121.96454757977961 }, "geometry": { "type": "Point", "coordinates": [ -121.964547579779605, 36.979327501403198 ] } },
{ "type": "Feature", "properties": { "city": "Vallejo", "street": "2150 Redwood Street", "state": "CA", "zip": "94590", "country": "US", "latitude": 38.122464944962431, "longitude": -122.23687677852155 }, "geometry": { "type": "Point", "coordinates": [ -122.236876778521548, 38.122464944962431 ] } },
{ "type": "Feature", "properties": { "city": "Brawley", "street": "215 West Main", "state": "CA", "zip": "92227", "country": "US", "latitude": 32.978887741074693, "longitude": -115.54436067804863 }, "geometry": { "type": "Point", "coordinates": [ -115.544360678048633, 32.978887741074693 ] } },
{ "type": "Feature", "properties": { "city": "Harrisonburg", "street": "2160 John Wayland Highway", "state": "VA", "zip": "22801", "country": "US", "latitude": 38.431047820038238, "longitude": -78.908890534967668 }, "geometry": { "type": "Point", "coordinates": [ -78.908890534967668, 38.431047820038238 ] } },
{ "type": "Feature", "properties": { "city": "Dublin", "street": "2182 Highway 441 South", "state": "GA", "zip": "31021", "country": "US", "latitude": 32.4896, "longitude": -82.932982769923228 }, "geometry": { "type": "Point", "coordinates": [ -82.932982769923228, 32.4896 ] } },
{ "type": "Feature", "properties": { "city": "Concord", "street": "2160 Monument Boulevard", "state": "CA", "zip": "94520", "country": "US", "latitude": 37.957253857527142, "longitude": -122.03702881437721 }, "geometry": { "type": "Point", "coordinates": [ -122.037028814377209, 37.957253857527142 ] } },
{ "type": "Feature", "properties": { "city": "Greenwood", "street": "219 By Pass 72 NW", "state": "SC", "zip": "29649", "country": "US", "latitude": 34.212563, "longitude": -82.175002 }, "geometry": { "type": "Point", "coordinates": [ -82.175002, 34.212563 ] } },
{ "type": "Feature", "properties": { "city": "Talladega", "street": "219 Haynes Street", "state": "AL", "zip": "35160", "country": "US", "latitude": 33.437142225435736, "longitude": -86.082722368203008 }, "geometry": { "type": "Point", "coordinates": [ -86.082722368203008, 33.437142225435736 ] } },
{ "type": "Feature", "properties": { "city": "Albuquerque", "street": "2201 Eubank Boulevard N.E", "state": "NM", "zip": "87112", "country": "US", "latitude": 35.107696364748101, "longitude": -106.53349895031454 }, "geometry": { "type": "Point", "coordinates": [ -106.533498950314538, 35.107696364748101 ] } },
{ "type": "Feature", "properties": { "city": "Seattle", "street": "2201 4th Avenue South", "state": "WA", "zip": "98134", "country": "US", "latitude": 47.583819569620708, "longitude": -122.32952609321319 }, "geometry": { "type": "Point", "coordinates": [ -122.32952609321319, 47.583819569620708 ] } },
{ "type": "Feature", "properties": { "city": "Murfreesboro", "street": "2205 Old Fort Parkway", "state": "TN", "zip": "37129", "country": "US", "latitude": 35.846726547617919, "longitude": -86.431241099195233 }, "geometry": { "type": "Point", "coordinates": [ -86.431241099195233, 35.846726547617919 ] } },
{ "type": "Feature", "properties": { "city": "Decatur", "street": "2208 Beltline Road", "state": "AL", "zip": "35601", "country": "US", "latitude": 34.584744049569494, "longitude": -87.023585244976289 }, "geometry": { "type": "Point", "coordinates": [ -87.023585244976289, 34.584744049569494 ] } },
{ "type": "Feature", "properties": { "city": "Lewistown", "street": "221 Electric Avenue", "state": "PA", "zip": "17044", "country": "US", "latitude": 40.615961855848539, "longitude": -77.567495918402642 }, "geometry": { "type": "Point", "coordinates": [ -77.567495918402642, 40.615961855848539 ] } },
{ "type": "Feature", "properties": { "city": "Mesa", "street": "2210 E Baseline Rd", "state": "AZ", "zip": "85204", "country": "US", "latitude": 33.379385575863317, "longitude": -111.78503369512157 }, "geometry": { "type": "Point", "coordinates": [ -111.78503369512157, 33.379385575863317 ] } },
{ "type": "Feature", "properties": { "city": "Pasco", "street": "2210 W. Court Street", "state": "WA", "zip": "99301", "country": "US", "latitude": 46.241125739811494, "longitude": -119.1208527699232 }, "geometry": { "type": "Point", "coordinates": [ -119.120852769923204, 46.241125739811494 ] } },
{ "type": "Feature", "properties": { "city": "Columbus", "street": "2224 Highway 45 North", "state": "MS", "zip": "39705", "country": "US", "latitude": 33.528317734520442, "longitude": -88.436306262132916 }, "geometry": { "type": "Point", "coordinates": [ -88.436306262132916, 33.528317734520442 ] } },
{ "type": "Feature", "properties": { "city": "Hammond", "street": "223 North Morrison Boulevard", "state": "LA", "zip": "70401", "country": "US", "latitude": 30.502564086911988, "longitude": -90.483168425847055 }, "geometry": { "type": "Point", "coordinates": [ -90.483168425847055, 30.502564086911988 ] } },
{ "type": "Feature", "properties": { "city": "Henderson", "street": "2236 Highway 41 North", "state": "KY", "zip": "42420", "country": "US", "latitude": 37.869950002507665, "longitude": -87.570245676669117 }, "geometry": { "type": "Point", "coordinates": [ -87.570245676669117, 37.869950002507665 ] } },
{ "type": "Feature", "properties": { "city": "Santa Rosa", "street": "2249 Santa Rosa Ave", "state": "CA", "zip": "95407", "country": "US", "latitude": 38.416937050768553, "longitude": -122.71393208771417 }, "geometry": { "type": "Point", "coordinates": [ -122.71393208771417, 38.416937050768553 ] } },
{ "type": "Feature", "properties": { "city": "Gillette", "street": "2250 South Douglas Highway", "state": "WY", "zip": "82716", "country": "US", "latitude": 44.273927663983365, "longitude": -105.49503366810552 }, "geometry": { "type": "Point", "coordinates": [ -105.495033668105521, 44.273927663983365 ] } },
{ "type": "Feature", "properties": { "city": "Fairfield", "street": "2263 N. Texas Street", "state": "CA", "zip": "94533", "country": "US", "latitude": 38.269794627558362, "longitude": -122.03452708461487 }, "geometry": { "type": "Point", "coordinates": [ -122.034527084614865, 38.269794627558362 ] } },
{ "type": "Feature", "properties": { "city": "Grinnell", "street": "229 West Street", "state": "IA", "zip": "50112", "country": "US", "latitude": 41.734094091301181, "longitude": -92.727709337406452 }, "geometry": { "type": "Point", "coordinates": [ -92.727709337406452, 41.734094091301181 ] } },
{ "type": "Feature", "properties": { "city": "Federal Way", "street": "2300 SW 336th St", "state": "WA", "zip": "98023", "country": "US", "latitude": 47.3009202, "longitude": -122.363216 }, "geometry": { "type": "Point", "coordinates": [ -122.363216, 47.3009202 ] } },
{ "type": "Feature", "properties": { "city": "Sacramento", "street": "2312 Arden Way", "state": "CA", "zip": "95825", "country": "US", "latitude": 38.595699011763891, "longitude": -121.40975230365279 }, "geometry": { "type": "Point", "coordinates": [ -121.409752303652795, 38.595699011763891 ] } },
{ "type": "Feature", "properties": { "city": "Yakima", "street": "2325 S. First Street", "state": "WA", "zip": "98903", "country": "US", "latitude": 46.56791198921244, "longitude": -120.48432136341245 }, "geometry": { "type": "Point", "coordinates": [ -120.484321363412448, 46.56791198921244 ] } },
{ "type": "Feature", "properties": { "city": "Elk Grove", "street": "2330 Longport Court", "state": "CA", "zip": "95758", "country": "US", "latitude": 38.425015839572097, "longitude": -121.48127124322718 }, "geometry": { "type": "Point", "coordinates": [ -121.481271243227184, 38.425015839572097 ] } },
{ "type": "Feature", "properties": { "city": "Columbia", "street": "2340 Decker Blvd", "state": "SC", "zip": "29206", "country": "US", "latitude": 34.055272682794431, "longitude": -80.947668891989792 }, "geometry": { "type": "Point", "coordinates": [ -80.947668891989792, 34.055272682794431 ] } },
{ "type": "Feature", "properties": { "city": "Columbia", "street": "2349 Taylor Street", "state": "SC", "zip": "29204", "country": "US", "latitude": 34.012742437005947, "longitude": -81.017037093186843 }, "geometry": { "type": "Point", "coordinates": [ -81.017037093186843, 34.012742437005947 ] } },
{ "type": "Feature", "properties": { "city": "Canton", "street": "24 New Clyde Highway", "state": "NC", "zip": "28716", "country": "US", "latitude": 35.533065837316549, "longitude": -82.855721690807343 }, "geometry": { "type": "Point", "coordinates": [ -82.855721690807343, 35.533065837316549 ] } },
{ "type": "Feature", "properties": { "city": "Antioch", "street": "2410 Mahogany Way", "state": "CA", "zip": "94509", "country": "US", "latitude": 38.00364036966365, "longitude": -121.8340837977031 }, "geometry": { "type": "Point", "coordinates": [ -121.834083797703101, 38.00364036966365 ] } },
{ "type": "Feature", "properties": { "city": "La Follette", "street": "2415 Jacksboro Pike", "state": "TN", "zip": "37766", "country": "US", "latitude": 36.342842060909426, "longitude": -84.165539060882566 }, "geometry": { "type": "Point", "coordinates": [ -84.165539060882566, 36.342842060909426 ] } },
{ "type": "Feature", "properties": { "city": "Greeley", "street": "2413 8th Avenue", "state": "CO", "zip": "80631", "country": "US", "latitude": 40.398394635115871, "longitude": -104.6915617202377 }, "geometry": { "type": "Point", "coordinates": [ -104.691561720237701, 40.398394635115871 ] } },
{ "type": "Feature", "properties": { "city": "Cheyenne", "street": "2414 E. Lincolnway", "state": "WY", "zip": "82001", "country": "US", "latitude": 41.138786869268721, "longitude": -104.78799915748107 }, "geometry": { "type": "Point", "coordinates": [ -104.787999157481067, 41.138786869268721 ] } },
{ "type": "Feature", "properties": { "city": "Duncanville", "street": "243 South Cedar Ridge Drive", "state": "TX", "zip": "75116", "country": "US", "latitude": 32.649453125589879, "longitude": -96.926049073028992 }, "geometry": { "type": "Point", "coordinates": [ -96.926049073028992, 32.649453125589879 ] } },
{ "type": "Feature", "properties": { "city": "Selma", "street": "2438 McCall Avenue", "state": "CA", "zip": "93662", "country": "US", "latitude": 36.5698506145865, "longitude": -119.61030302637198 }, "geometry": { "type": "Point", "coordinates": [ -119.61030302637198, 36.5698506145865 ] } },
{ "type": "Feature", "properties": { "city": "Gilbert", "street": "2453 South Gilbert Road", "state": "AZ", "zip": "85295", "country": "US", "latitude": 33.305528081663809, "longitude": -111.78911 }, "geometry": { "type": "Point", "coordinates": [ -111.78911, 33.305528081663809 ] } },
{ "type": "Feature", "properties": { "city": "Southfield", "street": "24432 West Ten Mile Road", "state": "MI", "zip": "48033", "country": "US", "latitude": 42.472287323904709, "longitude": -83.283773070661823 }, "geometry": { "type": "Point", "coordinates": [ -83.283773070661823, 42.472287323904709 ] } },
{ "type": "Feature", "properties": { "city": "Westminster", "street": "250 W. 136th Avenue", "state": "CO", "zip": "80234", "country": "US", "latitude": 39.942599, "longitude": -104.991873 }, "geometry": { "type": "Point", "coordinates": [ -104.991873, 39.942599 ] } },
{ "type": "Feature", "properties": { "city": "Gallup", "street": "2504 East Highway 66", "state": "NM", "zip": "87301", "country": "US", "latitude": 35.528968731361296, "longitude": -108.70293758895491 }, "geometry": { "type": "Point", "coordinates": [ -108.70293758895491, 35.528968731361296 ] } },
{ "type": "Feature", "properties": { "city": "Wilmington", "street": "2526 Carolina Beach Road", "state": "NC", "zip": "28401", "country": "US", "latitude": 34.191890715933908, "longitude": -77.935220831587799 }, "geometry": { "type": "Point", "coordinates": [ -77.935220831587799, 34.191890715933908 ] } },
{ "type": "Feature", "properties": { "city": "Thornton", "street": "2581 E. 120th Ave", "state": "CO", "zip": "80233", "country": "US", "latitude": 39.914423394470525, "longitude": -104.95652932944773 }, "geometry": { "type": "Point", "coordinates": [ -104.956529329447733, 39.914423394470525 ] } },
{ "type": "Feature", "properties": { "city": "Elberton", "street": "253 Elbert Street", "state": "GA", "zip": "30635", "country": "US", "latitude": 34.109057785638605, "longitude": -82.860310553984618 }, "geometry": { "type": "Point", "coordinates": [ -82.860310553984618, 34.109057785638605 ] } },
{ "type": "Feature", "properties": { "city": "Santa Ana", "street": "2600 S. Bristol St", "state": "CA", "zip": "92704", "country": "US", "latitude": 33.712381, "longitude": -117.885793 }, "geometry": { "type": "Point", "coordinates": [ -117.885793, 33.712381 ] } },
{ "type": "Feature", "properties": { "city": "Longmont", "street": "2604 Main Street", "state": "CO", "zip": "80504", "country": "US", "latitude": 40.205291244751649, "longitude": -105.10184016908744 }, "geometry": { "type": "Point", "coordinates": [ -105.101840169087438, 40.205291244751649 ] } },
{ "type": "Feature", "properties": { "city": "Bowling Green", "street": "2626 Scottsville Road", "state": "KY", "zip": "42104", "country": "US", "latitude": 36.950016914283623, "longitude": -86.424036338868405 }, "geometry": { "type": "Point", "coordinates": [ -86.424036338868405, 36.950016914283623 ] } },
{ "type": "Feature", "properties": { "city": "Kennewick", "street": "2631 West Kennewick Avenue", "state": "WA", "zip": "99336", "country": "US", "latitude": 46.209155204480759, "longitude": -119.15760487001359 }, "geometry": { "type": "Point", "coordinates": [ -119.157604870013586, 46.209155204480759 ] } },
{ "type": "Feature", "properties": { "city": "Nashville", "street": "2634 Murfreesboro Road", "state": "TN", "zip": "37217", "country": "US", "latitude": 36.072742647678432, "longitude": -86.636335261175759 }, "geometry": { "type": "Point", "coordinates": [ -86.636335261175759, 36.072742647678432 ] } },
{ "type": "Feature", "properties": { "city": "Albuquerque", "street": "2636 San Mateo Blvd", "state": "NM", "zip": "87110", "country": "US", "latitude": 35.110806937855742, "longitude": -106.58594574297427 }, "geometry": { "type": "Point", "coordinates": [ -106.585945742974275, 35.110806937855742 ] } },
{ "type": "Feature", "properties": { "city": "Bakersfield", "street": "2674 Mount Vernon Avenue", "state": "CA", "zip": "93305", "country": "US", "latitude": 35.395114763267912, "longitude": -118.96814579682501 }, "geometry": { "type": "Point", "coordinates": [ -118.968145796825013, 35.395114763267912 ] } },
{ "type": "Feature", "properties": { "city": "Anderson", "street": "2701 N. Main Street", "state": "SC", "zip": "29621", "country": "US", "latitude": 34.529412329817241, "longitude": -82.661376257942379 }, "geometry": { "type": "Point", "coordinates": [ -82.661376257942379, 34.529412329817241 ] } },
{ "type": "Feature", "properties": { "city": "Gonzales", "street": "2703 S. Cabela's Parkway", "state": "LA", "zip": "70737", "country": "US", "latitude": 30.208647682479377, "longitude": -90.950987753752827 }, "geometry": { "type": "Point", "coordinates": [ -90.950987753752827, 30.208647682479377 ] } },
{ "type": "Feature", "properties": { "city": "Sun City", "street": "26660 Encanto Dr", "state": "CA", "zip": "92585", "country": "US", "latitude": 33.73381137817222, "longitude": -117.18833239853313 }, "geometry": { "type": "Point", "coordinates": [ -117.188332398533134, 33.73381137817222 ] } },
{ "type": "Feature", "properties": { "city": "Rock Springs", "street": "2705 Dewar Drive", "state": "WY", "zip": "82901", "country": "US", "latitude": 41.5797, "longitude": -109.25888583126545 }, "geometry": { "type": "Point", "coordinates": [ -109.258885831265445, 41.5797 ] } },
{ "type": "Feature", "properties": { "city": "Lodi", "street": "2712 W. Kettleman Lane", "state": "CA", "zip": "95242", "country": "US", "latitude": 38.114947415700804, "longitude": -121.30928793979064 }, "geometry": { "type": "Point", "coordinates": [ -121.309287939790636, 38.114947415700804 ] } },
{ "type": "Feature", "properties": { "city": "West Columbia", "street": "2711 Emanuel Church Rd", "state": "SC", "zip": "29170", "country": "US", "latitude": 33.93846, "longitude": -81.149897 }, "geometry": { "type": "Point", "coordinates": [ -81.149897, 33.93846 ] } },
{ "type": "Feature", "properties": { "city": "Paducah", "street": "2725 Jackson Street", "state": "KY", "zip": "42003", "country": "US", "latitude": 37.068642827814323, "longitude": -88.627381719660775 }, "geometry": { "type": "Point", "coordinates": [ -88.627381719660775, 37.068642827814323 ] } },
{ "type": "Feature", "properties": { "city": "Houston", "street": "2767 Gessner Drive", "state": "TX", "zip": "77080", "country": "US", "latitude": 29.821899067817242, "longitude": -95.545580029389441 }, "geometry": { "type": "Point", "coordinates": [ -95.545580029389441, 29.821899067817242 ] } },
{ "type": "Feature", "properties": { "city": "Paducah", "street": "2800 Lone Oak Road", "state": "KY", "zip": "42003", "country": "US", "latitude": 37.040559153792138, "longitude": -88.65992723839139 }, "geometry": { "type": "Point", "coordinates": [ -88.65992723839139, 37.040559153792138 ] } },
{ "type": "Feature", "properties": { "city": "Oakland", "street": "2800 Telegraph Avenue", "state": "CA", "zip": "94609", "country": "US", "latitude": 37.817173194129843, "longitude": -122.26735151595591 }, "geometry": { "type": "Point", "coordinates": [ -122.267351515955909, 37.817173194129843 ] } },
{ "type": "Feature", "properties": { "city": "Los Angeles", "street": "2801 North Broadway", "state": "CA", "zip": "90031", "country": "US", "latitude": 34.073865064277825, "longitude": -118.21290667717756 }, "geometry": { "type": "Point", "coordinates": [ -118.212906677177557, 34.073865064277825 ] } },
{ "type": "Feature", "properties": { "city": "Greeley", "street": "2804 West 10th Avenue", "state": "CO", "zip": "80634", "country": "US", "latitude": 40.42251925825299, "longitude": -104.7259724779272 }, "geometry": { "type": "Point", "coordinates": [ -104.725972477927201, 40.42251925825299 ] } },
{ "type": "Feature", "properties": { "city": "Pickens", "street": "2809 Gentry Memorial Highway", "state": "SC", "zip": "29671", "country": "US", "latitude": 34.872904634712285, "longitude": -82.694884560090259 }, "geometry": { "type": "Point", "coordinates": [ -82.694884560090259, 34.872904634712285 ] } },
{ "type": "Feature", "properties": { "city": "Mobile", "street": "2850 Springhill Ave", "state": "AL", "zip": "36607", "country": "US", "latitude": 30.699145706964767, "longitude": -88.10862758642736 }, "geometry": { "type": "Point", "coordinates": [ -88.10862758642736, 30.699145706964767 ] } },
{ "type": "Feature", "properties": { "city": "Rochester", "street": "2851 West Henrietta Road", "state": "NY", "zip": "14623", "country": "US", "latitude": 43.094762810223699, "longitude": -77.633295315223677 }, "geometry": { "type": "Point", "coordinates": [ -77.633295315223677, 43.094762810223699 ] } },
{ "type": "Feature", "properties": { "city": "Hemet", "street": "2890 West Florida Avenue", "state": "CA", "zip": "92545", "country": "US", "latitude": 33.747648181663365, "longitude": -117.00201730705089 }, "geometry": { "type": "Point", "coordinates": [ -117.002017307050892, 33.747648181663365 ] } },
{ "type": "Feature", "properties": { "city": "Phoenix", "street": "2902 N 7th Ave", "state": "AZ", "zip": "85013", "country": "US", "latitude": 33.4806254, "longitude": -112.0834322 }, "geometry": { "type": "Point", "coordinates": [ -112.0834322, 33.4806254 ] } },
{ "type": "Feature", "properties": { "city": "Long Beach", "street": "2970 Bellflower Boulevard", "state": "CA", "zip": "90815", "country": "US", "latitude": 33.809819091273098, "longitude": -118.12350944768394 }, "geometry": { "type": "Point", "coordinates": [ -118.123509447683944, 33.809819091273098 ] } },
{ "type": "Feature", "properties": { "city": "Laguna Niguel", "street": "30071 Alicia Parkway", "state": "CA", "zip": "92677", "country": "US", "latitude": 33.526243534562063, "longitude": -117.71734474560856 }, "geometry": { "type": "Point", "coordinates": [ -117.717344745608557, 33.526243534562063 ] } },
{ "type": "Feature", "properties": { "city": "Tucson", "street": "2980 W Ina Rd", "state": "AZ", "zip": "85741", "country": "US", "latitude": 32.337816531518868, "longitude": -111.0318824089033 }, "geometry": { "type": "Point", "coordinates": [ -111.0318824089033, 32.337816531518868 ] } },
{ "type": "Feature", "properties": { "city": "Tallahassee", "street": "3008 Apalachee Parkway", "state": "FL", "zip": "32301", "country": "US", "latitude": 30.427784284229563, "longitude": -84.227333352761264 }, "geometry": { "type": "Point", "coordinates": [ -84.227333352761264, 30.427784284229563 ] } },
{ "type": "Feature", "properties": { "city": "Napa", "street": "295 Soscol Ave", "state": "CA", "zip": "94559", "country": "US", "latitude": 38.284763064591885, "longitude": -122.27521791931935 }, "geometry": { "type": "Point", "coordinates": [ -122.275217919319346, 38.284763064591885 ] } },
{ "type": "Feature", "properties": { "city": "Elizabethtown", "street": "301 S. Poplar Street", "state": "NC", "zip": "28337", "country": "US", "latitude": 34.625866892967338, "longitude": -78.606466414103522 }, "geometry": { "type": "Point", "coordinates": [ -78.606466414103522, 34.625866892967338 ] } },
{ "type": "Feature", "properties": { "city": "Bakersfield", "street": "3011 Brundage Ln", "state": "CA", "zip": "93304", "country": "US", "latitude": 35.353811103203881, "longitude": -119.03808121379677 }, "geometry": { "type": "Point", "coordinates": [ -119.038081213796772, 35.353811103203881 ] } },
{ "type": "Feature", "properties": { "city": "Susanville", "street": "3010 Riverside Drive", "state": "CA", "zip": "96130", "country": "US", "latitude": 40.405831696414843, "longitude": -120.63153218646727 }, "geometry": { "type": "Point", "coordinates": [ -120.631532186467268, 40.405831696414843 ] } },
{ "type": "Feature", "properties": { "city": "Saratoga Springs", "street": "3010 Route 50", "state": "NY", "zip": "12866", "country": "US", "latitude": 43.099540198448935, "longitude": -73.749222303034855 }, "geometry": { "type": "Point", "coordinates": [ -73.749222303034855, 43.099540198448935 ] } },
{ "type": "Feature", "properties": { "city": "Nashville", "street": "3035 Dickerson Rd", "state": "TN", "zip": "37207", "country": "US", "latitude": 36.227316149432852, "longitude": -86.759173896005791 }, "geometry": { "type": "Point", "coordinates": [ -86.759173896005791, 36.227316149432852 ] } },
{ "type": "Feature", "properties": { "city": "Paris", "street": "304 Letton Drive", "state": "KY", "zip": "40361", "country": "US", "latitude": 38.196776534746725, "longitude": -84.275100020849436 }, "geometry": { "type": "Point", "coordinates": [ -84.275100020849436, 38.196776534746725 ] } },
{ "type": "Feature", "properties": { "city": "Fort Gratiot", "street": "3040 Kraft Road", "state": "MI", "zip": "48059", "country": "US", "latitude": 43.025537826915681, "longitude": -82.457645094688189 }, "geometry": { "type": "Point", "coordinates": [ -82.457645094688189, 43.025537826915681 ] } },
{ "type": "Feature", "properties": { "city": "Piedmont", "street": "3100 Highway 153", "state": "SC", "zip": "29673", "country": "US", "latitude": 34.778901470333075, "longitude": -82.468769787119868 }, "geometry": { "type": "Point", "coordinates": [ -82.468769787119868, 34.778901470333075 ] } },
{ "type": "Feature", "properties": { "city": "Colorado Springs", "street": "3101 W. Colorado Avenue", "state": "CO", "zip": "80904", "country": "US", "latitude": 38.853050072054778, "longitude": -104.87264138623084 }, "geometry": { "type": "Point", "coordinates": [ -104.872641386230839, 38.853050072054778 ] } },
{ "type": "Feature", "properties": { "city": "Hildebran", "street": "311 Highway 70 East", "state": "NC", "zip": "28637", "country": "US", "latitude": 35.715978218695952, "longitude": -81.40821973615175 }, "geometry": { "type": "Point", "coordinates": [ -81.40821973615175, 35.715978218695952 ] } },
{ "type": "Feature", "properties": { "city": "Marina", "street": "3134 Del Monte Ave", "state": "CA", "zip": "93933", "country": "US", "latitude": 36.686031260764686, "longitude": -121.8006221282244 }, "geometry": { "type": "Point", "coordinates": [ -121.800622128224404, 36.686031260764686 ] } },
{ "type": "Feature", "properties": { "city": "Goodlettsville", "street": "314 Long Hollow Pike", "state": "TN", "zip": "37072", "country": "US", "latitude": 36.32639407836426, "longitude": -86.70104953436055 }, "geometry": { "type": "Point", "coordinates": [ -86.70104953436055, 36.32639407836426 ] } },
{ "type": "Feature", "properties": { "city": "San Jose", "street": "3144 South Bascom Avenue", "state": "CA", "zip": "95124", "country": "US", "latitude": 37.266667, "longitude": -121.940225 }, "geometry": { "type": "Point", "coordinates": [ -121.940225, 37.266667 ] } },
{ "type": "Feature", "properties": { "city": "Huntington", "street": "315 Washington Ave", "state": "WV", "zip": "25701", "country": "US", "latitude": 38.417167007039275, "longitude": -82.46142987163455 }, "geometry": { "type": "Point", "coordinates": [ -82.46142987163455, 38.417167007039275 ] } },
{ "type": "Feature", "properties": { "city": "Jackson", "street": "3198 West Northside Drive", "state": "MS", "zip": "39213", "country": "US", "latitude": 32.356452357023308, "longitude": -90.230164081597309 }, "geometry": { "type": "Point", "coordinates": [ -90.230164081597309, 32.356452357023308 ] } },
{ "type": "Feature", "properties": { "city": "San Diego", "street": "3195 Market Street", "state": "CA", "zip": "92102", "country": "US", "latitude": 32.711437412605733, "longitude": -117.12564320183509 }, "geometry": { "type": "Point", "coordinates": [ -117.125643201835089, 32.711437412605733 ] } },
{ "type": "Feature", "properties": { "city": "Woodstock", "street": "321 W. Reservoir Rd", "state": "VA", "zip": "22664", "country": "US", "latitude": 38.869946276399759, "longitude": -78.524095069885576 }, "geometry": { "type": "Point", "coordinates": [ -78.524095069885576, 38.869946276399759 ] } },
{ "type": "Feature", "properties": { "city": "Union City", "street": "32004 Alvarado Boulevard", "state": "CA", "zip": "94587", "country": "US", "latitude": 37.589231445193882, "longitude": -122.06801198222638 }, "geometry": { "type": "Point", "coordinates": [ -122.06801198222638, 37.589231445193882 ] } },
{ "type": "Feature", "properties": { "city": "Fresno", "street": "3218 East Jensen", "state": "CA", "zip": "93706", "country": "US", "latitude": 36.706397729997228, "longitude": -119.76997019651316 }, "geometry": { "type": "Point", "coordinates": [ -119.769970196513157, 36.706397729997228 ] } },
{ "type": "Feature", "properties": { "city": "Owensboro", "street": "3212 Highway 54", "state": "KY", "zip": "42303", "country": "US", "latitude": 37.753480811815784, "longitude": -87.061026642310537 }, "geometry": { "type": "Point", "coordinates": [ -87.061026642310537, 37.753480811815784 ] } },
{ "type": "Feature", "properties": { "city": "Temecula", "street": "32425 Hwy 79", "state": "CA", "zip": "92592", "country": "US", "latitude": 33.482438484018367, "longitude": -117.09144392656196 }, "geometry": { "type": "Point", "coordinates": [ -117.091443926561965, 33.482438484018367 ] } },
{ "type": "Feature", "properties": { "city": "Napa", "street": "3246 Jefferson St", "state": "CA", "zip": "94558", "country": "US", "latitude": 38.320702565008709, "longitude": -122.29884995643135 }, "geometry": { "type": "Point", "coordinates": [ -122.298849956431354, 38.320702565008709 ] } },
{ "type": "Feature", "properties": { "city": "Thomasville", "street": "32475 Highway 43 SW", "state": "AL", "zip": "36784", "country": "US", "latitude": 31.913859981987549, "longitude": -87.741484881407075 }, "geometry": { "type": "Point", "coordinates": [ -87.741484881407075, 31.913859981987549 ] } },
{ "type": "Feature", "properties": { "city": "Shelby", "street": "326 Grover Street", "state": "NC", "zip": "28150", "country": "US", "latitude": 35.302031568738428, "longitude": -81.533761722678264 }, "geometry": { "type": "Point", "coordinates": [ -81.533761722678264, 35.302031568738428 ] } },
{ "type": "Feature", "properties": { "city": "Stockton", "street": "3264 West Hammer Lane", "state": "CA", "zip": "95209", "country": "US", "latitude": 38.020860593851125, "longitude": -121.35756711350916 }, "geometry": { "type": "Point", "coordinates": [ -121.357567113509162, 38.020860593851125 ] } },
{ "type": "Feature", "properties": { "city": "Belton", "street": "326 S. Main Street", "state": "SC", "zip": "29627", "country": "US", "latitude": 34.517409607384117, "longitude": -82.489114455802337 }, "geometry": { "type": "Point", "coordinates": [ -82.489114455802337, 34.517409607384117 ] } },
{ "type": "Feature", "properties": { "city": "Roseburg", "street": "327 Northwest Garden Valley Boulevard", "state": "OR", "zip": "97470", "country": "US", "latitude": 43.226317719397393, "longitude": -123.35718921288014 }, "geometry": { "type": "Point", "coordinates": [ -123.357189212880144, 43.226317719397393 ] } },
{ "type": "Feature", "properties": { "city": "San Jose", "street": "3288 South White Road", "state": "CA", "zip": "95148", "country": "US", "latitude": 37.314466266840036, "longitude": -121.79102440244674 }, "geometry": { "type": "Point", "coordinates": [ -121.791024402446737, 37.314466266840036 ] } },
{ "type": "Feature", "properties": { "city": "Dinuba", "street": "333 Monte Vista Drive", "state": "CA", "zip": "93618", "country": "US", "latitude": 36.544683837337722, "longitude": -119.40455292976276 }, "geometry": { "type": "Point", "coordinates": [ -119.404552929762758, 36.544683837337722 ] } },
{ "type": "Feature", "properties": { "city": "Plattsburgh", "street": "333 Cornelia St", "state": "NY", "zip": "12901", "country": "US", "latitude": 44.69697, "longitude": -73.480404 }, "geometry": { "type": "Point", "coordinates": [ -73.480404, 44.69697 ] } },
{ "type": "Feature", "properties": { "city": "Tucson", "street": "3344 N Oracle Road", "state": "AZ", "zip": "85705", "country": "US", "latitude": 32.267322749655087, "longitude": -110.97769009568128 }, "geometry": { "type": "Point", "coordinates": [ -110.977690095681282, 32.267322749655087 ] } },
{ "type": "Feature", "properties": { "city": "Kingman", "street": "3350 N. Stockton Hill", "state": "AZ", "zip": "86409", "country": "US", "latitude": 35.22106071806423, "longitude": -114.03546636530871 }, "geometry": { "type": "Point", "coordinates": [ -114.035466365308707, 35.22106071806423 ] } },
{ "type": "Feature", "properties": { "city": "Nashville", "street": "336 Harding Pl", "state": "TN", "zip": "37211", "country": "US", "latitude": 36.087167184891435, "longitude": -86.695418119057877 }, "geometry": { "type": "Point", "coordinates": [ -86.695418119057877, 36.087167184891435 ] } },
{ "type": "Feature", "properties": { "city": "Malone", "street": "3414 State Route 11", "state": "NY", "zip": "12953", "country": "US", "latitude": 44.848401701963354, "longitude": -74.310710905787801 }, "geometry": { "type": "Point", "coordinates": [ -74.310710905787801, 44.848401701963354 ] } },
{ "type": "Feature", "properties": { "city": "Sunnyvale", "street": "340 West Maude Avenue", "state": "CA", "zip": "94085", "country": "US", "latitude": 37.389108267052578, "longitude": -122.02962498426041 }, "geometry": { "type": "Point", "coordinates": [ -122.029624984260408, 37.389108267052578 ] } },
{ "type": "Feature", "properties": { "city": "Birmingham", "street": "33900 Woodward Avenue", "state": "MI", "zip": "48009", "country": "US", "latitude": 42.538852426451051, "longitude": -83.205741311633176 }, "geometry": { "type": "Point", "coordinates": [ -83.205741311633176, 42.538852426451051 ] } },
{ "type": "Feature", "properties": { "city": "Yucaipa", "street": "33911 Yucaipa Boulevard", "state": "CA", "zip": "92399", "country": "US", "latitude": 34.03352474708182, "longitude": -117.06464978818792 }, "geometry": { "type": "Point", "coordinates": [ -117.064649788187921, 34.03352474708182 ] } },
{ "type": "Feature", "properties": { "city": "Kimball", "street": "342 Kimball Crossing Drive", "state": "TN", "zip": "37347", "country": "US", "latitude": 35.040811724782117, "longitude": -85.685980729413018 }, "geometry": { "type": "Point", "coordinates": [ -85.685980729413018, 35.040811724782117 ] } },
{ "type": "Feature", "properties": { "city": "Saint Louis", "street": "3517 South Grand", "state": "MO", "zip": "63118", "country": "US", "latitude": 38.593249416584435, "longitude": -90.244104693865779 }, "geometry": { "type": "Point", "coordinates": [ -90.244104693865779, 38.593249416584435 ] } },
{ "type": "Feature", "properties": { "city": "Shallotte", "street": "348 Whiteville Road NW", "state": "NC", "zip": "28470", "country": "US", "latitude": 33.973255940201803, "longitude": -78.400756560101513 }, "geometry": { "type": "Point", "coordinates": [ -78.400756560101513, 33.973255940201803 ] } },
{ "type": "Feature", "properties": { "city": "Lincoln", "street": "35 Lincoln Blvd", "state": "CA", "zip": "95648", "country": "US", "latitude": 38.8709658, "longitude": -121.2983575 }, "geometry": { "type": "Point", "coordinates": [ -121.2983575, 38.8709658 ] } },
{ "type": "Feature", "properties": { "city": "Stockton", "street": "3519 East Hammer Lane", "state": "CA", "zip": "95212", "country": "US", "latitude": 38.021473444255221, "longitude": -121.27087848058721 }, "geometry": { "type": "Point", "coordinates": [ -121.270878480587214, 38.021473444255221 ] } },
{ "type": "Feature", "properties": { "city": "Burbank", "street": "3530 W. Victory Blvd", "state": "CA", "zip": "91505", "country": "US", "latitude": 34.184508601986991, "longitude": -118.35013629519381 }, "geometry": { "type": "Point", "coordinates": [ -118.350136295193806, 34.184508601986991 ] } },
{ "type": "Feature", "properties": { "city": "Sacramento", "street": "3580 Northgate Boulevard", "state": "CA", "zip": "95834", "country": "US", "latitude": 38.633205282641406, "longitude": -121.47504800784441 }, "geometry": { "type": "Point", "coordinates": [ -121.475048007844407, 38.633205282641406 ] } },
{ "type": "Feature", "properties": { "city": "Thousand Oaks", "street": "3605 E Thousand Oaks Blvd", "state": "CA", "zip": "91362", "country": "US", "latitude": 34.165342666460134, "longitude": -118.83066288587293 }, "geometry": { "type": "Point", "coordinates": [ -118.830662885872925, 34.165342666460134 ] } },
{ "type": "Feature", "properties": { "city": "El Paso", "street": "3601 Gateway Blvd W", "state": "TX", "zip": "79903", "country": "US", "latitude": 31.778940422913511, "longitude": -106.45052688037396 }, "geometry": { "type": "Point", "coordinates": [ -106.450526880373957, 31.778940422913511 ] } },
{ "type": "Feature", "properties": { "city": "Rowlett", "street": "3612 Highway 66", "state": "TX", "zip": "75088", "country": "US", "latitude": 32.907171992586129, "longitude": -96.56598904662701 }, "geometry": { "type": "Point", "coordinates": [ -96.56598904662701, 32.907171992586129 ] } },
{ "type": "Feature", "properties": { "city": "Houston", "street": "3619 Old Spanish Trail", "state": "TX", "zip": "77021", "country": "US", "latitude": 29.702358, "longitude": -95.3628174 }, "geometry": { "type": "Point", "coordinates": [ -95.3628174, 29.702358 ] } },
{ "type": "Feature", "properties": { "city": "Oceanside", "street": "3747 Mission Avenue", "state": "CA", "zip": "92058", "country": "US", "latitude": 33.223870365647151, "longitude": -117.33253456258296 }, "geometry": { "type": "Point", "coordinates": [ -117.332534562582964, 33.223870365647151 ] } },
{ "type": "Feature", "properties": { "city": "Fort Mill", "street": "3686 Foothills Way", "state": "SC", "zip": "29715", "country": "US", "latitude": 35.092856615864214, "longitude": -80.93520756007797 }, "geometry": { "type": "Point", "coordinates": [ -80.93520756007797, 35.092856615864214 ] } },
{ "type": "Feature", "properties": { "city": "Pomona", "street": "375 E. Mission Blvd", "state": "CA", "zip": "91766", "country": "US", "latitude": 34.055450460930707, "longitude": -117.74718496917978 }, "geometry": { "type": "Point", "coordinates": [ -117.747184969179784, 34.055450460930707 ] } },
{ "type": "Feature", "properties": { "city": "El Monte", "street": "3814 North Peck Road", "state": "CA", "zip": "91732", "country": "US", "latitude": 34.074648726216097, "longitude": -118.02221734559635 }, "geometry": { "type": "Point", "coordinates": [ -118.022217345596346, 34.074648726216097 ] } },
{ "type": "Feature", "properties": { "city": "Phoenix", "street": "3914 East Chandler Blvd", "state": "AZ", "zip": "85048", "country": "US", "latitude": 33.30563020238764, "longitude": -111.9996055975123 }, "geometry": { "type": "Point", "coordinates": [ -111.9996055975123, 33.30563020238764 ] } },
{ "type": "Feature", "properties": { "city": "Bremerton", "street": "4000 Wheaton Way", "state": "WA", "zip": "98310", "country": "US", "latitude": 47.600985087752463, "longitude": -122.628873946255 }, "geometry": { "type": "Point", "coordinates": [ -122.628873946254998, 47.600985087752463 ] } },
{ "type": "Feature", "properties": { "city": "Turlock", "street": "400 North Golden State Boulevard", "state": "CA", "zip": "95380", "country": "US", "latitude": 37.497591871991915, "longitude": -120.84804309325409 }, "geometry": { "type": "Point", "coordinates": [ -120.848043093254091, 37.497591871991915 ] } },
{ "type": "Feature", "properties": { "city": "Long Beach", "street": "4001 East Anaheim Street", "state": "CA", "zip": "90804", "country": "US", "latitude": 33.7828295571111, "longitude": -118.14556688037396 }, "geometry": { "type": "Point", "coordinates": [ -118.145566880373963, 33.7828295571111 ] } },
{ "type": "Feature", "properties": { "city": "Santa Rosa", "street": "401 Stony Point Road", "state": "CA", "zip": "95401", "country": "US", "latitude": 38.4321597, "longitude": -122.7422629 }, "geometry": { "type": "Point", "coordinates": [ -122.7422629, 38.4321597 ] } },
{ "type": "Feature", "properties": { "city": "Lynnwood", "street": "4011 196th St. SW", "state": "WA", "zip": "98036", "country": "US", "latitude": 47.821285633785308, "longitude": -122.28763464814796 }, "geometry": { "type": "Point", "coordinates": [ -122.287634648147957, 47.821285633785308 ] } },
{ "type": "Feature", "properties": { "city": "Maywood", "street": "4025 Slauson Avenue", "state": "CA", "zip": "90270", "country": "US", "latitude": 33.988293020047387, "longitude": -118.19340601020156 }, "geometry": { "type": "Point", "coordinates": [ -118.193406010201556, 33.988293020047387 ] } },
{ "type": "Feature", "properties": { "city": "Amherst", "street": "407 N. Leavitt Road", "state": "OH", "zip": "44001", "country": "US", "latitude": 41.411332883267789, "longitude": -82.20849753688708 }, "geometry": { "type": "Point", "coordinates": [ -82.20849753688708, 41.411332883267789 ] } },
{ "type": "Feature", "properties": { "city": "Murrieta", "street": "40702 California Oaks Road", "state": "CA", "zip": "92562", "country": "US", "latitude": 33.570320917633907, "longitude": -117.20437753482116 }, "geometry": { "type": "Point", "coordinates": [ -117.204377534821162, 33.570320917633907 ] } },
{ "type": "Feature", "properties": { "city": "Moses Lake", "street": "411 East Third Avenue", "state": "WA", "zip": "98837", "country": "US", "latitude": 47.132103799718784, "longitude": -119.27359530318279 }, "geometry": { "type": "Point", "coordinates": [ -119.273595303182788, 47.132103799718784 ] } },
{ "type": "Feature", "properties": { "city": "Hanford", "street": "412 N. Redington", "state": "CA", "zip": "93230", "country": "US", "latitude": 36.328731300097445, "longitude": -119.64960288649081 }, "geometry": { "type": "Point", "coordinates": [ -119.649602886490811, 36.328731300097445 ] } },
{ "type": "Feature", "properties": { "city": "South Point", "street": "413 County Road 406", "state": "OH", "zip": "45680", "country": "US", "latitude": 38.420029900737937, "longitude": -82.504647034970276 }, "geometry": { "type": "Point", "coordinates": [ -82.504647034970276, 38.420029900737937 ] } },
{ "type": "Feature", "properties": { "city": "Wylie", "street": "413 South Hwy. 78", "state": "TX", "zip": "75098", "country": "US", "latitude": 33.008625574650878, "longitude": -96.544128812268468 }, "geometry": { "type": "Point", "coordinates": [ -96.544128812268468, 33.008625574650878 ] } },
{ "type": "Feature", "properties": { "city": "Chino Hills", "street": "4135 Chino Hills Parkway", "state": "CA", "zip": "91709", "country": "US", "latitude": 33.98230499975719, "longitude": -117.7142099073576 }, "geometry": { "type": "Point", "coordinates": [ -117.714209907357599, 33.98230499975719 ] } },
{ "type": "Feature", "properties": { "city": "Pottsville", "street": "419 S. Claude A Lord Blvd", "state": "PA", "zip": "17901", "country": "US", "latitude": 40.681671174409921, "longitude": -76.19116263704052 }, "geometry": { "type": "Point", "coordinates": [ -76.19116263704052, 40.681671174409921 ] } },
{ "type": "Feature", "properties": { "city": "Fresno", "street": "4175 West Shaw", "state": "CA", "zip": "93722", "country": "US", "latitude": 36.807917093911563, "longitude": -119.86636510181148 }, "geometry": { "type": "Point", "coordinates": [ -119.866365101811482, 36.807917093911563 ] } },
{ "type": "Feature", "properties": { "city": "Lexington", "street": "4141 Tates Creek Centre Drive", "state": "KY", "zip": "40517", "country": "US", "latitude": 37.96921635952134, "longitude": -84.500630058283832 }, "geometry": { "type": "Point", "coordinates": [ -84.500630058283832, 37.96921635952134 ] } },
{ "type": "Feature", "properties": { "city": "San Jose", "street": "4162 Monterey Highway", "state": "CA", "zip": "95111", "country": "US", "latitude": 37.277506142079027, "longitude": -121.83419346932885 }, "geometry": { "type": "Point", "coordinates": [ -121.834193469328852, 37.277506142079027 ] } },
{ "type": "Feature", "properties": { "city": "El Paso", "street": "427 N Yarbrough Drive", "state": "TX", "zip": "79915", "country": "US", "latitude": 31.728445368437686, "longitude": -106.34913930001733 }, "geometry": { "type": "Point", "coordinates": [ -106.349139300017328, 31.728445368437686 ] } },
{ "type": "Feature", "properties": { "city": "Mesa", "street": "420 North Alma School Rd", "state": "AZ", "zip": "85201", "country": "US", "latitude": 33.423136957947385, "longitude": -111.85700964441378 }, "geometry": { "type": "Point", "coordinates": [ -111.857009644413779, 33.423136957947385 ] } },
{ "type": "Feature", "properties": { "city": "Cheraw", "street": "427 Chesterfield Highway", "state": "SC", "zip": "29520", "country": "US", "latitude": 34.693026469364057, "longitude": -79.908467982655566 }, "geometry": { "type": "Point", "coordinates": [ -79.908467982655566, 34.693026469364057 ] } },
{ "type": "Feature", "properties": { "city": "North Augusta", "street": "433 E. Martintown Road", "state": "SC", "zip": "29841", "country": "US", "latitude": 33.494038828835642, "longitude": -81.956139495700825 }, "geometry": { "type": "Point", "coordinates": [ -81.956139495700825, 33.494038828835642 ] } },
{ "type": "Feature", "properties": { "city": "Firestone", "street": "4335 City Centre Blvd", "state": "CO", "zip": "80504", "country": "US", "latitude": 40.160124118564411, "longitude": -104.97304944553923 }, "geometry": { "type": "Point", "coordinates": [ -104.973049445539232, 40.160124118564411 ] } },
{ "type": "Feature", "properties": { "city": "Lapeer", "street": "435 South Main", "state": "MI", "zip": "48446", "country": "US", "latitude": 43.0463592, "longitude": -83.3187734 }, "geometry": { "type": "Point", "coordinates": [ -83.3187734, 43.0463592 ] } },
{ "type": "Feature", "properties": { "city": "Clinton", "street": "442 Highway 80", "state": "MS", "zip": "39056", "country": "US", "latitude": 32.333328476810955, "longitude": -90.319538260540298 }, "geometry": { "type": "Point", "coordinates": [ -90.319538260540298, 32.333328476810955 ] } },
{ "type": "Feature", "properties": { "city": "Laurens", "street": "447 North Harper Street", "state": "SC", "zip": "29360", "country": "US", "latitude": 34.504412, "longitude": -82.010498 }, "geometry": { "type": "Point", "coordinates": [ -82.010498, 34.504412 ] } },
{ "type": "Feature", "properties": { "city": "Macon", "street": "4475 Forsyth Road", "state": "GA", "zip": "31210", "country": "US", "latitude": 32.870751286678441, "longitude": -83.701916780513329 },