[
    {
        "id":20425856,
        "lat":40.115447,
        "long":-75.120986,
        "phone":"215 885 1037",
        "instagram":"@kungfutea_abington",
        "addressnumber":"1129",
        "streetname":"York",
        "streetnameposttype":"Road",
        "placename":"Abington",
        "statename":"PA",
        "zipcode":"19001"
    },
    {
        "id":20425897,
        "lat":29.475774,
        "long":-98.462935,
        "phone":"210-455-0092",
        "instagram":"kungfutea_alamoheights",
        "addressnumber":"5231",
        "streetname":"Broadway",
        "streetnameposttype":"Street",
        "placename":"Antonio",
        "statename":"TX",
        "zipcode":"78209"
    },
    {
        "id":23264519,
        "lat":31.613851,
        "long":-84.216871,
        "phone":"",
        "instagram":"kftalbanyga",
        "addressnumber":"2801",
        "streetname":"Dawson",
        "streetnameposttype":"Rd",
        "placename":"Albany",
        "statename":"GA",
        "zipcode":"31707"
    },
    {
        "id":20425894,
        "lat":35.147218,
        "long":-106.688964,
        "phone":"505 503 8450",
        "instagram":"kungfutea_abq",
        "addressnumber":"5600",
        "streetname":"Coors",
        "streetnameposttype":"Blvd",
        "placename":"Albuquerque",
        "statename":"NM",
        "zipcode":"87120"
    },
    {
        "id":38103149,
        "lat":35.129575,
        "long":-106.549095,
        "phone":"",
        "instagram":"kft.northeastabq",
        "addressnumber":"4410",
        "streetname":"Wyoming",
        "streetnameposttype":"Boulevard",
        "placename":"Albuquerque",
        "statename":"NM",
        "zipcode":"87111"
    },
    {
        "id":38230346,
        "lat":38.77951,
        "long":-77.080065,
        "phone":"571-371-8075",
        "instagram":"kftalexandria",
        "addressnumber":"6328",
        "streetname":"Richmond",
        "streetnameposttype":"Highway",
        "placename":"Alexandria",
        "statename":"VA",
        "zipcode":"22306"
    },
    {
        "id":33729261,
        "lat":40.58546,
        "long":-75.4604,
        "phone":"",
        "instagram":"",
        "addressnumber":"1502",
        "streetname":"4th",
        "streetnameposttype":"Street",
        "placename":"Allentown",
        "statename":"PA",
        "zipcode":"18103"
    },
    {
        "id":20425717,
        "lat":42.35219,
        "long":-71.13216,
        "phone":"617-783-3388 ",
        "instagram":"",
        "addressnumber":"131",
        "streetname":"Harvard",
        "streetnameposttype":"Ave",
        "placename":"Allston",
        "statename":"MA",
        "zipcode":"02134"
    },
    {
        "id":20425718,
        "lat":38.825945,
        "long":-77.212795,
        "phone":"703-992-8599",
        "instagram":"",
        "addressnumber":"7895",
        "streetname":"Heritage",
        "streetnameposttype":"Dr",
        "placename":"Annandale",
        "statename":"VA",
        "zipcode":"22003"
    },
    {
        "id":20425855,
        "lat":40.008074,
        "long":-75.291941,
        "phone":"610 222 5888",
        "instagram":"kungfutea_ardmore",
        "addressnumber":"22",
        "streetname":"Lancaster",
        "streetnameposttype":"Ave",
        "placename":"Ardmore",
        "statename":"PA",
        "zipcode":"19003"
    },
    {
        "id":23656176,
        "lat":32.73705,
        "long":-97.106975,
        "phone":"817 583 6574",
        "instagram":"kftarlingtontx",
        "addressnumber":"101",
        "streetname":"Abram",
        "streetnameposttype":"St",
        "placename":"Arlington",
        "statename":"TX",
        "zipcode":"76010"
    },
    {
        "id":20425831,
        "lat":38.887945,
        "long":-77.094292,
        "phone":"703 528 1686",
        "instagram":"",
        "addressnumber":"3018",
        "streetname":"Wilson",
        "streetnameposttype":"Boulevard",
        "placename":"Arlington",
        "statename":"VA",
        "zipcode":"22201"
    },
    {
        "id":48349918,
        "lat":38.863731,
        "long":-77.060561,
        "phone":"",
        "instagram":"",
        "addressnumber":"1100",
        "streetname":"Hayes",
        "streetnameposttype":"St",
        "placename":"Arlington",
        "statename":"VA",
        "zipcode":"22202"
    },
    {
        "id":40455105,
        "lat":39.790813,
        "long":-105.077532,
        "phone":"",
        "instagram":"kungfuteaco",
        "addressnumber":"7310",
        "streetname":"52nd",
        "streetnameposttype":"Ave",
        "placename":"Arvada",
        "statename":"CO",
        "zipcode":"80002"
    },
    {
        "id":33729256,
        "lat":39.043363,
        "long":-77.47448,
        "phone":"",
        "instagram":"kungfuteaashburnvillage",
        "addressnumber":"44110",
        "streetname":"Shopping",
        "streetnameposttype":"Plaza",
        "placename":"Ashburn",
        "statename":"VA",
        "zipcode":"20147"
    },
    {
        "id":34702461,
        "lat":39.007255,
        "long":-77.486835,
        "phone":"703-857-1173",
        "instagram":"kungfutea_ryan",
        "addressnumber":"43800",
        "streetname":"Station",
        "streetnameposttype":"Drive",
        "placename":"Ashburn",
        "statename":"VA",
        "zipcode":"20147"
    },
    {
        "id":29210292,
        "lat":40.765519,
        "long":-73.91934,
        "phone":"917-396-1734",
        "instagram":"kungfutea.astoria",
        "addressnumber":"30-10",
        "streetname":"34th",
        "streetnameposttype":"Street",
        "placename":"Astoria",
        "statename":"NY",
        "zipcode":"11103"
    },
    {
        "id":30743870,
        "lat":32.607116,
        "long":-85.481377,
        "phone":"",
        "instagram":"",
        "addressnumber":"116",
        "streetname":"College",
        "streetnameposttype":"St",
        "placename":"Auburn",
        "statename":"AL",
        "zipcode":"36830"
    },
    {
        "id":26536645,
        "lat":39.697768,
        "long":-104.846332,
        "phone":"",
        "instagram":"kungfuteaco",
        "addressnumber":"12201",
        "streetname":"Mississippi",
        "streetnameposttype":"Ave",
        "placename":"Aurora",
        "statename":"CO",
        "zipcode":"80012"
    },
    {
        "id":29277139,
        "lat":30.250261,
        "long":-97.895239,
        "phone":"",
        "instagram":"",
        "addressnumber":"8701",
        "streetname":"71",
        "streetnameposttype":null,
        "placename":"Austin",
        "statename":"TX",
        "zipcode":"78735"
    },
    {
        "id":40678514,
        "lat":38.879631,
        "long":-77.1109,
        "phone":"",
        "instagram":"kungfutea_ballstonqrt",
        "addressnumber":"4238",
        "streetname":"Wilson",
        "streetnameposttype":"Blvd",
        "placename":"Arlington",
        "statename":"VA",
        "zipcode":"22203"
    },
    {
        "id":39563774,
        "lat":29.481504,
        "long":-98.603733,
        "phone":"",
        "instagram":"kungfutea_bandera",
        "addressnumber":"5755",
        "streetname":"410",
        "streetnameposttype":null,
        "placename":"Antonio",
        "statename":"TX",
        "zipcode":"78238"
    },
    {
        "id":20425848,
        "lat":30.381099,
        "long":-91.099098,
        "phone":"225 228 2789",
        "instagram":"kungfutea_br",
        "addressnumber":"7584",
        "streetname":"Bluebonnet",
        "streetnameposttype":"Blvd",
        "placename":"Rouge",
        "statename":"LA",
        "zipcode":"70810"
    },
    {
        "id":20425842,
        "lat":40.763066,
        "long":-73.770695,
        "phone":"718 631 0011",
        "instagram":"kungfutea.bayside",
        "addressnumber":"42-21",
        "streetname":"Bell",
        "streetnameposttype":"Blvd",
        "placename":"Bayside",
        "statename":"NY",
        "zipcode":"11361"
    },
    {
        "id":43263399,
        "lat":30.115842,
        "long":-94.170259,
        "phone":"",
        "instagram":"",
        "addressnumber":"3939",
        "streetname":"Dowlen",
        "streetnameposttype":"Road",
        "placename":"Beaumont",
        "statename":"TX",
        "zipcode":"77706"
    },
    {
        "id":25504626,
        "lat":39.778069,
        "long":-84.054572,
        "phone":"",
        "instagram":"kungfutea_beavercreek",
        "addressnumber":"2630",
        "streetname":"Glenn",
        "streetnameposttype":"Highway",
        "placename":"Fairborn",
        "statename":"OH",
        "zipcode":"45324"
    },
    {
        "id":44950107,
        "lat":37.719968,
        "long":-97.364338,
        "phone":"",
        "instagram":"",
        "addressnumber":"2021",
        "streetname":"Amidon",
        "streetnameposttype":"Ave",
        "placename":"Wichita",
        "statename":"KS",
        "zipcode":"67203"
    },
    {
        "id":47378036,
        "lat":37.866429,
        "long":-122.258331,
        "phone":"",
        "instagram":"",
        "addressnumber":"2431",
        "streetname":"Telegraph",
        "streetnameposttype":"Ave",
        "placename":"Berkeley",
        "statename":"CA",
        "zipcode":"94704"
    },
    {
        "id":42351896,
        "lat":40.048332,
        "long":-75.439996,
        "phone":"",
        "instagram":"kungfutea_berwyn",
        "addressnumber":"558",
        "streetname":"Lancaster",
        "streetnameposttype":"Avenue",
        "placename":"Berwyn",
        "statename":"PA",
        "zipcode":"19312"
    },
    {
        "id":20425833,
        "lat":39.025772,
        "long":-77.147576,
        "phone":"301 767 0200",
        "instagram":"",
        "addressnumber":"20817",
        "streetname":"Entrance)",
        "streetnameposttype":"Blvd",
        "placename":"Bethesda",
        "statename":"MD",
        "zipcode":null
    },
    {
        "id":27789897,
        "lat":42.51305,
        "long":-83.285384,
        "phone":"",
        "instagram":"",
        "addressnumber":"30574",
        "streetname":"Telegraph",
        "streetnameposttype":"Road",
        "placename":"Farms",
        "statename":"MI",
        "zipcode":"48025"
    },
    {
        "id":20425865,
        "lat":37.219026,
        "long":-80.403253,
        "phone":"540 739 3133",
        "instagram":"blacksburgkft",
        "addressnumber":"1200",
        "streetname":"Main",
        "streetnameposttype":"St",
        "placename":"Blacksburg",
        "statename":"VA",
        "zipcode":"24060"
    },
    {
        "id":20425892,
        "lat":29.785705,
        "long":-95.521462,
        "phone":"713 972 2622",
        "instagram":"",
        "addressnumber":"1005",
        "streetname":"Blalock",
        "streetnameposttype":"Rd",
        "placename":"Houston",
        "statename":"TX",
        "zipcode":"77055"
    },
    {
        "id":34954676,
        "lat":39.162557,
        "long":-86.580404,
        "phone":"812-822-1290",
        "instagram":"kungfutea_bloomington",
        "addressnumber":"3287",
        "streetname":"3rd",
        "streetnameposttype":"St",
        "placename":"Bloomington",
        "statename":"IN",
        "zipcode":"47404"
    },
    {
        "id":27916185,
        "lat":26.367894,
        "long":-80.079778,
        "phone":"561-245-8647",
        "instagram":"kftboca",
        "addressnumber":"481",
        "streetname":"20th",
        "streetnameposttype":"St.",
        "placename":"Raton",
        "statename":"FL",
        "zipcode":"33431"
    },
    {
        "id":39611150,
        "lat":32.623888,
        "long":-93.714235,
        "phone":"",
        "instagram":"",
        "addressnumber":"5511",
        "streetname":"Airline",
        "streetnameposttype":"Drive",
        "placename":"City",
        "statename":"LA",
        "zipcode":"71111"
    },
    {
        "id":20425721,
        "lat":42.350559,
        "long":-71.060675,
        "phone":"617-542-8838",
        "instagram":"",
        "addressnumber":"66",
        "streetname":"Kneeland",
        "streetnameposttype":"St",
        "placename":"Boston",
        "statename":"MA",
        "zipcode":"02111"
    },
    {
        "id":20425841,
        "lat":40.007754,
        "long":-105.27538,
        "phone":"720 638 3470",
        "instagram":"kungfuteaboulder",
        "addressnumber":"1121",
        "streetname":"Broadway",
        "streetnameposttype":null,
        "placename":"Boulder",
        "statename":"CO",
        "zipcode":"80302"
    },
    {
        "id":29156888,
        "lat":40.880799,
        "long":-73.908646,
        "phone":"",
        "instagram":"",
        "addressnumber":"302",
        "streetname":"231",
        "streetnameposttype":null,
        "placename":"Bronx",
        "statename":"NY",
        "zipcode":"10963"
    },
    {
        "id":20425714,
        "lat":40.620815,
        "long":-74.02651,
        "phone":"347-909-7261",
        "instagram":"",
        "addressnumber":"8625",
        "streetname":"5th",
        "streetnameposttype":"Ave",
        "placename":"Brooklyn",
        "statename":"NY",
        "zipcode":"11209"
    },
    {
        "id":20425715,
        "lat":40.601986,
        "long":-73.994367,
        "phone":"718-373-2695",
        "instagram":"",
        "addressnumber":"2174",
        "streetname":"86th",
        "streetnameposttype":"Street",
        "placename":"Brooklyn",
        "statename":"NY",
        "zipcode":"11214"
    },
    {
        "id":20425716,
        "lat":40.638046,
        "long":-74.006429,
        "phone":"929-969-5655",
        "instagram":"",
        "addressnumber":"806",
        "streetname":"55th",
        "streetnameposttype":"St",
        "placename":"Brooklyn",
        "statename":"NY",
        "zipcode":"11220"
    },
    {
        "id":20425720,
        "lat":40.598584,
        "long":-73.956552,
        "phone":"718-819-9079",
        "instagram":"",
        "addressnumber":"1422",
        "streetname":"U,",
        "streetnameposttype":null,
        "placename":"Brooklyn",
        "statename":"NY",
        "zipcode":"11229"
    },
    {
        "id":20425757,
        "lat":40.689532,
        "long":-73.985954,
        "phone":"347-294-0232",
        "instagram":"",
        "addressnumber":"40",
        "streetname":"Hoyt",
        "streetnameposttype":"Street",
        "placename":"Brooklyn",
        "statename":"NY",
        "zipcode":"11201"
    },
    {
        "id":20425933,
        "lat":40.608507,
        "long":-73.920833,
        "phone":"929 203 8878",
        "instagram":"",
        "addressnumber":"5100",
        "streetname":"Kings",
        "streetnameposttype":"Plaza",
        "placename":"Brooklyn",
        "statename":"NY",
        "zipcode":"11234"
    },
    {
        "id":20425918,
        "lat":40.680625,
        "long":-73.977638,
        "phone":"518 218 6655",
        "instagram":"kungfuteaps",
        "addressnumber":"76",
        "streetname":"5th",
        "streetnameposttype":"Ave",
        "placename":"Brooklyn",
        "statename":"NY",
        "zipcode":"11217"
    },
    {
        "id":20425722,
        "lat":43.001883,
        "long":-78.784898,
        "phone":"716-276-8402",
        "instagram":"",
        "addressnumber":"520",
        "streetname":"Lee",
        "streetnameposttype":"Rd.",
        "placename":"Buffalo",
        "statename":"NY",
        "zipcode":"14228"
    },
    {
        "id":20425898,
        "lat":34.068262,
        "long":-83.988116,
        "phone":"678 765 7357",
        "instagram":"kungfuteabuford",
        "addressnumber":null,
        "streetname":null,
        "streetnameposttype":null,
        "placename":"Buford",
        "statename":"GA",
        "zipcode":"30519"
    },
    {
        "id":20425869,
        "lat":38.776829,
        "long":-77.274096,
        "phone":"703-372-5289",
        "instagram":"kftburke",
        "addressnumber":"9530B",
        "streetname":"Mill",
        "streetnameposttype":"Road",
        "placename":"Burke",
        "statename":"VA",
        "zipcode":"22015"
    },
    {
        "id":20911645,
        "lat":42.32198,
        "long":-83.488902,
        "phone":"734 667 2868",
        "instagram":"kungfutea_cantonmi",
        "addressnumber":"45470",
        "streetname":"Ford",
        "streetnameposttype":"Rd",
        "placename":"Canton",
        "statename":"MI",
        "zipcode":"48187"
    },
    {
        "id":20425723,
        "lat":32.981539,
        "long":-96.908635,
        "phone":"972-446-9294",
        "instagram":"",
        "addressnumber":"2540",
        "streetname":"Denton",
        "streetnameposttype":"Rd",
        "placename":"Carrollton",
        "statename":"TX",
        "zipcode":"75006"
    },
    {
        "id":20425810,
        "lat":35.788073,
        "long":-78.827934,
        "phone":"919-650-1020",
        "instagram":"kfteacary",
        "addressnumber":"966",
        "streetname":"House",
        "streetnameposttype":"Rd",
        "placename":"Cary",
        "statename":"NC",
        "zipcode":"27513"
    },
    {
        "id":40626834,
        "lat":40.822439,
        "long":-74.449624,
        "phone":"",
        "instagram":"",
        "addressnumber":"86",
        "streetname":"Ridgedale",
        "streetnameposttype":"Ave",
        "placename":"Knolls",
        "statename":"NJ",
        "zipcode":"07927"
    },
    {
        "id":20425916,
        "lat":30.5243,
        "long":-97.819782,
        "phone":"512 986 7270",
        "instagram":"kungfutea_cedarpark",
        "addressnumber":"905",
        "streetname":"Whitestone",
        "streetnameposttype":"Blvd",
        "placename":"Park",
        "statename":"TX",
        "zipcode":"78613"
    },
    {
        "id":33540730,
        "lat":39.611043,
        "long":-104.752576,
        "phone":"",
        "instagram":"kungfuteaco",
        "addressnumber":"20209",
        "streetname":"Hill",
        "streetnameposttype":"Road",
        "placename":"Centennial",
        "statename":"CO",
        "zipcode":"80015"
    },
    {
        "id":20425725,
        "lat":38.839722,
        "long":-77.426207,
        "phone":"",
        "instagram":"",
        "addressnumber":"13830",
        "streetname":"Lee",
        "streetnameposttype":"Highway",
        "placename":"Centreville",
        "statename":"VA",
        "zipcode":"20120"
    },
    {
        "id":20425812,
        "lat":33.865088,
        "long":-118.090201,
        "phone":"562 403 8848",
        "instagram":"kungfuteacerritos",
        "addressnumber":"18300",
        "streetname":"Gridley",
        "streetnameposttype":"Rd",
        "placename":"Artesia",
        "statename":"CA",
        "zipcode":"90701"
    },
    {
        "id":20425849,
        "lat":40.109701,
        "long":-88.230737,
        "phone":"217 552 1668",
        "instagram":"kfteauiuc",
        "addressnumber":"707",
        "streetname":"6th",
        "streetnameposttype":"St",
        "placename":"Champaign",
        "statename":"IL",
        "zipcode":"61820"
    },
    {
        "id":20425844,
        "lat":35.207224,
        "long":-80.824716,
        "phone":"704 544 1002",
        "instagram":"",
        "addressnumber":"8200",
        "streetname":"Providence",
        "streetnameposttype":"Rd",
        "placename":"Charlotte",
        "statename":"NC",
        "zipcode":"28227"
    },
    {
        "id":20557992,
        "lat":35.186274,
        "long":-80.875745,
        "phone":"980 938 0850",
        "instagram":"",
        "addressnumber":"4200",
        "streetname":"South",
        "streetnameposttype":"Blvd",
        "placename":"Charlotte",
        "statename":"NC",
        "zipcode":"28209"
    },
    {
        "id":26579402,
        "lat":35.227087,
        "long":-80.843127,
        "phone":"980 833 1448",
        "instagram":"kungfutea_charlotte",
        "addressnumber":"9605",
        "streetname":"Tryon",
        "streetnameposttype":"Street",
        "placename":"Charlotte",
        "statename":"NC",
        "zipcode":"28262"
    },
    {
        "id":20425827,
        "lat":38.032912,
        "long":-78.494939,
        "phone":"434 202 8844",
        "instagram":"kftcville",
        "addressnumber":"1001",
        "streetname":"Main",
        "streetnameposttype":"Street",
        "placename":"Charlottesville",
        "statename":"VA",
        "zipcode":"22903"
    },
    {
        "id":20425896,
        "lat":35.062412,
        "long":-85.306817,
        "phone":"423 591 9632",
        "instagram":"kfteacha",
        "addressnumber":"50",
        "streetname":"Frazier",
        "streetnameposttype":"Ave",
        "placename":"Chattanooga",
        "statename":"TN",
        "zipcode":"37405"
    },
    {
        "id":20425926,
        "lat":39.890633,
        "long":-75.018292,
        "phone":"856.433.8395",
        "instagram":"cherryhilltkk",
        "addressnumber":"1469",
        "streetname":"Brace",
        "streetnameposttype":"Rd",
        "placename":"Hill",
        "statename":"NJ",
        "zipcode":"08034"
    },
    {
        "id":20425726,
        "lat":39.926658,
        "long":-75.032042,
        "phone":"856 532 0044",
        "instagram":"",
        "addressnumber":"826",
        "streetname":"Haddonfield",
        "streetnameposttype":"Rd",
        "placename":"Hill",
        "statename":"NJ",
        "zipcode":"08002"
    },
    {
        "id":27974491,
        "lat":41.164066,
        "long":-104.791142,
        "phone":"",
        "instagram":"kftcheyenne",
        "addressnumber":"2032",
        "streetname":"Range",
        "streetnameposttype":"Boulevard",
        "placename":"Cheyenne",
        "statename":"WY",
        "zipcode":"82009"
    },
    {
        "id":20425727,
        "lat":41.853883,
        "long":-87.632758,
        "phone":"312-255-7331",
        "instagram":"",
        "addressnumber":"2126B",
        "streetname":"Archer",
        "streetnameposttype":"Ave",
        "placename":"Chicago",
        "statename":"IL",
        "zipcode":"60616"
    },
    {
        "id":20425728,
        "lat":41.972284,
        "long":-87.659717,
        "phone":"872-208-5955",
        "instagram":"",
        "addressnumber":"4925-D",
        "streetname":"Broadway,",
        "streetnameposttype":null,
        "placename":"Chicago",
        "statename":"IL",
        "zipcode":"60640"
    },
    {
        "id":32936063,
        "lat":39.990695,
        "long":-75.008277,
        "phone":"",
        "instagram":"kftcinnaminson",
        "addressnumber":"195",
        "streetname":"130",
        "streetnameposttype":null,
        "placename":"Cinnaminson",
        "statename":"NJ",
        "zipcode":"08077"
    },
    {
        "id":20425825,
        "lat":39.229558,
        "long":-77.286346,
        "phone":"240 307 3240",
        "instagram":"kftclarksburg",
        "addressnumber":"22705",
        "streetname":"Clarskburg",
        "streetnameposttype":"Road",
        "placename":"Clarksburg",
        "statename":"MD",
        "zipcode":"20871"
    },
    {
        "id":20425853,
        "lat":29.547842,
        "long":-95.130978,
        "phone":"281 724 0918",
        "instagram":"kungfuteaclearlake",
        "addressnumber":"304",
        "streetname":"Area",
        "streetnameposttype":"Blvd",
        "placename":"Webster",
        "statename":"TX",
        "zipcode":"77598"
    },
    {
        "id":20425729,
        "lat":41.508768,
        "long":-81.605443,
        "phone":"216-862-7690",
        "instagram":"",
        "addressnumber":"11312",
        "streetname":"Euclid",
        "streetnameposttype":"Ave",
        "placename":"Cleveland",
        "statename":"OH",
        "zipcode":"44106"
    },
    {
        "id":20425730,
        "lat":42.336653,
        "long":-71.149077,
        "phone":"671-232-1323",
        "instagram":"",
        "addressnumber":"1916",
        "streetname":"Beacon",
        "streetnameposttype":"St",
        "placename":"Brighton",
        "statename":"MA",
        "zipcode":"02135"
    },
    {
        "id":38018240,
        "lat":36.85137,
        "long":-119.728041,
        "phone":"",
        "instagram":"kungfuteaclovis",
        "addressnumber":"1177",
        "streetname":"Willow",
        "streetnameposttype":"Ave",
        "placename":"Clovis",
        "statename":"CA",
        "zipcode":"93611"
    },
    {
        "id":40597121,
        "lat":28.37002,
        "long":-80.60561,
        "phone":"",
        "instagram":"kftcocoabeach",
        "addressnumber":"5645",
        "streetname":"Atlantic",
        "streetnameposttype":"Avenue",
        "placename":"Beach",
        "statename":"FL",
        "zipcode":"32931"
    },
    {
        "id":20425775,
        "lat":33.028619,
        "long":-96.771234,
        "phone":"214 501 3458",
        "instagram":"",
        "addressnumber":"2001",
        "streetname":"Coit",
        "streetnameposttype":"Road",
        "placename":"Plano",
        "statename":"TX",
        "zipcode":"75075"
    },
    {
        "id":20425731,
        "lat":38.979919,
        "long":-76.937608,
        "phone":"240-714-3156",
        "instagram":"",
        "addressnumber":"7313",
        "streetname":"Baltimore",
        "streetnameposttype":"Ave",
        "placename":"Park",
        "statename":"MD",
        "zipcode":"20740"
    },
    {
        "id":20425820,
        "lat":30.625995,
        "long":-96.330168,
        "phone":"979 485 0001",
        "instagram":"kftcollegestation",
        "addressnumber":"723",
        "streetname":"Texas",
        "streetnameposttype":"Ave",
        "placename":"Station",
        "statename":"TX",
        "zipcode":"77840"
    },
    {
        "id":20425881,
        "lat":38.939392,
        "long":-104.797618,
        "phone":"719 999 5699",
        "instagram":"kftcoloradosprinngs",
        "addressnumber":"7489",
        "streetname":"Academy",
        "streetnameposttype":"Blvd",
        "placename":"Springs",
        "statename":"CO",
        "zipcode":"80920"
    },
    {
        "id":41891758,
        "lat":38.804859,
        "long":-104.819935,
        "phone":"",
        "instagram":"kungfuteaxtkk_coloradosprings#",
        "addressnumber":"1904",
        "streetname":"Southgate",
        "streetnameposttype":"Road",
        "placename":"Springs",
        "statename":"CO",
        "zipcode":"80906"
    },
    {
        "id":20425732,
        "lat":39.213839,
        "long":-76.865884,
        "phone":"443 864 4241",
        "instagram":"",
        "addressnumber":"10100",
        "streetname":"Rivers",
        "streetnameposttype":"Road",
        "placename":"Columbia",
        "statename":"MD",
        "zipcode":"21044"
    },
    {
        "id":40845897,
        "lat":32.546339,
        "long":-84.946323,
        "phone":"",
        "instagram":"",
        "addressnumber":"5555",
        "streetname":"Whittlesey",
        "streetnameposttype":"Blvd",
        "placename":"Columbus",
        "statename":"GA",
        "zipcode":"31909"
    },
    {
        "id":20630567,
        "lat":32.519874,
        "long":-84.957631,
        "phone":"706 221 7855",
        "instagram":"",
        "addressnumber":null,
        "streetname":null,
        "streetnameposttype":null,
        "placename":"Columbus",
        "statename":"GA",
        "zipcode":"31904"
    },
    {
        "id":20425733,
        "lat":40.051098,
        "long":-83.049901,
        "phone":"614-641-7595",
        "instagram":"",
        "addressnumber":"1161",
        "streetname":"Centre",
        "streetnameposttype":"Mall",
        "placename":"Columbus",
        "statename":"OH",
        "zipcode":"43220"
    },
    {
        "id":20425959,
        "lat":40.007133,
        "long":-83.009214,
        "phone":"614 929 5286",
        "instagram":"kftcolumbus",
        "addressnumber":"2202",
        "streetname":"High",
        "streetnameposttype":"St",
        "placename":"Columbus",
        "statename":"OH",
        "zipcode":"43201"
    },
    {
        "id":20425815,
        "lat":40.115848,
        "long":-83.089661,
        "phone":"614 726 9365",
        "instagram":"kungfuteasawmill",
        "addressnumber":"7370",
        "streetname":"Sawmill",
        "streetnameposttype":"Rd",
        "placename":"Columbus",
        "statename":"OH",
        "zipcode":"43235"
    },
    {
        "id":44548580,
        "lat":26.258561,
        "long":-80.25036,
        "phone":"",
        "instagram":"",
        "addressnumber":"2236",
        "streetname":"University",
        "streetnameposttype":"Drive",
        "placename":"Springs",
        "statename":"FL",
        "zipcode":"33071"
    },
    {
        "id":42273669,
        "lat":35.481053,
        "long":-80.856436,
        "phone":"",
        "instagram":"",
        "addressnumber":"21714",
        "streetname":"Catawba",
        "streetnameposttype":"Ave",
        "placename":"Cornelius",
        "statename":"NC",
        "zipcode":"28031"
    },
    {
        "id":20425866,
        "lat":29.70883,
        "long":-95.552073,
        "phone":"713 714 8196 ",
        "instagram":"",
        "addressnumber":"6348",
        "streetname":"Corporate",
        "streetnameposttype":"Dr",
        "placename":"Houston",
        "statename":"TX",
        "zipcode":"77036"
    },
    {
        "id":20425735,
        "lat":40.048494,
        "long":-75.06186,
        "phone":"267-344-8073",
        "instagram":"",
        "addressnumber":"2222",
        "streetname":"Cottman",
        "streetnameposttype":"Avenue",
        "placename":"Philadelphia",
        "statename":"PA",
        "zipcode":"19149"
    },
    {
        "id":38177834,
        "lat":30.458576,
        "long":-90.125597,
        "phone":"",
        "instagram":"kungfutea_covington",
        "addressnumber":"71178",
        "streetname":"21,",
        "streetnameposttype":null,
        "placename":"Covington",
        "statename":"LA",
        "zipcode":"70433"
    },
    {
        "id":20425736,
        "lat":30.373454,
        "long":-97.728345,
        "phone":"512-827-9193",
        "instagram":"",
        "addressnumber":"9070",
        "streetname":"Research",
        "streetnameposttype":"Blvd",
        "placename":"Austin",
        "statename":"TX",
        "zipcode":"78758"
    },
    {
        "id":47482528,
        "lat":34.181848,
        "long":-84.133922,
        "phone":"",
        "instagram":"",
        "addressnumber":"911",
        "streetname":"Place",
        "streetnameposttype":"Blvd",
        "placename":"Cumming",
        "statename":"GA",
        "zipcode":"30041"
    },
    {
        "id":20425737,
        "lat":29.96993,
        "long":-95.690542,
        "phone":"281 304 2292",
        "instagram":"",
        "addressnumber":"25704",
        "streetname":"Northwest",
        "streetnameposttype":"Fwy",
        "placename":"Cypress",
        "statename":"TX",
        "zipcode":"77429"
    },
    {
        "id":46631393,
        "lat":30.459021,
        "long":-88.892256,
        "phone":"",
        "instagram":"",
        "addressnumber":"3516",
        "streetname":"Sangani",
        "streetnameposttype":"Blvd",
        "placename":"D'Iberville",
        "statename":"MS",
        "zipcode":"39540"
    },
    {
        "id":20425882,
        "lat":26.045957,
        "long":-80.235976,
        "phone":"954 909 4238",
        "instagram":"kftdavie",
        "addressnumber":"6819",
        "streetname":"Stirling",
        "streetnameposttype":"Rd",
        "placename":"Davie",
        "statename":"FL",
        "zipcode":"33314"
    },
    {
        "id":20425738,
        "lat":42.395024,
        "long":-71.121631,
        "phone":"617-616-5428",
        "instagram":"",
        "addressnumber":"237",
        "streetname":"Elm",
        "streetnameposttype":"St",
        "placename":"Somerville",
        "statename":"MA",
        "zipcode":"02144"
    },
    {
        "id":27922615,
        "lat":34.503735,
        "long":-84.1965,
        "phone":"",
        "instagram":"",
        "addressnumber":"145",
        "streetname":"Forest",
        "streetnameposttype":"Boulevard",
        "placename":"Dawsonville",
        "statename":"GA",
        "zipcode":"30543"
    },
    {
        "id":41382617,
        "lat":42.305847,
        "long":-83.244183,
        "phone":"",
        "instagram":"",
        "addressnumber":"22001",
        "streetname":"Michigan",
        "streetnameposttype":"Ave",
        "placename":"Dearborn",
        "statename":"MI",
        "zipcode":"48124"
    },
    {
        "id":40826866,
        "lat":29.664034,
        "long":-95.112776,
        "phone":"",
        "instagram":"kungfutea_deerpark",
        "addressnumber":"9001",
        "streetname":"Spencer",
        "streetnameposttype":"Highway",
        "placename":"Park",
        "statename":"TX",
        "zipcode":"77536"
    },
    {
        "id":20425739,
        "lat":33.229376,
        "long":-97.168664,
        "phone":"940 243 5606",
        "instagram":"",
        "addressnumber":"2735",
        "streetname":"W.University",
        "streetnameposttype":"Dr",
        "placename":"Denton",
        "statename":"TX",
        "zipcode":"76201"
    },
    {
        "id":20425811,
        "lat":39.654028,
        "long":-104.915836,
        "phone":"720 370 8888",
        "instagram":"",
        "addressnumber":"6365",
        "streetname":"Hampden",
        "streetnameposttype":"Ave",
        "placename":"Denver",
        "statename":"CO",
        "zipcode":"80222"
    },
    {
        "id":20425936,
        "lat":39.785154,
        "long":-104.891776,
        "phone":"",
        "instagram":"",
        "addressnumber":"8302",
        "streetname":"Northfield",
        "streetnameposttype":"Blvd",
        "placename":"Denver",
        "statename":"CO",
        "zipcode":"80238"
    },
    {
        "id":20425790,
        "lat":43.068626,
        "long":-76.171425,
        "phone":"315-422-2250",
        "instagram":"",
        "addressnumber":"306",
        "streetname":"Hiawatha",
        "streetnameposttype":"Boulevard",
        "placename":"Syracuse",
        "statename":"NY",
        "zipcode":"13204"
    },
    {
        "id":20425817,
        "lat":44.98174,
        "long":-93.234796,
        "phone":"612 353 5088",
        "instagram":"",
        "addressnumber":"507",
        "streetname":"14th",
        "streetnameposttype":"Ave",
        "placename":"Minneapolis",
        "statename":"MN",
        "zipcode":"55414"
    },
    {
        "id":42450135,
        "lat":41.903619,
        "long":-87.668282,
        "phone":"",
        "instagram":"",
        "addressnumber":"1624",
        "streetname":"Division",
        "streetnameposttype":"Street",
        "placename":"Chicago",
        "statename":"IL",
        "zipcode":"60622"
    },
    {
        "id":20425740,
        "lat":33.897043,
        "long":-84.281339,
        "phone":"770-455-8585",
        "instagram":"",
        "addressnumber":"5280-A",
        "streetname":"Buford",
        "streetnameposttype":"Highway",
        "placename":"Doraville",
        "statename":"GA",
        "zipcode":"30340"
    },
    {
        "id":45627545,
        "lat":40.017356,
        "long":-75.677686,
        "phone":"",
        "instagram":"",
        "addressnumber":"1088",
        "streetname":"Lancaster",
        "streetnameposttype":"Ave",
        "placename":"Downingtown",
        "statename":"PA",
        "zipcode":"19335"
    },
    {
        "id":45130321,
        "lat":34.853403,
        "long":-82.398339,
        "phone":"",
        "instagram":"kungfuteagreenville",
        "addressnumber":"233",
        "streetname":"Main",
        "streetnameposttype":"Street",
        "placename":"Greenville",
        "statename":"SC",
        "zipcode":"29601"
    },
    {
        "id":20425801,
        "lat":38.997068,
        "long":-77.026964,
        "phone":"240 308 8868",
        "instagram":"kftsilverspring",
        "addressnumber":"8661",
        "streetname":"Colesville",
        "streetnameposttype":"Rd",
        "placename":"Spring",
        "statename":"MD",
        "zipcode":"20910"
    },
    {
        "id":20425949,
        "lat":40.309814,
        "long":-75.130799,
        "phone":"215 348 8000",
        "instagram":"kungfutea_doylestown",
        "addressnumber":"6",
        "streetname":"State",
        "streetnameposttype":"St",
        "placename":"Doylestown",
        "statename":"PA",
        "zipcode":"18901"
    },
    {
        "id":23656177,
        "lat":40.527047,
        "long":-111.885395,
        "phone":"801-274-4988",
        "instagram":"kungfuteadraper",
        "addressnumber":"191",
        "streetname":"12300",
        "streetnameposttype":null,
        "placename":"Draper",
        "statename":"UT",
        "zipcode":"84020"
    },
    {
        "id":20425904,
        "lat":39.95591,
        "long":-75.187026,
        "phone":"267 703 2888",
        "instagram":"",
        "addressnumber":"3175",
        "streetname":"Kennedy",
        "streetnameposttype":"Boulevard",
        "placename":"Philadelphia",
        "statename":"PA",
        "zipcode":"19104"
    },
    {
        "id":20425834,
        "lat":39.03252,
        "long":-77.423682,
        "phone":"703 430 5818",
        "instagram":"kungfutea.dullestowncenter",
        "addressnumber":"21100",
        "streetname":"Town",
        "streetnameposttype":"Circle",
        "placename":"Sterling",
        "statename":"VA",
        "zipcode":"20166"
    },
    {
        "id":20425741,
        "lat":33.965722,
        "long":-84.133006,
        "phone":"470-395-0583",
        "instagram":"",
        "addressnumber":"3473",
        "streetname":"Norcross",
        "streetnameposttype":"Rd.",
        "placename":"Duluth",
        "statename":"GA",
        "zipcode":"30096"
    },
    {
        "id":33540733,
        "lat":42.7189,
        "long":-84.4558,
        "phone":"",
        "instagram":"kftxtkk_eastlansingmi",
        "addressnumber":"2929",
        "streetname":"Hannah",
        "streetnameposttype":"Boulevard",
        "placename":"Lansing",
        "statename":"MI",
        "zipcode":"48823"
    },
    {
        "id":27172056,
        "lat":40.724667,
        "long":-73.55129,
        "phone":"",
        "instagram":"kungfutea.eastmeadow",
        "addressnumber":"2298",
        "streetname":"Hempstead",
        "streetnameposttype":"Turnpike",
        "placename":"Meadow",
        "statename":"NY",
        "zipcode":"11554"
    },
    {
        "id":41514487,
        "lat":40.670602,
        "long":-89.584537,
        "phone":"",
        "instagram":"",
        "addressnumber":"378",
        "streetname":"Washington",
        "streetnameposttype":"Street",
        "placename":"Peoria",
        "statename":"IL",
        "zipcode":"61611"
    },
    {
        "id":41557001,
        "lat":40.808554,
        "long":-74.070793,
        "phone":"",
        "instagram":"",
        "addressnumber":"1",
        "streetname":"Dream",
        "streetnameposttype":"Way",
        "placename":"Rutherford",
        "statename":"NJ",
        "zipcode":"07073"
    },
    {
        "id":20425742,
        "lat":40.728805,
        "long":-73.988608,
        "phone":"917-285-4285",
        "instagram":"",
        "addressnumber":"28",
        "streetname":"Marks",
        "streetnameposttype":"Pl.",
        "placename":"New",
        "statename":"NY",
        "zipcode":"10003"
    },
    {
        "id":20425743,
        "lat":40.511943,
        "long":-74.407128,
        "phone":"732 248 0400",
        "instagram":"",
        "addressnumber":"1731",
        "streetname":"27",
        "streetnameposttype":null,
        "placename":"Edison",
        "statename":"NJ",
        "zipcode":"08817"
    },
    {
        "id":31961384,
        "lat":32.739753,
        "long":-116.937234,
        "phone":"",
        "instagram":"",
        "addressnumber":"2891",
        "streetname":"Jamacha",
        "streetnameposttype":"Road",
        "placename":"Cajon",
        "statename":"CA",
        "zipcode":"92019"
    },
    {
        "id":31984991,
        "lat":31.76904,
        "long":-106.37131,
        "phone":"",
        "instagram":"kungfutea_ep",
        "addressnumber":"8889",
        "streetname":"Gateway",
        "streetnameposttype":"Boulevard",
        "placename":"Paso",
        "statename":"TX",
        "zipcode":"79925"
    },
    {
        "id":41182738,
        "lat":29.763498,
        "long":-95.62471,
        "phone":"",
        "instagram":"kungfuteausa?hl=en",
        "addressnumber":"1275",
        "streetname":"Eldridge",
        "streetnameposttype":"Pkwy",
        "placename":"Houston",
        "statename":"TX",
        "zipcode":"77077"
    },
    {
        "id":31689468,
        "lat":38.42541,
        "long":-121.39861,
        "phone":"",
        "instagram":"kungfuteaelkgrove",
        "addressnumber":"9135",
        "streetname":"Stockton",
        "streetnameposttype":"Boulevard",
        "placename":"Grove",
        "statename":"CA",
        "zipcode":"95758"
    },
    {
        "id":22702420,
        "lat":39.279555,
        "long":-76.831254,
        "phone":"",
        "instagram":"kungfuteausa",
        "addressnumber":"9210",
        "streetname":"National",
        "streetnameposttype":"Pike",
        "placename":"City",
        "statename":"MD",
        "zipcode":"21042"
    },
    {
        "id":38894251,
        "lat":40.626631,
        "long":-74.131469,
        "phone":"718-603-8999",
        "instagram":"kungfu_tea_forest_avenue",
        "addressnumber":"1267",
        "streetname":"Forest",
        "streetnameposttype":"Ave",
        "placename":"Island",
        "statename":"NY",
        "zipcode":"10302"
    },
    {
        "id":20425745,
        "lat":40.737914,
        "long":-73.876895,
        "phone":"718-899-1189",
        "instagram":"",
        "addressnumber":"86-12",
        "streetname":"Justice",
        "streetnameposttype":"Ave",
        "placename":"Elmhurst",
        "statename":"NY",
        "zipcode":"11373"
    },
    {
        "id":20425746,
        "lat":42.049646,
        "long":-87.681246,
        "phone":"224-307-2314",
        "instagram":"",
        "addressnumber":"726",
        "streetname":"Clark",
        "streetnameposttype":"Street",
        "placename":"Evanston",
        "statename":"IL",
        "zipcode":"60201"
    },
    {
        "id":35514970,
        "lat":40.750648,
        "long":-73.421031,
        "phone":"",
        "instagram":"kungfuteausa",
        "addressnumber":"56",
        "streetname":"Pk",
        "streetnameposttype":"Ctr",
        "placename":"Farmingdale",
        "statename":"NY",
        "zipcode":"11735"
    },
    {
        "id":31482856,
        "lat":35.029654,
        "long":-79.05954,
        "phone":"",
        "instagram":"kungfutea_fayetteville",
        "addressnumber":"7821",
        "streetname":"Middling",
        "streetnameposttype":"Drive",
        "placename":"Fayetteville",
        "statename":"NC",
        "zipcode":"28304"
    },
    {
        "id":40093080,
        "lat":40.151266,
        "long":-75.000279,
        "phone":"",
        "instagram":"kungfutea_feasterville",
        "addressnumber":"1045-2",
        "streetname":"Bustleton",
        "streetnameposttype":"Pike",
        "placename":"Feasterville",
        "statename":"PA",
        "zipcode":"19053"
    },
    {
        "id":31153037,
        "lat":39.956363,
        "long":-86.020379,
        "phone":"",
        "instagram":"kungfu_tea_fishers",
        "addressnumber":"8395",
        "streetname":"116th",
        "streetnameposttype":"Street",
        "placename":"Fishers",
        "statename":"IN",
        "zipcode":"46038"
    },
    {
        "id":20425901,
        "lat":40.739888,
        "long":-73.98562,
        "phone":"646 476 2013",
        "instagram":"",
        "addressnumber":"115",
        "streetname":"23rd",
        "streetnameposttype":"St",
        "placename":"York",
        "statename":"NY",
        "zipcode":"10010"
    },
    {
        "id":20425748,
        "lat":40.718106,
        "long":-73.844847,
        "phone":"718-263-3631",
        "instagram":"",
        "addressnumber":"70-10",
        "streetname":"Austin",
        "streetnameposttype":"St",
        "placename":"Hills",
        "statename":"NY",
        "zipcode":"11375"
    },
    {
        "id":20425907,
        "lat":40.55162,
        "long":-105.038888,
        "phone":"970 657 2895",
        "instagram":"kungfuteafortcollins",
        "addressnumber":"2608",
        "streetname":"Timberline",
        "streetnameposttype":"Rd",
        "placename":"Collins",
        "statename":"CO",
        "zipcode":"80525"
    },
    {
        "id":28918348,
        "lat":26.13184,
        "long":-80.137828,
        "phone":"",
        "instagram":"kungfutea_ftl",
        "addressnumber":"721",
        "streetname":"6,",
        "streetnameposttype":"Highway",
        "placename":"Lauderdale",
        "statename":"FL",
        "zipcode":"33304"
    },
    {
        "id":20425749,
        "lat":40.856126,
        "long":-73.96785,
        "phone":"201 461 0398",
        "instagram":"",
        "addressnumber":"2151",
        "streetname":"Lemoine",
        "streetnameposttype":"Ave",
        "placename":"Lee",
        "statename":"NJ",
        "zipcode":"07024"
    },
    {
        "id":21262556,
        "lat":35.041185,
        "long":-80.982662,
        "phone":"",
        "instagram":"kungfuteausa",
        "addressnumber":"1852",
        "streetname":"SC-160",
        "streetnameposttype":null,
        "placename":"Mill",
        "statename":"SC",
        "zipcode":"29708"
    },
    {
        "id":28930586,
        "lat":26.605925,
        "long":-81.811891,
        "phone":"239-362-3207",
        "instagram":"kungfuteafortmyers",
        "addressnumber":"9390",
        "streetname":"Cypress",
        "streetnameposttype":"Parkway",
        "placename":"Myers",
        "statename":"FL",
        "zipcode":"33966"
    },
    {
        "id":40598410,
        "lat":41.071463,
        "long":-85.19651,
        "phone":"",
        "instagram":"kftfortwaynein",
        "addressnumber":"4206",
        "streetname":"Jefferson",
        "streetnameposttype":"Boulevard",
        "placename":"Wayne",
        "statename":"IN",
        "zipcode":"46814"
    },
    {
        "id":20425818,
        "lat":32.677172,
        "long":-97.401791,
        "phone":"682-250-3113",
        "instagram":"kungfuteafortworthtx",
        "addressnumber":"4946",
        "streetname":"Ridge",
        "streetnameposttype":"Blvd",
        "placename":"Worth",
        "statename":"TX",
        "zipcode":"76132"
    },
    {
        "id":40945076,
        "lat":40.707379,
        "long":-73.673495,
        "phone":"516-283-2251",
        "instagram":"kungfuteausa",
        "addressnumber":"902",
        "streetname":"Hempstead",
        "streetnameposttype":"Turnpike",
        "placename":"Square",
        "statename":"NY",
        "zipcode":"11010"
    },
    {
        "id":33540376,
        "lat":39.96226,
        "long":-75.17126,
        "phone":"",
        "instagram":"kungfuteausa",
        "addressnumber":"2000",
        "streetname":"Hamilton",
        "streetnameposttype":"Street",
        "placename":"Philadelphia",
        "statename":"PA",
        "zipcode":"19130"
    },
    {
        "id":40610563,
        "lat":39.381394,
        "long":-77.404006,
        "phone":"",
        "instagram":"",
        "addressnumber":"5500",
        "streetname":"Buckeystown",
        "streetnameposttype":"Pike",
        "placename":"Frederick",
        "statename":"MD",
        "zipcode":"21703"
    },
    {
        "id":20425850,
        "lat":33.109221,
        "long":-96.801711,
        "phone":"469 388 1008",
        "instagram":"",
        "addressnumber":"9292",
        "streetname":"Warren",
        "streetnameposttype":"Pkwy",
        "placename":"Frisco",
        "statename":"TX",
        "zipcode":"75035"
    },
    {
        "id":20425750,
        "lat":29.625046,
        "long":-82.373096,
        "phone":"352-792-6375",
        "instagram":"",
        "addressnumber":"3102",
        "streetname":"34th",
        "streetnameposttype":"St",
        "placename":"Gainesville",
        "statename":"FL",
        "zipcode":"32608"
    },
    {
        "id":20425940,
        "lat":39.11826,
        "long":-77.201457,
        "phone":"240 862 8666",
        "instagram":"",
        "addressnumber":"6",
        "streetname":"Corner",
        "streetnameposttype":"Ave",
        "placename":"Gaithersburg",
        "statename":"MD",
        "zipcode":"20878"
    },
    {
        "id":42188001,
        "lat":36.382478,
        "long":-86.550693,
        "phone":"",
        "instagram":"",
        "addressnumber":"1915",
        "streetname":"Hollow",
        "streetnameposttype":"Pike",
        "placename":"Gallatin",
        "statename":"TN",
        "zipcode":"37066"
    },
    {
        "id":20425819,
        "lat":39.03977,
        "long":-76.680622,
        "phone":"410 721 6184",
        "instagram":"",
        "addressnumber":"2638",
        "streetname":"Lake",
        "streetnameposttype":"Dr",
        "placename":"Gambrills",
        "statename":"MD",
        "zipcode":"21054"
    },
    {
        "id":20425751,
        "lat":40.918194,
        "long":-74.075838,
        "phone":"201 845 3500",
        "instagram":"",
        "addressnumber":null,
        "streetname":null,
        "streetnameposttype":null,
        "placename":"Paramus",
        "statename":"NJ",
        "zipcode":"07652"
    },
    {
        "id":50118574,
        "lat":39.178625,
        "long":-77.237273,
        "phone":"",
        "instagram":"",
        "addressnumber":"19717",
        "streetname":"Frederick",
        "streetnameposttype":"Road",
        "placename":"Germantown",
        "statename":"MD",
        "zipcode":"20876"
    },
    {
        "id":20425924,
        "lat":39.704941,
        "long":-75.113274,
        "phone":"856 863 5888",
        "instagram":"",
        "addressnumber":"224",
        "streetname":"Rowan",
        "streetnameposttype":"Blvd",
        "placename":"Glassboro",
        "statename":"NJ",
        "zipcode":"08028"
    },
    {
        "id":28771562,
        "lat":42.067307,
        "long":-87.849721,
        "phone":"",
        "instagram":"",
        "addressnumber":"610",
        "streetname":"Milwaukee",
        "streetnameposttype":"Ave",
        "placename":"Glenview",
        "statename":"IL",
        "zipcode":"60025"
    },
    {
        "id":20425752,
        "lat":32.645551,
        "long":-97.061835,
        "phone":"972-522-7792",
        "instagram":"",
        "addressnumber":"5220",
        "streetname":"360,",
        "streetnameposttype":null,
        "placename":"Prairie",
        "statename":"TX",
        "zipcode":"75052-0949"
    },
    {
        "id":20425937,
        "lat":42.935579,
        "long":-85.66703,
        "phone":"616 805 4755",
        "instagram":"",
        "addressnumber":"5301",
        "streetname":"Division",
        "streetnameposttype":"Ave",
        "placename":"Rapids",
        "statename":"MI",
        "zipcode":"49548"
    },
    {
        "id":28918350,
        "lat":40.079981,
        "long":-75.025552,
        "phone":"",
        "instagram":"",
        "addressnumber":"2453",
        "streetname":"Grant",
        "streetnameposttype":"Avenue",
        "placename":"Philadelphia",
        "statename":"PA",
        "zipcode":"19114"
    },
    {
        "id":42201955,
        "lat":40.788293,
        "long":-73.728041,
        "phone":"",
        "instagram":"",
        "addressnumber":"10",
        "streetname":"Grace",
        "streetnameposttype":"Avenue",
        "placename":"Neck",
        "statename":"NY",
        "zipcode":"11201"
    },
    {
        "id":25485233,
        "lat":34.848813,
        "long":-82.340573,
        "phone":"864-631-1275",
        "instagram":"kungfuteagreenville",
        "addressnumber":"581",
        "streetname":"Haywood",
        "streetnameposttype":"Road",
        "placename":"Greenville",
        "statename":"SC",
        "zipcode":"29607"
    },
    {
        "id":29928983,
        "lat":39.639628,
        "long":-86.1297,
        "phone":"",
        "instagram":"",
        "addressnumber":"8721A",
        "streetname":"31",
        "streetnameposttype":null,
        "placename":"Indianapolis",
        "statename":"IN",
        "zipcode":"46227"
    },
    {
        "id":37334478,
        "lat":37.045295,
        "long":-76.389359,
        "phone":"",
        "instagram":"",
        "addressnumber":"2040",
        "streetname":"Coliseum",
        "streetnameposttype":"Dr.",
        "placename":"Hampton",
        "statename":"VA",
        "zipcode":"23666"
    },
    {
        "id":41250034,
        "lat":45.42716,
        "long":-122.501313,
        "phone":"",
        "instagram":"",
        "addressnumber":"15640",
        "streetname":"Center",
        "streetnameposttype":"Dr",
        "placename":"Valley",
        "statename":"OR",
        "zipcode":"97086"
    },
    {
        "id":20425870,
        "lat":29.65239,
        "long":-95.714614,
        "phone":"281 491 5270",
        "instagram":"",
        "addressnumber":"11020",
        "streetname":"Harlem",
        "streetnameposttype":"Rd",
        "placename":"Richmond",
        "statename":"TX",
        "zipcode":"77406"
    },
    {
        "id":20425753,
        "lat":38.431071,
        "long":-78.855526,
        "phone":"540-217-5182",
        "instagram":"",
        "addressnumber":"1645",
        "streetname":"Reservoir",
        "streetnameposttype":"Street",
        "placename":"Harrisonburg",
        "statename":"VA",
        "zipcode":"22801"
    },
    {
        "id":27472921,
        "lat":41.759286,
        "long":-72.742266,
        "phone":"860-216-2023",
        "instagram":"",
        "addressnumber":"5",
        "streetname":"Main",
        "streetnameposttype":"Street",
        "placename":"Hartford",
        "statename":"CT",
        "zipcode":"06107"
    },
    {
        "id":20425920,
        "lat":42.371325,
        "long":-71.11456,
        "phone":"617 714 5055",
        "instagram":"",
        "addressnumber":"1160",
        "streetname":"Massachusetts",
        "streetnameposttype":"Ave",
        "placename":"Cambridge",
        "statename":"MA",
        "zipcode":"02138"
    },
    {
        "id":44907359,
        "lat":34.856519,
        "long":-76.895012,
        "phone":"",
        "instagram":"",
        "addressnumber":"1419",
        "streetname":"Main",
        "streetnameposttype":"Street",
        "placename":"Havelock",
        "statename":"NC",
        "zipcode":"28532"
    },
    {
        "id":34780383,
        "lat":36.871778,
        "long":-76.134758,
        "phone":"",
        "instagram":"",
        "addressnumber":"1045",
        "streetname":"Independence",
        "streetnameposttype":"Boulevard",
        "placename":"Beach",
        "statename":"VA",
        "zipcode":"23455"
    },
    {
        "id":41441975,
        "lat":38.815574,
        "long":-77.638958,
        "phone":"",
        "instagram":"",
        "addressnumber":"6616",
        "streetname":"Watts",
        "streetnameposttype":"Rd.",
        "placename":"Haymarket",
        "statename":"VA",
        "zipcode":"20169"
    },
    {
        "id":47081136,
        "lat":40.417579,
        "long":-74.180673,
        "phone":"",
        "instagram":"",
        "addressnumber":"3010",
        "streetname":"NJ-35,",
        "streetnameposttype":null,
        "placename":"Hazlet",
        "statename":"NJ",
        "zipcode":"07730"
    },
    {
        "id":20425805,
        "lat":40.773218,
        "long":-73.529509,
        "phone":"516 336 9812",
        "instagram":"",
        "addressnumber":"358",
        "streetname":"Broadway,",
        "streetnameposttype":null,
        "placename":"Hicksville",
        "statename":"NY",
        "zipcode":"11801"
    },
    {
        "id":46463276,
        "lat":35.78905,
        "long":-78.848688,
        "phone":"",
        "instagram":"",
        "addressnumber":"1961",
        "streetname":"House",
        "streetnameposttype":"Rd",
        "placename":"Cary",
        "statename":"NC",
        "zipcode":"27519"
    },
    {
        "id":20425943,
        "lat":36.033292,
        "long":-79.960091,
        "phone":"",
        "instagram":"",
        "addressnumber":"5815",
        "streetname":"Samet",
        "streetnameposttype":"Drive",
        "placename":"Point",
        "statename":"NC",
        "zipcode":"27265"
    },
    {
        "id":26536640,
        "lat":39.54227,
        "long":-104.945941,
        "phone":"",
        "instagram":"",
        "addressnumber":"9559",
        "streetname":"University",
        "streetnameposttype":"Blvd",
        "placename":"Ranch",
        "statename":"CO",
        "zipcode":"80126"
    },
    {
        "id":44448897,
        "lat":40.001619,
        "long":-83.155918,
        "phone":"",
        "instagram":"",
        "addressnumber":"2483",
        "streetname":"Rome",
        "streetnameposttype":"Rd",
        "placename":"Hilliard",
        "statename":"OH",
        "zipcode":"43026"
    },
    {
        "id":20425863,
        "lat":45.537056,
        "long":-122.87861,
        "phone":"503 690 1858",
        "instagram":"",
        "addressnumber":"2185",
        "streetname":"Allie",
        "streetnameposttype":"Ave",
        "placename":"Hillsboro",
        "statename":"OR",
        "zipcode":"97124"
    },
    {
        "id":30743872,
        "lat":32.211392,
        "long":-80.701409,
        "phone":"",
        "instagram":"",
        "addressnumber":"95",
        "streetname":"Mathew",
        "streetnameposttype":"Drive",
        "placename":"Head",
        "statename":"SC",
        "zipcode":"29926"
    },
    {
        "id":20425754,
        "lat":40.743392,
        "long":-74.029509,
        "phone":"201-222-9091",
        "instagram":"",
        "addressnumber":"536",
        "streetname":"WASHINGTON",
        "streetnameposttype":"Street",
        "placename":"Hoboken",
        "statename":"NJ",
        "zipcode":"07030"
    },
    {
        "id":37443410,
        "lat":42.82616,
        "long":-86.097018,
        "phone":"",
        "instagram":"",
        "addressnumber":"12760",
        "streetname":"Riley",
        "streetnameposttype":"Street",
        "placename":"Holland",
        "statename":"MI",
        "zipcode":"49424"
    },
    {
        "id":20425755,
        "lat":29.703397,
        "long":-95.553476,
        "phone":"832-831-9288",
        "instagram":"",
        "addressnumber":"9889",
        "streetname":"Bellaire",
        "streetnameposttype":"Blvd",
        "placename":"Houston",
        "statename":"TX",
        "zipcode":"77036"
    },
    {
        "id":48408968,
        "lat":40.655508,
        "long":-73.839265,
        "phone":"",
        "instagram":"",
        "addressnumber":"16108",
        "streetname":"Bay",
        "streetnameposttype":"Blvd",
        "placename":"Beach",
        "statename":"NY",
        "zipcode":"11414"
    },
    {
        "id":29176106,
        "lat":29.993174,
        "long":-95.177055,
        "phone":"832-644-5022 ",
        "instagram":"",
        "addressnumber":"6730",
        "streetname":"Atascocita",
        "streetnameposttype":"Road",
        "placename":"Humble",
        "statename":"TX",
        "zipcode":"77346"
    },
    {
        "id":20575178,
        "lat":34.75563,
        "long":-86.680592,
        "phone":"",
        "instagram":"",
        "addressnumber":"1022",
        "streetname":"Midcity",
        "streetnameposttype":"Drive",
        "placename":"Huntsville",
        "statename":"AL",
        "zipcode":"35806"
    },
    {
        "id":40626836,
        "lat":38.955541,
        "long":-76.939881,
        "phone":"",
        "instagram":"",
        "addressnumber":"5501",
        "streetname":"Baltimore",
        "streetnameposttype":"Ave",
        "placename":"Hyattsville",
        "statename":"MD",
        "zipcode":"20781"
    },
    {
        "id":20425758,
        "lat":42.441588,
        "long":-76.485992,
        "phone":"607-319-0304",
        "instagram":"",
        "addressnumber":"143",
        "streetname":"Dryden",
        "streetnameposttype":"Road",
        "placename":"Ithaca",
        "statename":"NY",
        "zipcode":"14850"
    },
    {
        "id":20425759,
        "lat":40.747457,
        "long":-73.883727,
        "phone":"718 685 2886",
        "instagram":"",
        "addressnumber":"82-02",
        "streetname":"Rooselvelt",
        "streetnameposttype":"Ave",
        "placename":"Heights",
        "statename":"NY",
        "zipcode":"11372"
    },
    {
        "id":20425802,
        "lat":30.286755,
        "long":-81.486073,
        "phone":"904 337 0627",
        "instagram":"",
        "addressnumber":"12630",
        "streetname":"Beach",
        "streetnameposttype":"Blvd",
        "placename":"Jacksonville",
        "statename":"FL",
        "zipcode":"32246"
    },
    {
        "id":39694017,
        "lat":40.708642,
        "long":-73.804079,
        "phone":"",
        "instagram":"",
        "addressnumber":"87-52A",
        "streetname":"Parsons",
        "streetnameposttype":"Blvd",
        "placename":"Jamaica",
        "statename":"NY",
        "zipcode":"11432"
    },
    {
        "id":28193061,
        "lat":40.72724,
        "long":-73.710947,
        "phone":"",
        "instagram":"",
        "addressnumber":"251-73",
        "streetname":"Jericho",
        "streetnameposttype":"Turnpike",
        "placename":"Jamaica",
        "statename":"NY",
        "zipcode":"114226"
    },
    {
        "id":42220691,
        "lat":34.121424,
        "long":-83.605496,
        "phone":"",
        "instagram":"",
        "addressnumber":"1681",
        "streetname":"Pendergrass",
        "streetnameposttype":"Road",
        "placename":"Jefferson",
        "statename":"GA",
        "zipcode":"30549"
    },
    {
        "id":26369460,
        "lat":34.017964,
        "long":-84.193164,
        "phone":"",
        "instagram":"",
        "addressnumber":"9700",
        "streetname":"Bridge",
        "streetnameposttype":"Road",
        "placename":"Creek",
        "statename":"GA",
        "zipcode":"30097"
    },
    {
        "id":26575728,
        "lat":39.326337,
        "long":-76.61555,
        "phone":"",
        "instagram":"",
        "addressnumber":"3113",
        "streetname":"Paul",
        "streetnameposttype":"Street",
        "placename":"Baltimore",
        "statename":"MD",
        "zipcode":"21218"
    },
    {
        "id":28825623,
        "lat":42.296122,
        "long":-85.649175,
        "phone":"",
        "instagram":"",
        "addressnumber":"5043",
        "streetname":"Main",
        "streetnameposttype":"Street",
        "placename":"Kalamazoo",
        "statename":"MI",
        "zipcode":"49009"
    },
    {
        "id":20425785,
        "lat":29.777913,
        "long":-95.751191,
        "phone":"281-206-7339",
        "instagram":"",
        "addressnumber":"501",
        "streetname":"Mason",
        "streetnameposttype":"Road",
        "placename":"Katy",
        "statename":"TX",
        "zipcode":"77450"
    },
    {
        "id":20425872,
        "lat":34.015173,
        "long":-84.554555,
        "phone":"678 903 2110",
        "instagram":"",
        "addressnumber":"2505",
        "streetname":"Meadows",
        "streetnameposttype":"Parkway",
        "placename":"Marietta",
        "statename":"GA",
        "zipcode":"30066"
    },
    {
        "id":20425840,
        "lat":41.15195,
        "long":-81.35665,
        "phone":"330 474 3236",
        "instagram":"",
        "addressnumber":"220",
        "streetname":"Depeyster",
        "streetnameposttype":"St",
        "placename":"Kent",
        "statename":"OH",
        "zipcode":"44240"
    },
    {
        "id":37163388,
        "lat":39.122261,
        "long":-77.234847,
        "phone":"",
        "instagram":"",
        "addressnumber":"130",
        "streetname":"Market",
        "streetnameposttype":"Street",
        "placename":"Gaithersburg",
        "statename":"MD",
        "zipcode":"20878"
    },
    {
        "id":20425928,
        "lat":40.085425,
        "long":-75.393156,
        "phone":"610 992 9888",
        "instagram":"",
        "addressnumber":"160",
        "streetname":"Gulph",
        "streetnameposttype":"Rd",
        "placename":"Prussia",
        "statename":"PA",
        "zipcode":"19406"
    },
    {
        "id":20425886,
        "lat":32.82229,
        "long":-96.786616,
        "phone":"972 598 1732",
        "instagram":"",
        "addressnumber":"3001",
        "streetname":"Knox",
        "streetnameposttype":"St",
        "placename":"Dallas",
        "statename":"TX",
        "zipcode":"75205"
    },
    {
        "id":20630565,
        "lat":35.916409,
        "long":-84.084332,
        "phone":"(865) 240-3434",
        "instagram":"",
        "addressnumber":"8851",
        "streetname":"Country",
        "streetnameposttype":"Circle",
        "placename":"Knoxville",
        "statename":"TN",
        "zipcode":"37923"
    },
    {
        "id":20425931,
        "lat":30.206038,
        "long":-92.040317,
        "phone":"",
        "instagram":"",
        "addressnumber":"2829",
        "streetname":"Johnston",
        "streetnameposttype":"St",
        "placename":"Lafayette",
        "statename":"LA",
        "zipcode":"70506"
    },
    {
        "id":45652864,
        "lat":42.250891,
        "long":-87.841707,
        "phone":"",
        "instagram":"",
        "addressnumber":"225",
        "streetname":"Deerpath",
        "streetnameposttype":"Rd",
        "placename":"Forest",
        "statename":"IL",
        "zipcode":"60045"
    },
    {
        "id":37431810,
        "lat":39.710592,
        "long":-105.082765,
        "phone":"",
        "instagram":"",
        "addressnumber":"7740",
        "streetname":"Alameda",
        "streetnameposttype":"Ave",
        "placename":"Lakewood",
        "statename":"CO",
        "zipcode":"80226"
    },
    {
        "id":26357122,
        "lat":40.072448,
        "long":-76.320196,
        "phone":"",
        "instagram":"",
        "addressnumber":"1846",
        "streetname":"Fruitville",
        "streetnameposttype":"Pike",
        "placename":"Lancaster",
        "statename":"PA",
        "zipcode":"17601"
    },
    {
        "id":20425873,
        "lat":27.894923,
        "long":-82.744561,
        "phone":"",
        "instagram":"",
        "addressnumber":"7717",
        "streetname":"Ulmerton",
        "streetnameposttype":"Rd",
        "placename":"Largo",
        "statename":"FL",
        "zipcode":"33771"
    },
    {
        "id":20425763,
        "lat":36.126221,
        "long":-115.209952,
        "phone":"702-776-7077",
        "instagram":"",
        "addressnumber":"5030",
        "streetname":"Mountain",
        "streetnameposttype":"Rd",
        "placename":"Vegas",
        "statename":"NV",
        "zipcode":"89146"
    },
    {
        "id":22701836,
        "lat":39.093975,
        "long":-76.857764,
        "phone":"401-616-3560",
        "instagram":"",
        "addressnumber":"14708",
        "streetname":"Baltimore",
        "streetnameposttype":"Ave",
        "placename":"Laurel",
        "statename":"MD",
        "zipcode":"20707"
    },
    {
        "id":24037222,
        "lat":39.29215,
        "long":-94.90856,
        "phone":"",
        "instagram":"",
        "addressnumber":"2500",
        "streetname":"4th",
        "streetnameposttype":"Street",
        "placename":"Leavenworth",
        "statename":"KS",
        "zipcode":"66048"
    },
    {
        "id":31689469,
        "lat":39.08171,
        "long":-77.49312,
        "phone":"",
        "instagram":"",
        "addressnumber":"19337",
        "streetname":"Lake",
        "streetnameposttype":"Drive",
        "placename":"Leesburg",
        "statename":"VA",
        "zipcode":"20176"
    },
    {
        "id":28918351,
        "lat":40.132559,
        "long":-74.884087,
        "phone":"",
        "instagram":"",
        "addressnumber":"4034",
        "streetname":"Veteran",
        "streetnameposttype":"Hwy",
        "placename":"Levittown",
        "statename":"PA",
        "zipcode":"19056"
    },
    {
        "id":28407917,
        "lat":38.035255,
        "long":-84.508441,
        "phone":"",
        "instagram":"",
        "addressnumber":"685",
        "streetname":"Limestone",
        "streetnameposttype":"St",
        "placename":"Lexington",
        "statename":"KY",
        "zipcode":"40508"
    },
    {
        "id":35265893,
        "lat":42.283442,
        "long":-87.952983,
        "phone":"",
        "instagram":"kungfutea_libertyville",
        "addressnumber":"114",
        "streetname":"Milwaukee",
        "streetnameposttype":"Ave",
        "placename":"Libertyville",
        "statename":"IL",
        "zipcode":"60048"
    },
    {
        "id":41617343,
        "lat":40.728358,
        "long":-96.680654,
        "phone":"",
        "instagram":"",
        "addressnumber":"2755",
        "streetname":"Jamie",
        "streetnameposttype":"Lane",
        "placename":"Lincoln",
        "statename":"NE",
        "zipcode":"68516"
    },
    {
        "id":20425821,
        "lat":40.85596,
        "long":-96.683594,
        "phone":"402 975 2400",
        "instagram":"",
        "addressnumber":"4451",
        "streetname":"26th",
        "streetnameposttype":"St",
        "placename":"Lincoln",
        "statename":"NE",
        "zipcode":"68521"
    },
    {
        "id":23624956,
        "lat":39.542264,
        "long":-104.945933,
        "phone":"",
        "instagram":"",
        "addressnumber":"9559",
        "streetname":"University",
        "streetnameposttype":"Blvd",
        "placename":"Littleton",
        "statename":"CO",
        "zipcode":"80126"
    },
    {
        "id":20425957,
        "lat":39.624214,
        "long":-105.093695,
        "phone":"720 787 9876",
        "instagram":"",
        "addressnumber":"8555",
        "streetname":"Belleview",
        "streetnameposttype":"Ave",
        "placename":"Littleton",
        "statename":"CO",
        "zipcode":"80123"
    },
    {
        "id":35073595,
        "lat":42.368694,
        "long":-83.333212,
        "phone":"",
        "instagram":"",
        "addressnumber":"11516",
        "streetname":"Middlebelt",
        "streetnameposttype":"Rd",
        "placename":"Livonia",
        "statename":"MI",
        "zipcode":"48150"
    },
    {
        "id":38872412,
        "lat":40.14689,
        "long":-105.128283,
        "phone":"",
        "instagram":"",
        "addressnumber":"1232",
        "streetname":"Hover",
        "streetnameposttype":"Street",
        "placename":"Longmont",
        "statename":"CO",
        "zipcode":"80501"
    },
    {
        "id":28407916,
        "lat":38.702411,
        "long":-77.220074,
        "phone":"(703) 337-2999",
        "instagram":"",
        "addressnumber":"9423",
        "streetname":"Market",
        "streetnameposttype":"Street",
        "placename":"Lorton",
        "statename":"VA",
        "zipcode":"22079"
    },
    {
        "id":20425890,
        "lat":38.24817,
        "long":-85.621865,
        "phone":"502 202 2981",
        "instagram":"",
        "addressnumber":"5000",
        "streetname":"Shelbyville",
        "streetnameposttype":"Rd",
        "placename":"Louisville",
        "statename":"KY",
        "zipcode":"40207"
    },
    {
        "id":20425955,
        "lat":42.645591,
        "long":-71.308289,
        "phone":"",
        "instagram":"",
        "addressnumber":"43",
        "streetname":"Merrimack",
        "streetnameposttype":"St",
        "placename":"Lowell",
        "statename":"MA",
        "zipcode":"01852"
    },
    {
        "id":38230345,
        "lat":33.519158,
        "long":-101.941399,
        "phone":"",
        "instagram":"",
        "addressnumber":"5815",
        "streetname":"82nd",
        "streetnameposttype":"Street",
        "placename":"Lubbock",
        "statename":"TX",
        "zipcode":"79424"
    },
    {
        "id":45098102,
        "lat":38.900032,
        "long":-77.021066,
        "phone":"",
        "instagram":"",
        "addressnumber":"625",
        "streetname":"H",
        "streetnameposttype":"Street",
        "placename":"Washington",
        "statename":"DC",
        "zipcode":"20001"
    },
    {
        "id":34717517,
        "lat":40.654592,
        "long":-73.672012,
        "phone":"",
        "instagram":"",
        "addressnumber":"71",
        "streetname":"Atlantic",
        "streetnameposttype":"Avenue",
        "placename":"Lynbrook",
        "statename":"NY",
        "zipcode":"11563"
    },
    {
        "id":20425764,
        "lat":43.074513,
        "long":-89.393366,
        "phone":"608-819-8809",
        "instagram":"",
        "addressnumber":"449",
        "streetname":"State",
        "streetnameposttype":"St",
        "placename":"Madison",
        "statename":"WI",
        "zipcode":"53703"
    },
    {
        "id":20425765,
        "lat":42.426701,
        "long":-71.067377,
        "phone":"781-321-1898",
        "instagram":"",
        "addressnumber":"3",
        "streetname":"Pleasant",
        "streetnameposttype":"Street",
        "placename":"Malden",
        "statename":"MA",
        "zipcode":"02148"
    },
    {
        "id":26833509,
        "lat":40.049222,
        "long":-75.517795,
        "phone":"",
        "instagram":"",
        "addressnumber":"650",
        "streetname":"Carnegie",
        "streetnameposttype":"Boulevard",
        "placename":"Malvern",
        "statename":"PA",
        "zipcode":"19355"
    },
    {
        "id":20425923,
        "lat":38.785473,
        "long":-77.51651,
        "phone":"703 393 7770",
        "instagram":"",
        "addressnumber":"10689",
        "streetname":"Manor",
        "streetnameposttype":"Drive",
        "placename":"Manassas",
        "statename":"VA",
        "zipcode":"20109"
    },
    {
        "id":20425891,
        "lat":42.964624,
        "long":-71.449417,
        "phone":"603 232 7159",
        "instagram":"",
        "addressnumber":"655",
        "streetname":"Willow",
        "streetnameposttype":"St",
        "placename":"Manchester",
        "statename":"NH",
        "zipcode":"03103"
    },
    {
        "id":37602004,
        "lat":36.08995,
        "long":-115.176572,
        "phone":"",
        "instagram":"",
        "addressnumber":"3930",
        "streetname":"Vegas",
        "streetnameposttype":"Blvd",
        "placename":"Vegas",
        "statename":"NV",
        "zipcode":"89119"
    },
    {
        "id":20425724,
        "lat":40.717725,
        "long":-73.999883,
        "phone":"212 966 2786",
        "instagram":"",
        "addressnumber":"234",
        "streetname":"Canal",
        "streetnameposttype":"Street",
        "placename":"York",
        "statename":"NY",
        "zipcode":null
    },
    {
        "id":20425762,
        "lat":40.717145,
        "long":-73.994587,
        "phone":"646 288 4936",
        "instagram":"",
        "addressnumber":"73",
        "streetname":"Chrystie",
        "streetnameposttype":"St",
        "placename":"York",
        "statename":"NY",
        "zipcode":"10002"
    },
    {
        "id":20425761,
        "lat":40.747704,
        "long":-73.98623,
        "phone":"212-695-5888",
        "instagram":"",
        "addressnumber":"11",
        "streetname":"32nd",
        "streetnameposttype":"St",
        "placename":"York",
        "statename":"NY",
        "zipcode":"10001"
    },
    {
        "id":20425796,
        "lat":40.76387,
        "long":-73.958926,
        "phone":"917-675-6987",
        "instagram":"",
        "addressnumber":"1219",
        "streetname":"1st",
        "streetnameposttype":"Ave",
        "placename":"York",
        "statename":"NY",
        "zipcode":"10065"
    },
    {
        "id":25504625,
        "lat":37.79654,
        "long":-121.192352,
        "phone":"",
        "instagram":"",
        "addressnumber":"1448",
        "streetname":"Hulsey",
        "streetnameposttype":"Way",
        "placename":"Manteca",
        "statename":"CA",
        "zipcode":"95336"
    },
    {
        "id":23391580,
        "lat":45.09217,
        "long":-93.43868,
        "phone":"763-432-6158",
        "instagram":"",
        "addressnumber":"12483",
        "streetname":"Creek",
        "streetnameposttype":"Blvd",
        "placename":"Grove",
        "statename":"MN",
        "zipcode":"55369"
    },
    {
        "id":20425939,
        "lat":39.324614,
        "long":-84.312249,
        "phone":"",
        "instagram":"",
        "addressnumber":"7892",
        "streetname":"Mason-Montgomery",
        "streetnameposttype":"Rd",
        "placename":"Mason",
        "statename":"OH",
        "zipcode":"45040"
    },
    {
        "id":47101249,
        "lat":40.666694,
        "long":-73.454388,
        "phone":"",
        "instagram":"",
        "addressnumber":"4907B",
        "streetname":"Merrick",
        "streetnameposttype":"Road",
        "placename":"Park",
        "statename":"NY",
        "zipcode":"11762"
    },
    {
        "id":38401492,
        "lat":40.247647,
        "long":-77.006841,
        "phone":"",
        "instagram":"",
        "addressnumber":"6416",
        "streetname":"Carlisle",
        "streetnameposttype":"Pike",
        "placename":"Mechanicsburg",
        "statename":"PA",
        "zipcode":"17050"
    },
    {
        "id":42434146,
        "lat":42.332377,
        "long":-122.867462,
        "phone":"",
        "instagram":"",
        "addressnumber":"551",
        "streetname":"Medford",
        "streetnameposttype":"Center",
        "placename":"Medford",
        "statename":"OR",
        "zipcode":"97504"
    },
    {
        "id":20425903,
        "lat":39.917788,
        "long":-75.388786,
        "phone":"610 756 9888",
        "instagram":"",
        "addressnumber":"8",
        "streetname":"State",
        "streetnameposttype":"St",
        "placename":"Media",
        "statename":"PA",
        "zipcode":"19063"
    },
    {
        "id":44810401,
        "lat":35.149247,
        "long":-89.927131,
        "phone":"",
        "instagram":"",
        "addressnumber":"4000",
        "streetname":"Summer",
        "streetnameposttype":"Ave.",
        "placename":"Memphis",
        "statename":"TN",
        "zipcode":"38122"
    },
    {
        "id":46414103,
        "lat":37.33155,
        "long":-120.443011,
        "phone":"",
        "instagram":"",
        "addressnumber":"3492",
        "streetname":"McKee",
        "streetnameposttype":"Rd",
        "placename":"Merced",
        "statename":"CA",
        "zipcode":"95340"
    },
    {
        "id":20425766,
        "lat":41.429916,
        "long":-74.423145,
        "phone":"845-467-4811",
        "instagram":"",
        "addressnumber":"125",
        "streetname":"Dolson",
        "streetnameposttype":"Avenue",
        "placename":"Middletown",
        "statename":"NY",
        "zipcode":"10940"
    },
    {
        "id":31315736,
        "lat":32.002217,
        "long":-102.118868,
        "phone":"432-218-7747",
        "instagram":"",
        "addressnumber":"1220",
        "streetname":"Midkiff",
        "streetnameposttype":"Rd",
        "placename":"Midland",
        "statename":"TX",
        "zipcode":"79701"
    },
    {
        "id":20425912,
        "lat":29.742903,
        "long":-95.379838,
        "phone":"832 573 8811",
        "instagram":"",
        "addressnumber":"3201",
        "streetname":"Louisiana",
        "streetnameposttype":"St",
        "placename":"Houston",
        "statename":"TX",
        "zipcode":"77006"
    },
    {
        "id":20425756,
        "lat":29.744118,
        "long":-95.392961,
        "phone":"281-888-3818",
        "instagram":"",
        "addressnumber":"3224",
        "streetname":"Yoakum",
        "streetnameposttype":"Blvd",
        "placename":"Houston",
        "statename":"TX",
        "zipcode":"77006"
    },
    {
        "id":37759105,
        "lat":40.751692,
        "long":-73.98471,
        "phone":"917-388-3021",
        "instagram":"",
        "addressnumber":"42",
        "streetname":"38th",
        "streetnameposttype":"Street",
        "placename":"York",
        "statename":"NY",
        "zipcode":"10018"
    },
    {
        "id":26812455,
        "lat":29.351331,
        "long":-98.456969,
        "phone":"",
        "instagram":"",
        "addressnumber":"2314",
        "streetname":"Military",
        "streetnameposttype":"Dr.",
        "placename":"Antonio",
        "statename":"TX",
        "zipcode":"78213"
    },
    {
        "id":20425829,
        "lat":40.72368,
        "long":-74.30688,
        "phone":"973 467 8833",
        "instagram":"",
        "addressnumber":"315C",
        "streetname":"Millburn",
        "streetnameposttype":"Ave",
        "placename":"Millburn",
        "statename":"NJ",
        "zipcode":"07041."
    },
    {
        "id":23391578,
        "lat":44.956194,
        "long":-93.278398,
        "phone":"612 870 4700",
        "instagram":"",
        "addressnumber":"2532",
        "streetname":"Nicollet",
        "streetnameposttype":"Ave.",
        "placename":"Minneapolis",
        "statename":"MN",
        "zipcode":"55404"
    },
    {
        "id":37398311,
        "lat":41.694938,
        "long":-86.189655,
        "phone":"",
        "instagram":"",
        "addressnumber":"620",
        "streetname":"Edison",
        "streetnameposttype":"Road",
        "placename":"Mishawaka",
        "statename":"IN",
        "zipcode":"46545"
    },
    {
        "id":48429887,
        "lat":29.533922,
        "long":-95.538016,
        "phone":"",
        "instagram":"",
        "addressnumber":"5822",
        "streetname":"Sienna",
        "streetnameposttype":"Pkwy",
        "placename":"City",
        "statename":"TX",
        "zipcode":"77459"
    },
    {
        "id":20425884,
        "lat":37.688314,
        "long":-120.993123,
        "phone":"209-408-0594",
        "instagram":"",
        "addressnumber":"3440",
        "streetname":"Mchenry",
        "streetnameposttype":"Ave",
        "placename":"Modesto",
        "statename":null,
        "zipcode":"95350"
    },
    {
        "id":20425883,
        "lat":40.812376,
        "long":-74.215573,
        "phone":"973 744 1647",
        "instagram":"",
        "addressnumber":"375",
        "streetname":"Bloomfield",
        "streetnameposttype":"Ave",
        "placename":"Montclair",
        "statename":"NJ",
        "zipcode":"07042"
    },
    {
        "id":37557800,
        "lat":32.339886,
        "long":-86.193263,
        "phone":"",
        "instagram":"",
        "addressnumber":"2775",
        "streetname":"Bell",
        "streetnameposttype":"Road",
        "placename":"Montgomery",
        "statename":"AL",
        "zipcode":"36117"
    },
    {
        "id":20425910,
        "lat":40.361021,
        "long":-74.304955,
        "phone":"",
        "instagram":"",
        "addressnumber":"12",
        "streetname":"9",
        "streetnameposttype":null,
        "placename":"Morganville",
        "statename":"NJ",
        "zipcode":"07751"
    },
    {
        "id":32798079,
        "lat":35.8432,
        "long":-86.44095,
        "phone":"",
        "instagram":"",
        "addressnumber":"2441",
        "streetname":"Fort",
        "streetnameposttype":"Parkway",
        "placename":"Murfreesboro",
        "statename":"TN",
        "zipcode":"37128"
    },
    {
        "id":20425824,
        "lat":33.011393,
        "long":-96.610468,
        "phone":"972 422 1780",
        "instagram":"",
        "addressnumber":"160",
        "streetname":"544",
        "streetnameposttype":null,
        "placename":"Murphy",
        "statename":"TX",
        "zipcode":"75094"
    },
    {
        "id":40821850,
        "lat":33.759844,
        "long":-78.855732,
        "phone":"",
        "instagram":"",
        "addressnumber":"201-A",
        "streetname":"Fresh",
        "streetnameposttype":"Drive",
        "placename":"Beach",
        "statename":"SC",
        "zipcode":"29579"
    },
    {
        "id":42584097,
        "lat":28.564371,
        "long":-81.365336,
        "phone":"407-286-2000",
        "instagram":"",
        "addressnumber":"1430",
        "streetname":"Mills",
        "streetnameposttype":"Ave",
        "placename":"Orlando",
        "statename":"FL",
        "zipcode":"32803"
    },
    {
        "id":40622250,
        "lat":41.708964,
        "long":-88.204093,
        "phone":"",
        "instagram":"",
        "addressnumber":"3108",
        "streetname":"59",
        "streetnameposttype":null,
        "placename":"Naperville",
        "statename":"IL",
        "zipcode":"60564"
    },
    {
        "id":20425945,
        "lat":42.792604,
        "long":-71.522314,
        "phone":"603 521 8268",
        "instagram":"",
        "addressnumber":"493",
        "streetname":"Amherst",
        "streetnameposttype":"St",
        "placename":"Nashua",
        "statename":"NH",
        "zipcode":"03063"
    },
    {
        "id":20425851,
        "lat":42.299273,
        "long":-71.385049,
        "phone":"508 433 6898",
        "instagram":"",
        "addressnumber":"1245",
        "streetname":"Worcester",
        "streetnameposttype":"St",
        "placename":"Natick",
        "statename":"MA",
        "zipcode":"01760"
    },
    {
        "id":26121152,
        "lat":32.676961,
        "long":-117.088724,
        "phone":"",
        "instagram":"",
        "addressnumber":"1615",
        "streetname":"Plaza",
        "streetnameposttype":"Blvd",
        "placename":"City",
        "statename":"CA",
        "zipcode":"91950"
    },
    {
        "id":20425934,
        "lat":29.953224,
        "long":-93.987542,
        "phone":"409 519 8044",
        "instagram":"",
        "addressnumber":"2828",
        "streetname":"Suite",
        "streetnameposttype":null,
        "placename":"Nederland",
        "statename":"TX",
        "zipcode":"77627"
    },
    {
        "id":20425919,
        "lat":30.131162,
        "long":-95.235109,
        "phone":"832 432 5030",
        "instagram":"",
        "addressnumber":"22118",
        "streetname":"Place",
        "streetnameposttype":"Dr",
        "placename":"Caney",
        "statename":"TX",
        "zipcode":"77357"
    },
    {
        "id":46551931,
        "lat":41.304545,
        "long":-72.926773,
        "phone":"",
        "instagram":"",
        "addressnumber":"37",
        "streetname":"Church",
        "streetnameposttype":"St",
        "placename":"Haven",
        "statename":"CT",
        "zipcode":"06510"
    },
    {
        "id":20425861,
        "lat":40.753435,
        "long":-73.65711,
        "phone":"516 780 0555",
        "instagram":"",
        "addressnumber":"434",
        "streetname":"Hillside",
        "streetnameposttype":"Ave",
        "placename":"Park",
        "statename":"NY",
        "zipcode":"11596"
    },
    {
        "id":20425800,
        "lat":30.013636,
        "long":-90.157352,
        "phone":"504 900 1717 ",
        "instagram":"",
        "addressnumber":"3348",
        "streetname":"Esplanade",
        "streetnameposttype":"Ave",
        "placename":"Metairie",
        "statename":"LA",
        "zipcode":"70002"
    },
    {
        "id":42836149,
        "lat":40.92167,
        "long":-73.78768,
        "phone":"914-740-3768",
        "instagram":"",
        "addressnumber":"579",
        "streetname":"North",
        "streetnameposttype":"Avenue",
        "placename":"Rochelle",
        "statename":"NY",
        "zipcode":"10801"
    },
    {
        "id":20425767,
        "lat":40.759362,
        "long":-73.829094,
        "phone":"718-321-2886",
        "instagram":"",
        "addressnumber":"136-20",
        "streetname":"Roosevelt",
        "streetnameposttype":"Ave",
        "placename":"Flushing",
        "statename":"NY",
        "zipcode":"11354"
    },
    {
        "id":20547684,
        "lat":39.934692,
        "long":-75.155234,
        "phone":"215 271 9888",
        "instagram":"",
        "addressnumber":"600",
        "streetname":"Washington",
        "streetnameposttype":"Ave",
        "placename":"Philadelphia",
        "statename":"PA",
        "zipcode":"19147"
    },
    {
        "id":33208356,
        "lat":40.74004,
        "long":-74.17159,
        "phone":"",
        "instagram":"",
        "addressnumber":"73",
        "streetname":"Halsey",
        "streetnameposttype":"Street",
        "placename":"Newark",
        "statename":"NJ",
        "zipcode":"07102"
    },
    {
        "id":26587950,
        "lat":39.683218,
        "long":-75.749547,
        "phone":"",
        "instagram":"",
        "addressnumber":"93",
        "streetname":"Main",
        "streetnameposttype":"St",
        "placename":"Newark",
        "statename":"DE",
        "zipcode":"19711"
    },
    {
        "id":20425879,
        "lat":37.069848,
        "long":-76.494916,
        "phone":"757 223 1968",
        "instagram":"",
        "addressnumber":"21",
        "streetname":"Shopping",
        "streetnameposttype":"Center",
        "placename":"News",
        "statename":"VA",
        "zipcode":"23606"
    },
    {
        "id":20425880,
        "lat":36.869692,
        "long":-76.293339,
        "phone":"757 226 8797",
        "instagram":"",
        "addressnumber":"520-H",
        "streetname":"21st",
        "streetnameposttype":"St",
        "placename":"Norfolk",
        "statename":"VA",
        "zipcode":"23517"
    },
    {
        "id":20425951,
        "lat":40.145724,
        "long":-75.318202,
        "phone":"",
        "instagram":"",
        "addressnumber":"2907",
        "streetname":"Swede",
        "streetnameposttype":"Rd",
        "placename":"Norristown",
        "statename":"PA",
        "zipcode":"19401"
    },
    {
        "id":20425852,
        "lat":39.049838,
        "long":-77.115372,
        "phone":"240 669 7099",
        "instagram":"",
        "addressnumber":"11802",
        "streetname":"Rockville",
        "streetnameposttype":"Pike",
        "placename":"Bethesda",
        "statename":"MD",
        "zipcode":"20852"
    },
    {
        "id":46214737,
        "lat":41.462308,
        "long":-74.370491,
        "phone":"",
        "instagram":"",
        "addressnumber":"400-600",
        "streetname":"Galleria",
        "streetnameposttype":"Dr",
        "placename":"Middletown",
        "statename":"NY",
        "zipcode":"10941"
    },
    {
        "id":47655765,
        "lat":25.9118,
        "long":-80.15701,
        "phone":"",
        "instagram":"",
        "addressnumber":"14701",
        "streetname":"Biscayne",
        "streetnameposttype":"Blvd",
        "placename":"Miami",
        "statename":"FL",
        "zipcode":"33181"
    },
    {
        "id":23486592,
        "lat":40.225357,
        "long":-75.254331,
        "phone":"267 421 5820",
        "instagram":"",
        "addressnumber":"1222",
        "streetname":"Welsh",
        "streetnameposttype":"Rd",
        "placename":"Wales",
        "statename":"PA",
        "zipcode":"19454"
    },
    {
        "id":40868347,
        "lat":41.011647,
        "long":-73.945946,
        "phone":"",
        "instagram":"",
        "addressnumber":"244",
        "streetname":"Livingston",
        "streetnameposttype":"Street",
        "placename":"Northvale",
        "statename":"NJ",
        "zipcode":"07647"
    },
    {
        "id":20425768,
        "lat":29.995286,
        "long":-95.481771,
        "phone":"832 666 7181",
        "instagram":"",
        "addressnumber":"3645",
        "streetname":"1960",
        "streetnameposttype":null,
        "placename":"Houston",
        "statename":"TX",
        "zipcode":"77068."
    },
    {
        "id":42335654,
        "lat":29.607879,
        "long":-98.468843,
        "phone":"",
        "instagram":"",
        "addressnumber":"18130",
        "streetname":"Pedro",
        "streetnameposttype":"Ave",
        "placename":"Antonio",
        "statename":"TX",
        "zipcode":"78232"
    },
    {
        "id":20425911,
        "lat":42.491918,
        "long":-83.484656,
        "phone":"248 344 7885",
        "instagram":"",
        "addressnumber":"44325",
        "streetname":"Mile",
        "streetnameposttype":null,
        "placename":"Novi",
        "statename":"MI",
        "zipcode":"48377"
    },
    {
        "id":20425769,
        "lat":40.730587,
        "long":-73.995178,
        "phone":"212-677-4517",
        "instagram":"",
        "addressnumber":"31",
        "streetname":"Waverly",
        "streetnameposttype":"Place",
        "placename":"York",
        "statename":"NY",
        "zipcode":"10003"
    },
    {
        "id":43652810,
        "lat":37.654323,
        "long":-120.958505,
        "phone":"",
        "instagram":"",
        "addressnumber":"801",
        "streetname":"Oakdale",
        "streetnameposttype":"Road",
        "placename":"Modesto",
        "statename":"CA",
        "zipcode":"95355"
    },
    {
        "id":38333724,
        "lat":39.151118,
        "long":-77.064225,
        "phone":"",
        "instagram":"",
        "addressnumber":"3128",
        "streetname":"Spring",
        "streetnameposttype":"Road",
        "placename":"Olney",
        "statename":"MD",
        "zipcode":"20832"
    },
    {
        "id":20425871,
        "lat":41.229752,
        "long":-96.022622,
        "phone":"402 208 7308",
        "instagram":"",
        "addressnumber":"1110",
        "streetname":"71st",
        "streetnameposttype":"St",
        "placename":"Omaha",
        "statename":"NE",
        "zipcode":"68106"
    },
    {
        "id":29156890,
        "lat":34.032917,
        "long":-117.668319,
        "phone":"909-295-9808",
        "instagram":"",
        "addressnumber":"2211",
        "streetname":"Mountain",
        "streetnameposttype":"Avenue",
        "placename":"Ontario",
        "statename":"CA",
        "zipcode":"91762"
    },
    {
        "id":20425771,
        "lat":28.596561,
        "long":-81.210851,
        "phone":"407-286-2055",
        "instagram":"",
        "addressnumber":"12098",
        "streetname":"Collegiate",
        "streetnameposttype":"Way",
        "placename":"Orlando",
        "statename":"FL",
        "zipcode":"32817"
    },
    {
        "id":45402888,
        "lat":28.55333,
        "long":-81.48566,
        "phone":"",
        "instagram":"",
        "addressnumber":"7501",
        "streetname":"COLONIAL",
        "streetnameposttype":"Dr.",
        "placename":"Fl.",
        "statename":"US",
        "zipcode":"32818"
    },
    {
        "id":20425922,
        "lat":39.406101,
        "long":-76.781169,
        "phone":"410 413 1340",
        "instagram":"",
        "addressnumber":"10209",
        "streetname":"Central",
        "streetnameposttype":"Ave",
        "placename":"Mills",
        "statename":"MD",
        "zipcode":"21117"
    },
    {
        "id":20425868,
        "lat":42.352214,
        "long":-71.125368,
        "phone":"617 987 0213",
        "instagram":"",
        "addressnumber":"1",
        "streetname":"Brighton",
        "streetnameposttype":"Ave",
        "placename":"Allston",
        "statename":"MA",
        "zipcode":"02134"
    },
    {
        "id":20425772,
        "lat":41.099744,
        "long":-73.957817,
        "phone":"914-263-0228 ",
        "instagram":"",
        "addressnumber":"1000",
        "streetname":"Center",
        "streetnameposttype":"Drive",
        "placename":"Nyack",
        "statename":"NY",
        "zipcode":"10994"
    },
    {
        "id":44449221,
        "lat":38.929964,
        "long":-77.106493,
        "phone":"",
        "instagram":"",
        "addressnumber":"5439",
        "streetname":"MacArthur",
        "streetnameposttype":"Blvd",
        "placename":"Washington",
        "statename":"DC",
        "zipcode":"20016"
    },
    {
        "id":37336135,
        "lat":34.574106,
        "long":-118.043036,
        "phone":"",
        "instagram":"",
        "addressnumber":"38050",
        "streetname":"47th",
        "streetnameposttype":"Street",
        "placename":"Palmdale",
        "statename":"CA",
        "zipcode":"93552"
    },
    {
        "id":20425954,
        "lat":37.446279,
        "long":-122.161202,
        "phone":"650-391-9299",
        "instagram":"",
        "addressnumber":"318",
        "streetname":"University",
        "streetnameposttype":"Ave",
        "placename":"Alto",
        "statename":"CA",
        "zipcode":"94301"
    },
    {
        "id":48325557,
        "lat":39.526574,
        "long":-104.766392,
        "phone":"",
        "instagram":"",
        "addressnumber":"11153",
        "streetname":"Parker",
        "streetnameposttype":"Rd",
        "placename":"Parker",
        "statename":"CO",
        "zipcode":"80134"
    },
    {
        "id":41884804,
        "lat":39.123782,
        "long":-76.583944,
        "phone":"",
        "instagram":"",
        "addressnumber":"8155",
        "streetname":"Ritchie",
        "streetnameposttype":"Highway",
        "placename":"Pasadena",
        "statename":"MD",
        "zipcode":"21122"
    },
    {
        "id":20425773,
        "lat":29.555664,
        "long":-95.393496,
        "phone":"346-207-7877\/346-207-7872",
        "instagram":"",
        "addressnumber":"11200",
        "streetname":"Broadway",
        "streetnameposttype":"Street",
        "placename":"Pearland",
        "statename":"TX",
        "zipcode":"77584"
    },
    {
        "id":20425927,
        "lat":40.003293,
        "long":-75.221961,
        "phone":"215 921 9082",
        "instagram":"",
        "addressnumber":"4500",
        "streetname":"City",
        "streetnameposttype":"Ave",
        "placename":"Philadelphia",
        "statename":"PA",
        "zipcode":"19131"
    },
    {
        "id":20425774,
        "lat":39.953593,
        "long":-75.156834,
        "phone":"267-758-2871",
        "instagram":"",
        "addressnumber":"1006",
        "streetname":"Arch",
        "streetnameposttype":"St",
        "placename":"Philadelphia",
        "statename":"PA",
        "zipcode":"19107"
    },
    {
        "id":47415887,
        "lat":40.133617,
        "long":-75.517616,
        "phone":"",
        "instagram":"",
        "addressnumber":"238",
        "streetname":"Bridge",
        "streetnameposttype":"Street",
        "placename":"Phoenixville",
        "statename":"PA",
        "zipcode":"19460"
    },
    {
        "id":20425875,
        "lat":27.841949,
        "long":-82.700802,
        "phone":"727 498 7004",
        "instagram":"",
        "addressnumber":"7688",
        "streetname":"49th",
        "streetnameposttype":"St.",
        "placename":"Park",
        "statename":"FL",
        "zipcode":"33781"
    },
    {
        "id":20589691,
        "lat":40.433464,
        "long":-79.922966,
        "phone":"412 904 4332",
        "instagram":"",
        "addressnumber":"2109",
        "streetname":"Murray",
        "streetnameposttype":"Ave",
        "placename":"Pittsburgh",
        "statename":"PA",
        "zipcode":"15217"
    },
    {
        "id":20425921,
        "lat":40.43851,
        "long":-79.99734,
        "phone":"",
        "instagram":"",
        "addressnumber":null,
        "streetname":null,
        "streetnameposttype":null,
        "placename":"Pittsburgh",
        "statename":"PA",
        "zipcode":null
    },
    {
        "id":23264522,
        "lat":39.716411,
        "long":-86.353824,
        "phone":"(317) 707-7020",
        "instagram":"",
        "addressnumber":"2683",
        "streetname":"Main",
        "streetnameposttype":"St",
        "placename":"Plainfield",
        "statename":"IN",
        "zipcode":"46168"
    },
    {
        "id":26833510,
        "lat":40.336689,
        "long":-74.594331,
        "phone":"",
        "instagram":"",
        "addressnumber":"10",
        "streetname":"Crossing",
        "streetnameposttype":"Rd",
        "placename":"Township",
        "statename":"NJ",
        "zipcode":"08536"
    },
    {
        "id":34270172,
        "lat":39.393227,
        "long":-74.536632,
        "phone":"",
        "instagram":"",
        "addressnumber":"700",
        "streetname":"Horse",
        "streetnameposttype":"Pike",
        "placename":"Pleasantville",
        "statename":"NJ",
        "zipcode":"08232"
    },
    {
        "id":32148787,
        "lat":27.01742,
        "long":-82.05547,
        "phone":"(941) 249-4803",
        "instagram":"",
        "addressnumber":"24123",
        "streetname":"Peachland",
        "streetnameposttype":"Boulevard",
        "placename":"Charlotte",
        "statename":"FL",
        "zipcode":"33954"
    },
    {
        "id":20425917,
        "lat":45.517766,
        "long":-122.678091,
        "phone":"503 222 6988",
        "instagram":"",
        "addressnumber":"700",
        "streetname":"5th",
        "streetnameposttype":"Ave.",
        "placename":"Portland",
        "statename":"OR",
        "zipcode":"97204"
    },
    {
        "id":37754094,
        "lat":43.680073,
        "long":-70.289446,
        "phone":"",
        "instagram":"",
        "addressnumber":"948",
        "streetname":"Forest",
        "streetnameposttype":"Ave",
        "placename":"Portland",
        "statename":"ME",
        "zipcode":"04103"
    },
    {
        "id":34178087,
        "lat":38.552833,
        "long":-76.597251,
        "phone":"",
        "instagram":"",
        "addressnumber":"742",
        "streetname":"Frederick",
        "streetnameposttype":"Boulevard",
        "placename":"Frederick",
        "statename":"MD",
        "zipcode":"20678"
    },
    {
        "id":20425776,
        "lat":40.349675,
        "long":-74.660312,
        "phone":"609-688-0108",
        "instagram":"",
        "addressnumber":"80",
        "streetname":"Nassau",
        "streetnameposttype":"Street",
        "placename":"Princeton",
        "statename":"NJ",
        "zipcode":"08542"
    },
    {
        "id":30645787,
        "lat":33.22283,
        "long":-96.797997,
        "phone":"",
        "instagram":"",
        "addressnumber":"1151",
        "streetname":"Preston",
        "streetnameposttype":"Road",
        "placename":"Prosper",
        "statename":"TX",
        "zipcode":"75078"
    },
    {
        "id":20425777,
        "lat":41.827501,
        "long":-71.399962,
        "phone":"401-861-1888",
        "instagram":"",
        "addressnumber":"110",
        "streetname":"waterman",
        "streetnameposttype":"Street",
        "placename":"Providence",
        "statename":"RI",
        "zipcode":"02906"
    },
    {
        "id":45047388,
        "lat":38.310671,
        "long":-104.62747,
        "phone":"",
        "instagram":"",
        "addressnumber":"1565",
        "streetname":"160,",
        "streetnameposttype":null,
        "placename":"Pueblo",
        "statename":"CO",
        "zipcode":"81008"
    },
    {
        "id":38401491,
        "lat":40.290765,
        "long":-74.681731,
        "phone":"",
        "instagram":"",
        "addressnumber":"3320",
        "streetname":"US-1",
        "streetnameposttype":null,
        "placename":"Lawrenceville",
        "statename":"NJ",
        "zipcode":"08648"
    },
    {
        "id":20425778,
        "lat":40.760769,
        "long":-73.829834,
        "phone":"718-395-8297",
        "instagram":"",
        "addressnumber":"7",
        "streetname":"38th",
        "streetnameposttype":"Ave",
        "placename":"Flushing",
        "statename":"NY",
        "zipcode":"11354"
    },
    {
        "id":20425914,
        "lat":42.267824,
        "long":-71.016399,
        "phone":"617 481 0785",
        "instagram":"",
        "addressnumber":"1",
        "streetname":"Beale",
        "streetnameposttype":"St.",
        "placename":"Quincy",
        "statename":"MA",
        "zipcode":"02170"
    },
    {
        "id":20425779,
        "lat":36.293321,
        "long":-115.242358,
        "phone":"702 522 9555",
        "instagram":"",
        "addressnumber":"7345",
        "streetname":"Rainbow",
        "streetnameposttype":"Blvd",
        "placename":"Vegas",
        "statename":"NV",
        "zipcode":"89139"
    },
    {
        "id":29156889,
        "lat":35.911372,
        "long":-78.785073,
        "phone":"",
        "instagram":"",
        "addressnumber":"10251",
        "streetname":"Creek",
        "streetnameposttype":"Lane",
        "placename":"Raleigh",
        "statename":"NC",
        "zipcode":"27617"
    },
    {
        "id":20425780,
        "lat":34.107496,
        "long":-117.52718,
        "phone":"909 922 8888 ",
        "instagram":"",
        "addressnumber":"12732",
        "streetname":"Foothill",
        "streetnameposttype":"Blvd",
        "placename":"Cucamonga",
        "statename":"CA",
        "zipcode":"91739"
    },
    {
        "id":31482857,
        "lat":34.063121,
        "long":-117.181107,
        "phone":"",
        "instagram":"",
        "addressnumber":"107",
        "streetname":"Colton",
        "streetnameposttype":"Avenue",
        "placename":"Redland",
        "statename":"CA",
        "zipcode":"92374"
    },
    {
        "id":49488490,
        "lat":47.444621,
        "long":-122.197531,
        "phone":"",
        "instagram":"",
        "addressnumber":"17629",
        "streetname":"108th",
        "streetnameposttype":"Ave",
        "placename":"Renton",
        "statename":"WA",
        "zipcode":"98055"
    },
    {
        "id":20425809,
        "lat":38.93687,
        "long":-77.363159,
        "phone":"703 391 1591",
        "instagram":"",
        "addressnumber":null,
        "streetname":null,
        "streetnameposttype":null,
        "placename":"Reston",
        "statename":"VA",
        "zipcode":"20191"
    },
    {
        "id":20425781,
        "lat":32.977148,
        "long":-96.716106,
        "phone":"972-907-1578",
        "instagram":"",
        "addressnumber":"2067",
        "streetname":"Central",
        "streetnameposttype":"Expy",
        "placename":"Richardson",
        "statename":"TX",
        "zipcode":"75080"
    },
    {
        "id":20425782,
        "lat":37.551142,
        "long":-77.452796,
        "phone":" 804 254 1746",
        "instagram":"",
        "addressnumber":"946",
        "streetname":"Grace",
        "streetnameposttype":"St",
        "placename":"Richmond",
        "statename":"VA",
        "zipcode":"23220"
    },
    {
        "id":44639204,
        "lat":35.607474,
        "long":-117.671272,
        "phone":"",
        "instagram":"",
        "addressnumber":"901",
        "streetname":"Lake",
        "streetnameposttype":"Boulevard",
        "placename":"Ridgecrest",
        "statename":"CA",
        "zipcode":"93555"
    },
    {
        "id":50122393,
        "lat":35.22057,
        "long":-106.697374,
        "phone":"",
        "instagram":"",
        "addressnumber":"1912",
        "streetname":"Wellspring",
        "streetnameposttype":"Avenue",
        "placename":"Rancho",
        "statename":"NM",
        "zipcode":"87124"
    },
    {
        "id":42106218,
        "lat":37.740292,
        "long":-121.136712,
        "phone":"",
        "instagram":"",
        "addressnumber":"1201",
        "streetname":"Main",
        "streetnameposttype":"Street",
        "placename":"Ripon",
        "statename":"CA",
        "zipcode":"95366"
    },
    {
        "id":40636548,
        "lat":40.923766,
        "long":-74.034165,
        "phone":"",
        "instagram":"",
        "addressnumber":"472",
        "streetname":"Kinderkamack",
        "streetnameposttype":"Rd",
        "placename":"Edge",
        "statename":"NJ",
        "zipcode":"07661"
    },
    {
        "id":20425874,
        "lat":27.894817,
        "long":-82.318081,
        "phone":"",
        "instagram":"",
        "addressnumber":"5914",
        "streetname":"Providence",
        "streetnameposttype":"Rd",
        "placename":"View",
        "statename":"FL",
        "zipcode":"33578"
    },
    {
        "id":20425905,
        "lat":33.953604,
        "long":-117.393631,
        "phone":"951-254-9609",
        "instagram":"",
        "addressnumber":"3678",
        "streetname":"Central",
        "streetnameposttype":"Avenue",
        "placename":"Riverside",
        "statename":"CA",
        "zipcode":"92506"
    },
    {
        "id":20425857,
        "lat":43.095383,
        "long":-77.632851,
        "phone":"585 623 8788",
        "instagram":"",
        "addressnumber":"2829",
        "streetname":"Henrietta",
        "streetnameposttype":"Rd",
        "placename":"Rochester",
        "statename":"NY",
        "zipcode":"14623"
    },
    {
        "id":20425906,
        "lat":44.033445,
        "long":-92.462983,
        "phone":"507 206 6466",
        "instagram":"",
        "addressnumber":"1006",
        "streetname":"Broadway",
        "streetnameposttype":"Ave",
        "placename":"Rochester",
        "statename":"MN",
        "zipcode":"55906"
    },
    {
        "id":20425960,
        "lat":42.681797,
        "long":-83.151051,
        "phone":"248 413 5158",
        "instagram":"",
        "addressnumber":"1256",
        "streetname":"Walton",
        "streetnameposttype":"Blvd",
        "placename":"Hills",
        "statename":"MI",
        "zipcode":"48309"
    },
    {
        "id":43841413,
        "lat":42.269139,
        "long":-88.99975,
        "phone":"",
        "instagram":"",
        "addressnumber":"6915",
        "streetname":"State",
        "streetnameposttype":"St",
        "placename":"Rockford",
        "statename":"IL",
        "zipcode":"61108"
    },
    {
        "id":48704491,
        "lat":36.334091,
        "long":-94.159129,
        "phone":"",
        "instagram":"",
        "addressnumber":"2882",
        "streetname":"Walnut",
        "streetnameposttype":"St",
        "placename":"Rogers",
        "statename":"AR",
        "zipcode":"72758"
    },
    {
        "id":27172055,
        "lat":42.053952,
        "long":-87.998097,
        "phone":"",
        "instagram":"",
        "addressnumber":"1643",
        "streetname":"Algonquin",
        "streetnameposttype":"Road",
        "placename":"Meadows",
        "statename":"IL",
        "zipcode":"60008"
    },
    {
        "id":20425822,
        "lat":38.913929,
        "long":-94.672708,
        "phone":"913 283 9207",
        "instagram":"",
        "addressnumber":"7504",
        "streetname":"119th",
        "streetnameposttype":"St",
        "placename":"Park",
        "statename":"KS",
        "zipcode":"66213"
    },
    {
        "id":26121153,
        "lat":27.941106,
        "long":-82.505817,
        "phone":"",
        "instagram":"",
        "addressnumber":"401",
        "streetname":"Mabry",
        "streetnameposttype":"Hwy",
        "placename":"Tampa",
        "statename":"FL",
        "zipcode":"33609"
    },
    {
        "id":44855029,
        "lat":42.767355,
        "long":-71.225897,
        "phone":"",
        "instagram":"",
        "addressnumber":"99",
        "streetname":"Park",
        "streetnameposttype":"Blvd",
        "placename":"Salem",
        "statename":"NH",
        "zipcode":"03079"
    },
    {
        "id":20425826,
        "lat":40.75898,
        "long":-111.874472,
        "phone":"801 364 4558",
        "instagram":"",
        "addressnumber":"464",
        "streetname":"600",
        "streetnameposttype":null,
        "placename":"City",
        "statename":"UT",
        "zipcode":"84102"
    },
    {
        "id":20425838,
        "lat":29.588777,
        "long":-98.630586,
        "phone":"210 239 5333",
        "instagram":"",
        "addressnumber":"7211",
        "streetname":"Glen",
        "streetnameposttype":"Drive",
        "placename":"Antonio",
        "statename":"TX",
        "zipcode":"78255"
    },
    {
        "id":20425784,
        "lat":32.830082,
        "long":-117.153213,
        "phone":"858-384-6497",
        "instagram":"",
        "addressnumber":"4869",
        "streetname":"Convoy",
        "streetnameposttype":"St",
        "placename":"Diego",
        "statename":"CA",
        "zipcode":"92111"
    },
    {
        "id":20425942,
        "lat":32.978659,
        "long":-117.083792,
        "phone":"858-524-6443 ",
        "instagram":"",
        "addressnumber":"11491",
        "streetname":"Mountain",
        "streetnameposttype":"Rd",
        "placename":"Diego",
        "statename":"CA",
        "zipcode":"92128"
    },
    {
        "id":20425885,
        "lat":37.31895,
        "long":-121.973616,
        "phone":"408 477 2688",
        "instagram":"",
        "addressnumber":"457",
        "streetname":"Saratoga",
        "streetnameposttype":"Ave",
        "placename":"Jose",
        "statename":"CA",
        "zipcode":"95129"
    },
    {
        "id":20425915,
        "lat":33.134512,
        "long":-117.180835,
        "phone":"760 798 0882",
        "instagram":"",
        "addressnumber":"14",
        "streetname":"Creekside",
        "streetnameposttype":"Drive",
        "placename":"Marcos",
        "statename":"CA",
        "zipcode":"92078"
    },
    {
        "id":20425813,
        "lat":32.838273,
        "long":-116.990087,
        "phone":"619-312-0880",
        "instagram":"",
        "addressnumber":"9535",
        "streetname":"Gorge",
        "streetnameposttype":"Rd",
        "placename":"Santee",
        "statename":"CA",
        "zipcode":"92071"
    },
    {
        "id":20425876,
        "lat":27.390513,
        "long":-82.507823,
        "phone":"",
        "instagram":"",
        "addressnumber":"8404",
        "streetname":"Ridge",
        "streetnameposttype":"Rd",
        "placename":"Sarasota",
        "statename":"FL",
        "zipcode":"34243"
    },
    {
        "id":20425956,
        "lat":32.079825,
        "long":-81.094352,
        "phone":"912 388 2882",
        "instagram":"",
        "addressnumber":"206",
        "streetname":"Broughton",
        "streetnameposttype":"St",
        "placename":"Savannah",
        "statename":"GA",
        "zipcode":"31401"
    },
    {
        "id":20425925,
        "lat":37.646555,
        "long":-77.582287,
        "phone":"804 303 4250",
        "instagram":"",
        "addressnumber":"10827",
        "streetname":"Broad",
        "streetnameposttype":"St",
        "placename":"Henrico",
        "statename":"VA",
        "zipcode":"23233"
    },
    {
        "id":44114682,
        "lat":42.516088,
        "long":-96.41731,
        "phone":"",
        "instagram":"",
        "addressnumber":"324",
        "streetname":"25th,",
        "streetnameposttype":null,
        "placename":"City",
        "statename":"IA",
        "zipcode":"51104"
    },
    {
        "id":40678513,
        "lat":33.874643,
        "long":-84.016609,
        "phone":"470-246-5806",
        "instagram":"",
        "addressnumber":"1905",
        "streetname":"Scenic",
        "streetnameposttype":"Highway",
        "placename":"Snellville",
        "statename":"GA",
        "zipcode":"30078"
    },
    {
        "id":28834367,
        "lat":38.936228,
        "long":-77.519925,
        "phone":"",
        "instagram":"",
        "addressnumber":"24630",
        "streetname":"Landing",
        "streetnameposttype":"Drive",
        "placename":"Sterling",
        "statename":"VA",
        "zipcode":"20166"
    },
    {
        "id":20425830,
        "lat":42.220092,
        "long":-71.022662,
        "phone":"781 848 1988",
        "instagram":"",
        "addressnumber":"250",
        "streetname":"Granite",
        "streetnameposttype":"Street",
        "placename":"Braintree",
        "statename":"MA",
        "zipcode":"02184"
    },
    {
        "id":41802166,
        "lat":41.809935,
        "long":-72.557568,
        "phone":"",
        "instagram":"",
        "addressnumber":"87",
        "streetname":"Evergreen",
        "streetnameposttype":"Way",
        "placename":"Windsor",
        "statename":"CT",
        "zipcode":"06074"
    },
    {
        "id":38699113,
        "lat":32.940149,
        "long":-97.119118,
        "phone":"682-477-4224",
        "instagram":"",
        "addressnumber":"2175",
        "streetname":"Southlake",
        "streetnameposttype":"Boulevard",
        "placename":"Southlake",
        "statename":"TX",
        "zipcode":"76092"
    },
    {
        "id":20425786,
        "lat":38.773146,
        "long":-77.184637,
        "phone":"703 663 8661",
        "instagram":"",
        "addressnumber":null,
        "streetname":null,
        "streetnameposttype":null,
        "placename":"Springfield",
        "statename":"VA",
        "zipcode":"22150"
    },
    {
        "id":20571986,
        "lat":27.72154,
        "long":-82.679367,
        "phone":"727 800 9998",
        "instagram":"",
        "addressnumber":"5085",
        "streetname":"34th",
        "streetnameposttype":"St",
        "placename":"Petersburg",
        "statename":"FL",
        "zipcode":"33771"
    },
    {
        "id":20425929,
        "lat":38.655979,
        "long":-90.305424,
        "phone":"314 256 1395",
        "instagram":"",
        "addressnumber":"6600",
        "streetname":"Delmar",
        "streetnameposttype":"Blvd",
        "placename":"Louis",
        "statename":"MO",
        "zipcode":"63130"
    },
    {
        "id":20425787,
        "lat":44.973903,
        "long":-93.224832,
        "phone":"612-379-8886",
        "instagram":"",
        "addressnumber":"923",
        "streetname":"Washington",
        "streetnameposttype":"Ave.",
        "placename":"Minneapolis",
        "statename":"MN",
        "zipcode":"55414"
    },
    {
        "id":26587910,
        "lat":38.471044,
        "long":-77.412119,
        "phone":"",
        "instagram":"",
        "addressnumber":"1475",
        "streetname":"Market",
        "streetnameposttype":"Place",
        "placename":"Stafford",
        "statename":"VA",
        "zipcode":"22556"
    },
    {
        "id":20425832,
        "lat":39.015881,
        "long":-77.377455,
        "phone":" 703 444 4686",
        "instagram":"",
        "addressnumber":"46950",
        "streetname":"Community",
        "streetnameposttype":"Plaza",
        "placename":"Sterling",
        "statename":"VA",
        "zipcode":"20164"
    },
    {
        "id":20425858,
        "lat":42.54944,
        "long":-83.086487,
        "phone":"586 999 5928",
        "instagram":"",
        "addressnumber":"2105",
        "streetname":"Mile",
        "streetnameposttype":"Rd",
        "placename":"Heights",
        "statename":"MI",
        "zipcode":"48310"
    },
    {
        "id":20425952,
        "lat":37.990588,
        "long":-121.31256,
        "phone":"209 475 8872",
        "instagram":"",
        "addressnumber":"4663",
        "streetname":"Pacific",
        "streetnameposttype":"Ave",
        "placename":"Stockton",
        "statename":"CA",
        "zipcode":"95207"
    },
    {
        "id":20425807,
        "lat":33.098235,
        "long":-96.805914,
        "phone":"972 624 6606",
        "instagram":"",
        "addressnumber":"2601",
        "streetname":"Preston",
        "streetnameposttype":"Road",
        "placename":"Frisco",
        "statename":"TX",
        "zipcode":"75034"
    },
    {
        "id":20425837,
        "lat":40.922518,
        "long":-73.127433,
        "phone":"631 751 1843",
        "instagram":"",
        "addressnumber":"1009",
        "streetname":"Country",
        "streetnameposttype":"Road",
        "placename":"Brook",
        "statename":"NY",
        "zipcode":"11790"
    },
    {
        "id":20425930,
        "lat":29.584977,
        "long":-95.648091,
        "phone":"281 240 0177",
        "instagram":"",
        "addressnumber":"13509",
        "streetname":"University",
        "streetnameposttype":"Blvd",
        "placename":"Land",
        "statename":"TX",
        "zipcode":"77479"
    },
    {
        "id":32191323,
        "lat":40.71742,
        "long":-74.35636,
        "phone":"",
        "instagram":"",
        "addressnumber":"88",
        "streetname":"Summit",
        "streetnameposttype":"Avenue",
        "placename":"Summit",
        "statename":"NJ",
        "zipcode":"07901"
    },
    {
        "id":46812552,
        "lat":40.636189,
        "long":-74.012626,
        "phone":"",
        "instagram":"",
        "addressnumber":"6104",
        "streetname":"7th",
        "streetnameposttype":"Ave",
        "placename":"Brooklyn",
        "statename":"NY",
        "zipcode":"11220"
    },
    {
        "id":20425899,
        "lat":34.005021,
        "long":-84.085896,
        "phone":"678 373 1693",
        "instagram":"",
        "addressnumber":"1291",
        "streetname":"Peachtree",
        "streetnameposttype":"Rd",
        "placename":"Suwanee",
        "statename":"GA",
        "zipcode":"30024"
    },
    {
        "id":20425789,
        "lat":42.342594,
        "long":-71.084173,
        "phone":"617-936-3608",
        "instagram":"",
        "addressnumber":"334",
        "streetname":"Massachusetts",
        "streetnameposttype":"Ave",
        "placename":"Boston",
        "statename":"MA",
        "zipcode":"02115"
    },
    {
        "id":41248499,
        "lat":40.809892,
        "long":-73.500623,
        "phone":"",
        "instagram":"",
        "addressnumber":"408",
        "streetname":"Jericho",
        "streetnameposttype":"Turnpike",
        "placename":"Syosset",
        "statename":"NY",
        "zipcode":"11791"
    },
    {
        "id":29966813,
        "lat":33.521772,
        "long":-117.158581,
        "phone":"",
        "instagram":"",
        "addressnumber":"26487",
        "streetname":"Ynez",
        "streetnameposttype":"Road",
        "placename":"Temecula",
        "statename":"CA",
        "zipcode":"92591"
    },
    {
        "id":41382519,
        "lat":29.395478,
        "long":-94.94885,
        "phone":"",
        "instagram":"",
        "addressnumber":"3510",
        "streetname":"Palmer",
        "streetnameposttype":"Hwy",
        "placename":"City",
        "statename":"TX",
        "zipcode":"77590"
    },
    {
        "id":20425908,
        "lat":33.889544,
        "long":-84.469903,
        "phone":"(404) 913-3079",
        "instagram":"",
        "addressnumber":"925",
        "streetname":"Battery",
        "streetnameposttype":"Ave",
        "placename":"Atlanta",
        "statename":"GA",
        "zipcode":"30339"
    },
    {
        "id":20425948,
        "lat":30.206915,
        "long":-95.464359,
        "phone":"936 242 1552",
        "instagram":"",
        "addressnumber":"3091",
        "streetname":"Park",
        "streetnameposttype":"Dr",
        "placename":"Woodlands",
        "statename":"TX",
        "zipcode":"77384"
    },
    {
        "id":33540570,
        "lat":39.91876,
        "long":-104.98512,
        "phone":"",
        "instagram":"",
        "addressnumber":"13571",
        "streetname":"Grant",
        "streetnameposttype":"Street",
        "placename":"Denver",
        "statename":"CO",
        "zipcode":"80241"
    },
    {
        "id":28398003,
        "lat":41.691884,
        "long":-83.643941,
        "phone":"419 472 2622 ",
        "instagram":"",
        "addressnumber":"4038",
        "streetname":"Talmadge",
        "streetnameposttype":"Road",
        "placename":"Toledo",
        "statename":"OH",
        "zipcode":"43623"
    },
    {
        "id":20425793,
        "lat":39.400729,
        "long":-76.602062,
        "phone":"443 991 5840",
        "instagram":"",
        "addressnumber":"508",
        "streetname":"York",
        "streetnameposttype":"Rd",
        "placename":"Towson",
        "statename":"MD",
        "zipcode":"21204"
    },
    {
        "id":46354661,
        "lat":37.724688,
        "long":-121.435409,
        "phone":"",
        "instagram":"",
        "addressnumber":"785",
        "streetname":"Tracy",
        "streetnameposttype":"Blvd",
        "placename":"Tracy",
        "statename":"CA",
        "zipcode":"95376"
    },
    {
        "id":20425944,
        "lat":36.076833,
        "long":-95.922334,
        "phone":"918 561 6057",
        "instagram":"",
        "addressnumber":"5956",
        "streetname":"Yale",
        "streetnameposttype":"Ave",
        "placename":"Tulsa",
        "statename":"OK",
        "zipcode":"74135"
    },
    {
        "id":23709539,
        "lat":37.521236,
        "long":-120.874117,
        "phone":"209 427 2212",
        "instagram":"",
        "addressnumber":"2220",
        "streetname":"Vista",
        "streetnameposttype":"Ave",
        "placename":"Turlock",
        "statename":"CA",
        "zipcode":"95382"
    },
    {
        "id":40046571,
        "lat":39.727152,
        "long":-75.033206,
        "phone":"",
        "instagram":"",
        "addressnumber":"3501",
        "streetname":"42,",
        "streetnameposttype":null,
        "placename":"Turnersville",
        "statename":"NY",
        "zipcode":"08012-1752"
    },
    {
        "id":40845898,
        "lat":32.277537,
        "long":-95.307169,
        "phone":"",
        "instagram":"",
        "addressnumber":"6611",
        "streetname":"Broadway",
        "streetnameposttype":"Ave",
        "placename":"Tyler",
        "statename":"TX",
        "zipcode":"75703"
    },
    {
        "id":20425794,
        "lat":38.919723,
        "long":-77.225986,
        "phone":"571 918 9788",
        "instagram":"",
        "addressnumber":"1961",
        "streetname":"Bridge",
        "streetnameposttype":"Rd",
        "placename":"Mclean",
        "statename":"VA",
        "zipcode":"22102"
    },
    {
        "id":20425889,
        "lat":38.91984,
        "long":-77.225157,
        "phone":"571 492 9688",
        "instagram":"",
        "addressnumber":"1961",
        "streetname":"Bridge",
        "streetnameposttype":"Rd",
        "placename":"Mclean",
        "statename":"VA",
        "zipcode":"22102"
    },
    {
        "id":20425814,
        "lat":40.7039,
        "long":-74.26242,
        "phone":"908 851 4830",
        "instagram":"",
        "addressnumber":"1047",
        "streetname":"Stuyvesant",
        "streetnameposttype":"Ave",
        "placename":"Union",
        "statename":"NJ",
        "zipcode":"07083"
    },
    {
        "id":48969693,
        "lat":40.782234,
        "long":-74.020988,
        "phone":"",
        "instagram":"",
        "addressnumber":"4900",
        "streetname":"Bergenline",
        "streetnameposttype":"Ave",
        "placename":"City",
        "statename":"NJ",
        "zipcode":"07087"
    },
    {
        "id":20425854,
        "lat":29.559913,
        "long":-98.325599,
        "phone":"210 592 8539",
        "instagram":"",
        "addressnumber":"3126",
        "streetname":"Booker",
        "streetnameposttype":"Road",
        "placename":"City",
        "statename":"TX",
        "zipcode":"78148"
    },
    {
        "id":45652863,
        "lat":40.106583,
        "long":-88.221327,
        "phone":"",
        "instagram":"",
        "addressnumber":"700",
        "streetname":"Gregory",
        "streetnameposttype":"Street",
        "placename":"Urbana",
        "statename":"IL",
        "zipcode":"61801"
    },
    {
        "id":47357798,
        "lat":40.738591,
        "long":-73.792757,
        "phone":"",
        "instagram":"",
        "addressnumber":"61-07",
        "streetname":"Utopia",
        "streetnameposttype":"Pkwy",
        "placename":"Meadows",
        "statename":"NY",
        "zipcode":"11365"
    },
    {
        "id":44500542,
        "lat":33.230252,
        "long":-117.024698,
        "phone":"",
        "instagram":"",
        "addressnumber":"28520",
        "streetname":"Grade",
        "streetnameposttype":"Rd",
        "placename":"Center",
        "statename":"CA",
        "zipcode":"92082"
    },
    {
        "id":38389283,
        "lat":45.657545,
        "long":-122.590207,
        "phone":"",
        "instagram":"",
        "addressnumber":"8109",
        "streetname":"Mall",
        "streetnameposttype":"Drive",
        "placename":"Vancouver",
        "statename":"WA",
        "zipcode":"98662"
    },
    {
        "id":49509273,
        "lat":45.719262,
        "long":-122.661201,
        "phone":"",
        "instagram":"",
        "addressnumber":"910",
        "streetname":"TENNEY",
        "streetnameposttype":"Rd",
        "placename":"Vancouver",
        "statename":"WA",
        "zipcode":"98684"
    },
    {
        "id":47117793,
        "lat":40.307737,
        "long":-111.73572,
        "phone":"",
        "instagram":"",
        "addressnumber":"661",
        "streetname":"450",
        "streetnameposttype":null,
        "placename":"Vineyard",
        "statename":"UT",
        "zipcode":"84059"
    },
    {
        "id":20425828,
        "lat":36.795155,
        "long":-76.119435,
        "phone":"757 777 9889",
        "instagram":"",
        "addressnumber":"1949",
        "streetname":"Lynnhaven",
        "streetnameposttype":"Parkway",
        "placename":"Beach",
        "statename":"VA",
        "zipcode":"23456"
    },
    {
        "id":47074365,
        "lat":39.851616,
        "long":-74.982158,
        "phone":"",
        "instagram":"",
        "addressnumber":"700",
        "streetname":"Haddonfield-Berlin",
        "streetnameposttype":"Rd",
        "placename":"Township",
        "statename":"NJ",
        "zipcode":"08043"
    },
    {
        "id":44448896,
        "lat":31.551433,
        "long":-97.125038,
        "phone":"",
        "instagram":"",
        "addressnumber":"721",
        "streetname":"4th",
        "streetnameposttype":"St",
        "placename":"Waco",
        "statename":"TX",
        "zipcode":"76706"
    },
    {
        "id":20425909,
        "lat":42.371853,
        "long":-71.236736,
        "phone":"781 373 1471",
        "instagram":"",
        "addressnumber":"246",
        "streetname":"Moody",
        "streetnameposttype":"St",
        "placename":"Waltham",
        "statename":"MA",
        "zipcode":"02453"
    },
    {
        "id":43263433,
        "lat":32.553743,
        "long":-83.664594,
        "phone":"",
        "instagram":"",
        "addressnumber":"810",
        "streetname":"96",
        "streetnameposttype":null,
        "placename":"Robins",
        "statename":"GA",
        "zipcode":"31088"
    },
    {
        "id":20425938,
        "lat":40.843019,
        "long":-73.939227,
        "phone":"",
        "instagram":"",
        "addressnumber":"4053",
        "streetname":"Broadway",
        "streetnameposttype":null,
        "placename":"York",
        "statename":"NY",
        "zipcode":"10032"
    },
    {
        "id":31056711,
        "lat":28.18736,
        "long":-82.34864,
        "phone":"",
        "instagram":"",
        "addressnumber":"2000",
        "streetname":"Piazza",
        "streetnameposttype":"Ave",
        "placename":"Chapel",
        "statename":"FL",
        "zipcode":"33543"
    },
    {
        "id":33539839,
        "lat":39.960281,
        "long":-75.60531,
        "phone":"",
        "instagram":"",
        "addressnumber":"2",
        "streetname":"Gay",
        "streetnameposttype":"Street",
        "placename":"Chester",
        "statename":"PA",
        "zipcode":"19380"
    },
    {
        "id":33579783,
        "lat":37.66364,
        "long":-77.65315,
        "phone":"",
        "instagram":"",
        "addressnumber":"11577",
        "streetname":"Broad",
        "streetnameposttype":"Street",
        "placename":"Henrico",
        "statename":"VA",
        "zipcode":"23233"
    },
    {
        "id":37228993,
        "lat":40.586917,
        "long":-111.931377,
        "phone":"",
        "instagram":"",
        "addressnumber":"1391",
        "streetname":"West",
        "streetnameposttype":null,
        "placename":"Jordan",
        "statename":"UT",
        "zipcode":"84088"
    },
    {
        "id":20425797,
        "lat":40.422684,
        "long":-86.907253,
        "phone":"765-838-3513",
        "instagram":"",
        "addressnumber":"135",
        "streetname":"Chauncey",
        "streetnameposttype":"Ave",
        "placename":"Lafayette",
        "statename":"IN",
        "zipcode":"47906"
    },
    {
        "id":40543453,
        "lat":26.707423,
        "long":-80.112453,
        "phone":"",
        "instagram":"",
        "addressnumber":"4587",
        "streetname":"Okeechobee",
        "streetnameposttype":"Boulevard",
        "placename":"Beach",
        "statename":"FL",
        "zipcode":"33417"
    },
    {
        "id":20425847,
        "lat":47.457697,
        "long":-122.261129,
        "phone":"206 743 8471",
        "instagram":"",
        "addressnumber":"1067",
        "streetname":"Southcenter",
        "streetnameposttype":"Mall",
        "placename":"Tukwila",
        "statename":"WA",
        "zipcode":"98188"
    },
    {
        "id":20425798,
        "lat":33.74576,
        "long":-117.960122,
        "phone":"657-212-5693",
        "instagram":"",
        "addressnumber":"9709",
        "streetname":"Bolsa",
        "streetnameposttype":"Ave",
        "placename":"Westminster",
        "statename":"CA",
        "zipcode":"92683"
    },
    {
        "id":32740406,
        "lat":41.81271,
        "long":-87.9496,
        "phone":"",
        "instagram":"",
        "addressnumber":"814",
        "streetname":"Ogden",
        "streetnameposttype":"Ave",
        "placename":"Westmont",
        "statename":"IL",
        "zipcode":"60559"
    },
    {
        "id":48192993,
        "lat":39.052088,
        "long":-77.049825,
        "phone":"",
        "instagram":"",
        "addressnumber":"12009",
        "streetname":"Georgia",
        "streetnameposttype":"Ave",
        "placename":"Wheaton",
        "statename":"MD",
        "zipcode":"20902"
    },
    {
        "id":34954769,
        "lat":41.031197,
        "long":-73.766577,
        "phone":"",
        "instagram":"",
        "addressnumber":"184",
        "streetname":"Martine",
        "streetnameposttype":"Ave",
        "placename":"Plains",
        "statename":"NY",
        "zipcode":"10601"
    },
    {
        "id":45568777,
        "lat":34.693677,
        "long":-86.569436,
        "phone":"",
        "instagram":"",
        "addressnumber":"4800",
        "streetname":"Whitesburg",
        "streetnameposttype":"Drive",
        "placename":"Huntsville",
        "statename":"AL",
        "zipcode":"35802"
    },
    {
        "id":20425887,
        "lat":37.664238,
        "long":-97.246114,
        "phone":"316 239 7469",
        "instagram":"",
        "addressnumber":"1625",
        "streetname":"Rock",
        "streetnameposttype":"Rd",
        "placename":"Wichita",
        "statename":"KS",
        "zipcode":"67207"
    },
    {
        "id":20425946,
        "lat":37.278395,
        "long":-76.741317,
        "phone":"757 585 7188",
        "instagram":"",
        "addressnumber":"4902",
        "streetname":"Courthouse",
        "streetnameposttype":"St",
        "placename":"Williamsburg",
        "statename":"VA",
        "zipcode":"23188"
    },
    {
        "id":20425953,
        "lat":40.891276,
        "long":-74.261957,
        "phone":"973 256 0187",
        "instagram":"",
        "addressnumber":"1400",
        "streetname":"Willowbrook",
        "streetnameposttype":"Mall",
        "placename":"Wayne",
        "statename":"NJ",
        "zipcode":"07470"
    },
    {
        "id":39991232,
        "lat":39.159878,
        "long":-78.163312,
        "phone":"",
        "instagram":"",
        "addressnumber":"1850",
        "streetname":"Blossom",
        "streetnameposttype":"Dr",
        "placename":"Winchester",
        "statename":"VA",
        "zipcode":"22601"
    },
    {
        "id":23264517,
        "lat":38.674623,
        "long":-77.333641,
        "phone":"",
        "instagram":"",
        "addressnumber":"4160",
        "streetname":"Merchant",
        "streetnameposttype":"Plaza",
        "placename":"Woodbridge",
        "statename":"VA",
        "zipcode":"22192"
    },
    {
        "id":31543506,
        "lat":39.94022,
        "long":-76.692231,
        "phone":"717-668-8337",
        "instagram":"",
        "addressnumber":"2035",
        "streetname":"Springwood",
        "streetnameposttype":"Rd",
        "placename":"York",
        "statename":"PA",
        "zipcode":"17403"
    },
    {
        "id":37398310,
        "lat":39.945676,
        "long":-86.237664,
        "phone":"",
        "instagram":"",
        "addressnumber":"10895",
        "streetname":"N.Michigan",
        "streetnameposttype":"Road",
        "placename":"Zionsville",
        "statename":"IN",
        "zipcode":"46077"
    }
]