[
    {
        "index":0,
        "id":"1754",
        "timezone":"America\/Los_Angeles",
        "name":"Vons",
        "url":"https:\/\/local.vons.com\/ca\/fresno\/5638-e-kings-canyon.html",
        "address":"5638 E Kings Canyon",
        "city":"Fresno",
        "state":"CA",
        "zip":"93727",
        "latitude":"36.7344809",
        "longitude":"-119.6980631"
    },
    {
        "index":1,
        "id":"2701",
        "timezone":"America\/Los_Angeles",
        "name":"Vons",
        "url":"https:\/\/local.vons.com\/ca\/clovis\/3100-fowler-ave.html",
        "address":"3100 Fowler Ave",
        "city":"Clovis",
        "state":"CA",
        "zip":"93611",
        "latitude":"36.7953574",
        "longitude":"-119.6841646"
    },
    {
        "index":2,
        "id":"2188",
        "timezone":"America\/Los_Angeles",
        "name":"Vons",
        "url":"https:\/\/local.vons.com\/ca\/fresno\/8949-n-cedar-ave.html",
        "address":"8949 N Cedar Ave",
        "city":"Fresno",
        "state":"CA",
        "zip":"93720",
        "latitude":"36.8648627",
        "longitude":"-119.7583563"
    },
    {
        "index":3,
        "id":"1756",
        "timezone":"America\/Los_Angeles",
        "name":"Vons",
        "url":"https:\/\/local.vons.com\/ca\/clovis\/1650-herndon-ave.html",
        "address":"1650 Herndon Ave",
        "city":"Clovis",
        "state":"CA",
        "zip":"93611",
        "latitude":"36.8357417",
        "longitude":"-119.6850551"
    },
    {
        "index":4,
        "id":"2029",
        "timezone":"America\/Los_Angeles",
        "name":"Vons",
        "url":"https:\/\/local.vons.com\/ca\/lancaster\/4033-w-ave-l.html",
        "address":"4033 W Ave L",
        "city":"Lancaster",
        "state":"CA",
        "zip":"93536",
        "latitude":"34.66160196197932",
        "longitude":"-118.20239245891571"
    },
    {
        "index":5,
        "id":"3017",
        "timezone":"America\/Los_Angeles",
        "name":"Vons",
        "url":"https:\/\/local.vons.com\/ca\/palmdale\/3027-rancho-vista-blvd.html",
        "address":"3027 Rancho Vista Blvd",
        "city":"Palmdale",
        "state":"CA",
        "zip":"93551",
        "latitude":"34.60340852121108",
        "longitude":"-118.1842406170199"
    },
    {
        "index":6,
        "id":"3138",
        "timezone":"America\/Los_Angeles",
        "name":"Vons",
        "url":"https:\/\/local.vons.com\/ca\/santa-clarita\/16550-w-soledad-canyon-rd.html",
        "address":"16550 W Soledad Canyon Rd",
        "city":"Santa Clarita",
        "state":"CA",
        "zip":"91387",
        "latitude":"34.42558870419761",
        "longitude":"-118.42522631349183"
    },
    {
        "index":7,
        "id":"2598",
        "timezone":"America\/Los_Angeles",
        "name":"Vons",
        "url":"https:\/\/local.vons.com\/ca\/la-crescenta\/3233-foothill-blvd.html",
        "address":"3233 Foothill Blvd",
        "city":"La Crescenta",
        "state":"CA",
        "zip":"91214",
        "latitude":"34.23117718467332",
        "longitude":"-118.250173330307"
    },
    {
        "index":8,
        "id":"2288",
        "timezone":"America\/Los_Angeles",
        "name":"Vons",
        "url":"https:\/\/local.vons.com\/ca\/montrose\/2039-verdugo-blvd.html",
        "address":"2039 Verdugo Blvd",
        "city":"Montrose",
        "state":"CA",
        "zip":"91020",
        "latitude":"34.20573356608936",
        "longitude":"-118.22151394220782"
    },
    {
        "index":9,
        "id":"2858",
        "timezone":"America\/Los_Angeles",
        "name":"Vons",
        "url":"https:\/\/local.vons.com\/ca\/pasadena\/2355-e-colorado-blvd.html",
        "address":"2355 E Colorado Blvd",
        "city":"Pasadena",
        "state":"CA",
        "zip":"91107",
        "latitude":"34.1476373",
        "longitude":"-118.1021057"
    },
    {
        "index":10,
        "id":"2200",
        "timezone":"America\/Los_Angeles",
        "name":"Vons",
        "url":"https:\/\/local.vons.com\/ca\/monrovia\/130-w-foothill-blvd.html",
        "address":"130 W Foothill Blvd",
        "city":"Monrovia",
        "state":"CA",
        "zip":"91016",
        "latitude":"34.1500513",
        "longitude":"-118.0019793"
    },
    {
        "index":11,
        "id":"2124",
        "timezone":"America\/Los_Angeles",
        "name":"Vons",
        "url":"https:\/\/local.vons.com\/ca\/tujunga\/7789-foothill-blvd.html",
        "address":"7789 Foothill Blvd",
        "city":"Tujunga",
        "state":"CA",
        "zip":"91042",
        "latitude":"34.259180754231565",
        "longitude":"-118.30124198795147"
    },
    {
        "index":12,
        "id":"2152",
        "timezone":"America\/Los_Angeles",
        "name":"Vons",
        "url":"https:\/\/local.vons.com\/ca\/pasadena\/155-california-blvd.html",
        "address":"155 California Blvd",
        "city":"Pasadena",
        "state":"CA",
        "zip":"91105",
        "latitude":"34.136741",
        "longitude":"-118.1533612"
    },
    {
        "index":13,
        "id":"3208",
        "timezone":"America\/Los_Angeles",
        "name":"Vons",
        "url":"https:\/\/local.vons.com\/ca\/arcadia\/745-w-naomi-ave.html",
        "address":"745 W Naomi Ave",
        "city":"Arcadia",
        "state":"CA",
        "zip":"91007",
        "latitude":"34.125034",
        "longitude":"-118.0577682"
    },
    {
        "index":14,
        "id":"2655",
        "timezone":"America\/Los_Angeles",
        "name":"Vons",
        "url":"https:\/\/local.vons.com\/ca\/los-angeles\/7311-n-figueroa-st.html",
        "address":"7311 N Figueroa St",
        "city":"Los Angeles",
        "state":"CA",
        "zip":"90041",
        "latitude":"34.1361544",
        "longitude":"-118.1895389"
    },
    {
        "index":15,
        "id":"1707",
        "timezone":"America\/Los_Angeles",
        "name":"Vons",
        "url":"https:\/\/local.vons.com\/ca\/glendale\/561-n-glendale-ave.html",
        "address":"561 N Glendale Ave",
        "city":"Glendale",
        "state":"CA",
        "zip":"91206",
        "latitude":"34.1549844",
        "longitude":"-118.2448076"
    },
    {
        "index":16,
        "id":"2169",
        "timezone":"America\/Los_Angeles",
        "name":"Vons",
        "url":"https:\/\/local.vons.com\/ca\/glendora\/435-w-foothill-blvd.html",
        "address":"435 W Foothill Blvd",
        "city":"Glendora",
        "state":"CA",
        "zip":"91741",
        "latitude":"34.137449765474024",
        "longitude":"-117.8714868809509"
    },
    {
        "index":17,
        "id":"2254",
        "timezone":"America\/Los_Angeles",
        "name":"Vons",
        "url":"https:\/\/local.vons.com\/ca\/glendale\/311-w-los-feliz-blvd.html",
        "address":"311 W Los Feliz Blvd",
        "city":"Glendale",
        "state":"CA",
        "zip":"91204",
        "latitude":"34.1294284739676",
        "longitude":"-118.25864030995945"
    },
    {
        "index":18,
        "id":"1753",
        "timezone":"America\/Los_Angeles",
        "name":"Vons",
        "url":"https:\/\/local.vons.com\/ca\/bishop\/1190-n-main-st.html",
        "address":"1190 N Main St",
        "city":"Bishop",
        "state":"CA",
        "zip":"93514",
        "latitude":"37.373471",
        "longitude":"-118.39149835581964"
    },
    {
        "index":19,
        "id":"2301",
        "timezone":"America\/Los_Angeles",
        "name":"Vons",
        "url":"https:\/\/local.vons.com\/ca\/santa-maria\/817-e-main-st.html",
        "address":"817 E Main St",
        "city":"Santa Maria",
        "state":"CA",
        "zip":"93454",
        "latitude":"34.95361844982526",
        "longitude":"-120.42409300804138"
    },
    {
        "index":20,
        "id":"1621",
        "timezone":"America\/Los_Angeles",
        "name":"Vons",
        "url":"https:\/\/local.vons.com\/ca\/nipomo\/520-w-tefft-st.html",
        "address":"520 W Tefft St",
        "city":"Nipomo",
        "state":"CA",
        "zip":"93444",
        "latitude":"35.0373774",
        "longitude":"-120.4869567"
    },
    {
        "index":21,
        "id":"2560",
        "timezone":"America\/Los_Angeles",
        "name":"Vons",
        "url":"https:\/\/local.vons.com\/ca\/grover-beach\/1758-w-grand-ave.html",
        "address":"1758 W Grand Ave",
        "city":"Grover Beach",
        "state":"CA",
        "zip":"93433",
        "latitude":"35.119924",
        "longitude":"-120.610508"
    },
    {
        "index":22,
        "id":"2314",
        "timezone":"America\/Los_Angeles",
        "name":"Vons",
        "url":"https:\/\/local.vons.com\/ca\/atascadero\/7135-el-camino-real.html",
        "address":"7135 El Camino Real",
        "city":"Atascadero",
        "state":"CA",
        "zip":"93422",
        "latitude":"35.48589268768676",
        "longitude":"-120.66202104091644"
    },
    {
        "index":23,
        "id":"2306",
        "timezone":"America\/Los_Angeles",
        "name":"Vons",
        "url":"https:\/\/local.vons.com\/ca\/san-luis-obispo\/3900-broad-st.html",
        "address":"3900 Broad St",
        "city":"San Luis Obispo",
        "state":"CA",
        "zip":"93401",
        "latitude":"35.25037459261333",
        "longitude":"-120.64199185026246"
    },
    {
        "index":24,
        "id":"2420",
        "timezone":"America\/Los_Angeles",
        "name":"Vons",
        "url":"https:\/\/local.vons.com\/ca\/bakersfield\/9000-ming-ave.html",
        "address":"9000 Ming Ave",
        "city":"Bakersfield",
        "state":"CA",
        "zip":"93311",
        "latitude":"35.3416605",
        "longitude":"-119.1025604"
    },
    {
        "index":25,
        "id":"2033",
        "timezone":"America\/Los_Angeles",
        "name":"Vons",
        "url":"https:\/\/local.vons.com\/ca\/bakersfield\/4500-coffee-rd.html",
        "address":"4500 Coffee Rd",
        "city":"Bakersfield",
        "state":"CA",
        "zip":"93308",
        "latitude":"35.4001287",
        "longitude":"-119.0904969"
    },
    {
        "index":26,
        "id":"1969",
        "timezone":"America\/Los_Angeles",
        "name":"Vons",
        "url":"https:\/\/local.vons.com\/ca\/bakersfield\/5700-stockdale-hwy.html",
        "address":"5700 Stockdale Hwy",
        "city":"Bakersfield",
        "state":"CA",
        "zip":"93309",
        "latitude":"35.355458533027296",
        "longitude":"-119.06502514482327"
    },
    {
        "index":27,
        "id":"3326",
        "timezone":"America\/Los_Angeles",
        "name":"Vons",
        "url":"https:\/\/local.vons.com\/ca\/goleta\/163-s-turnpike-rd.html",
        "address":"163 S Turnpike Rd",
        "city":"Goleta",
        "state":"CA",
        "zip":"93111",
        "latitude":"34.4377605",
        "longitude":"-119.7906064"
    },
    {
        "index":28,
        "id":"3329",
        "timezone":"America\/Los_Angeles",
        "name":"Vons",
        "url":"https:\/\/local.vons.com\/ca\/santa-barbara\/2010-cliff-dr.html",
        "address":"2010 Cliff Dr",
        "city":"Santa Barbara",
        "state":"CA",
        "zip":"93109",
        "latitude":"34.402523568056864",
        "longitude":"-119.723783660761"
    },
    {
        "index":29,
        "id":"2501",
        "timezone":"America\/Los_Angeles",
        "name":"Vons",
        "url":"https:\/\/local.vons.com\/ca\/simi-valley\/1855-e-cochran-st.html",
        "address":"1855 E Cochran St",
        "city":"Simi Valley",
        "state":"CA",
        "zip":"93065",
        "latitude":"34.2804062",
        "longitude":"-118.7629593"
    },
    {
        "index":30,
        "id":"2692",
        "timezone":"America\/Los_Angeles",
        "name":"Vons",
        "url":"https:\/\/local.vons.com\/ca\/simi-valley\/2938-tapo-canyon-rd.html",
        "address":"2938 Tapo Canyon Rd",
        "city":"Simi Valley",
        "state":"CA",
        "zip":"93063",
        "latitude":"34.28772346026805",
        "longitude":"-118.71558737116393"
    },
    {
        "index":31,
        "id":"2092",
        "timezone":"America\/Los_Angeles",
        "name":"Vons",
        "url":"https:\/\/local.vons.com\/ca\/thousand-oaks\/2048-avenida-de-los-arboles.html",
        "address":"2048 Avenida De Los Arboles",
        "city":"Thousand Oaks",
        "state":"CA",
        "zip":"91362",
        "latitude":"34.2098941",
        "longitude":"-118.8408902"
    },
    {
        "index":32,
        "id":"1735",
        "timezone":"America\/Los_Angeles",
        "name":"Vons",
        "url":"https:\/\/local.vons.com\/ca\/moorpark\/4241-tierra-rejada-rd.html",
        "address":"4241 Tierra Rejada Rd",
        "city":"Moorpark",
        "state":"CA",
        "zip":"93021",
        "latitude":"34.26765975731097",
        "longitude":"-118.89930217862911"
    },
    {
        "index":33,
        "id":"2047",
        "timezone":"America\/Los_Angeles",
        "name":"Vons",
        "url":"https:\/\/local.vons.com\/ca\/simi-valley\/5805-e-los-angeles-ave.html",
        "address":"5805 E Los Angeles Ave",
        "city":"Simi Valley",
        "state":"CA",
        "zip":"93063",
        "latitude":"34.27322287284763",
        "longitude":"-118.67773445026245"
    },
    {
        "index":34,
        "id":"1610",
        "timezone":"America\/Los_Angeles",
        "name":"Vons",
        "url":"https:\/\/local.vons.com\/ca\/thousand-oaks\/1790-moorpark-rd.html",
        "address":"1790 Moorpark Rd",
        "city":"Thousand Oaks",
        "state":"CA",
        "zip":"91360",
        "latitude":"34.2014165",
        "longitude":"-118.8667448"
    },
    {
        "index":35,
        "id":"2001",
        "timezone":"America\/Los_Angeles",
        "name":"Vons",
        "url":"https:\/\/local.vons.com\/ca\/agoura\/5671-kanan-rd.html",
        "address":"5671 Kanan Rd",
        "city":"Agoura",
        "state":"CA",
        "zip":"91301",
        "latitude":"34.15366160988684",
        "longitude":"-118.75920771957226"
    },
    {
        "index":36,
        "id":"3135",
        "timezone":"America\/Los_Angeles",
        "name":"Vons",
        "url":"https:\/\/local.vons.com\/ca\/thousand-oaks\/2725-agoura-rd.html",
        "address":"2725 Agoura Rd",
        "city":"Thousand Oaks",
        "state":"CA",
        "zip":"91361",
        "latitude":"34.1520254",
        "longitude":"-118.8258368"
    },
    {
        "index":37,
        "id":"2442",
        "timezone":"America\/Los_Angeles",
        "name":"Vons",
        "url":"https:\/\/local.vons.com\/ca\/fillmore\/636-ventura-st.html",
        "address":"636 Ventura St",
        "city":"Fillmore",
        "state":"CA",
        "zip":"93015",
        "latitude":"34.39502103965203",
        "longitude":"-118.91634469086512"
    },
    {
        "index":38,
        "id":"1671",
        "timezone":"America\/Los_Angeles",
        "name":"Vons",
        "url":"https:\/\/local.vons.com\/ca\/chatsworth\/20440-devonshire-st.html",
        "address":"20440 Devonshire St",
        "city":"Chatsworth",
        "state":"CA",
        "zip":"91311",
        "latitude":"34.256626910528354",
        "longitude":"-118.57864116484507"
    },
    {
        "index":39,
        "id":"2094",
        "timezone":"America\/Los_Angeles",
        "name":"Vons",
        "url":"https:\/\/local.vons.com\/ca\/camarillo\/5275-mission-oaks-blvd.html",
        "address":"5275 Mission Oaks Blvd",
        "city":"Camarillo",
        "state":"CA",
        "zip":"93012",
        "latitude":"34.2296878",
        "longitude":"-118.9984747"
    },
    {
        "index":40,
        "id":"1672",
        "timezone":"America\/Los_Angeles",
        "name":"Vons",
        "url":"https:\/\/local.vons.com\/ca\/camarillo\/820-arneill-rd.html",
        "address":"820 Arneill Rd",
        "city":"Camarillo",
        "state":"CA",
        "zip":"93010",
        "latitude":"34.2248473",
        "longitude":"-119.037016"
    },
    {
        "index":41,
        "id":"2078",
        "timezone":"America\/Los_Angeles",
        "name":"Vons",
        "url":"https:\/\/local.vons.com\/ca\/northridge\/9119-reseda-blvd.html",
        "address":"9119 Reseda Blvd",
        "city":"Northridge",
        "state":"CA",
        "zip":"91324",
        "latitude":"34.23604777426398",
        "longitude":"-118.53775308297372"
    },
    {
        "index":42,
        "id":"2030",
        "timezone":"America\/Los_Angeles",
        "name":"Vons",
        "url":"https:\/\/local.vons.com\/ca\/valencia\/25850-n-the-old-rd.html",
        "address":"25850 N The Old Rd",
        "city":"Valencia",
        "state":"CA",
        "zip":"91381",
        "latitude":"34.3911257",
        "longitude":"-118.5722962"
    },
    {
        "index":43,
        "id":"2039",
        "timezone":"America\/Los_Angeles",
        "name":"Vons",
        "url":"https:\/\/local.vons.com\/ca\/reseda\/19333-victory-blvd.html",
        "address":"19333 Victory Blvd",
        "city":"Reseda",
        "state":"CA",
        "zip":"91335",
        "latitude":"34.18769691972358",
        "longitude":"-118.55445116758347"
    },
    {
        "index":44,
        "id":"2111",
        "timezone":"America\/Los_Angeles",
        "name":"Vons",
        "url":"https:\/\/local.vons.com\/ca\/newhall\/24160-lyons-ave.html",
        "address":"24160 Lyons Ave",
        "city":"Newhall",
        "state":"CA",
        "zip":"91321",
        "latitude":"34.3774419",
        "longitude":"-118.5571682"
    },
    {
        "index":45,
        "id":"2250",
        "timezone":"America\/Los_Angeles",
        "name":"Vons",
        "url":"https:\/\/local.vons.com\/ca\/granada-hills\/16830-san-fernando-mission-blvd.html",
        "address":"16830 San Fernando Mission Blvd",
        "city":"Granada Hills",
        "state":"CA",
        "zip":"91344",
        "latitude":"34.27092937356146",
        "longitude":"-118.4988704476018"
    },
    {
        "index":46,
        "id":"2434",
        "timezone":"America\/Los_Angeles",
        "name":"Vons",
        "url":"https:\/\/local.vons.com\/ca\/santa-paula\/576-w-main-st.html",
        "address":"576 W Main St",
        "city":"Santa Paula",
        "state":"CA",
        "zip":"93060",
        "latitude":"34.34461423899754",
        "longitude":"-119.08140063285828"
    },
    {
        "index":47,
        "id":"2430",
        "timezone":"America\/Los_Angeles",
        "name":"Vons",
        "url":"https:\/\/local.vons.com\/ca\/ojai\/1125-maricopa-hwy.html",
        "address":"1125 Maricopa Hwy",
        "city":"Ojai",
        "state":"CA",
        "zip":"93023",
        "latitude":"34.44123217691627",
        "longitude":"-119.26238671706415"
    },
    {
        "index":48,
        "id":"2678",
        "timezone":"America\/Los_Angeles",
        "name":"Vons",
        "url":"https:\/\/local.vons.com\/ca\/ventura\/6040-telegraph-rd.html",
        "address":"6040 Telegraph Rd",
        "city":"Ventura",
        "state":"CA",
        "zip":"93003",
        "latitude":"34.27678272780918",
        "longitude":"-119.21254656828296"
    },
    {
        "index":49,
        "id":"2164",
        "timezone":"America\/Los_Angeles",
        "name":"Vons",
        "url":"https:\/\/local.vons.com\/ca\/ventura\/5688-telephone-rd.html",
        "address":"5688 Telephone Rd",
        "city":"Ventura",
        "state":"CA",
        "zip":"93003",
        "latitude":"34.2643315",
        "longitude":"-119.2150776"
    },
    {
        "index":50,
        "id":"2436",
        "timezone":"America\/Los_Angeles",
        "name":"Vons",
        "url":"https:\/\/local.vons.com\/ca\/oxnard\/2101-n-rose-ave.html",
        "address":"2101 N Rose Ave",
        "city":"Oxnard",
        "state":"CA",
        "zip":"93036",
        "latitude":"34.221887",
        "longitude":"-119.1620065"
    },
    {
        "index":51,
        "id":"2677",
        "timezone":"America\/Los_Angeles",
        "name":"Vons",
        "url":"https:\/\/local.vons.com\/ca\/ventura\/2764-e-thompson-blvd.html",
        "address":"2764 E Thompson Blvd",
        "city":"Ventura",
        "state":"CA",
        "zip":"93003",
        "latitude":"34.27124990508542",
        "longitude":"-119.25926993491821"
    },
    {
        "index":52,
        "id":"2431",
        "timezone":"America\/Los_Angeles",
        "name":"Vons",
        "url":"https:\/\/local.vons.com\/ca\/ventura\/2433-harbor-blvd.html",
        "address":"2433 Harbor Blvd",
        "city":"Ventura",
        "state":"CA",
        "zip":"93001",
        "latitude":"34.26298769634401",
        "longitude":"-119.27018809021301"
    },
    {
        "index":53,
        "id":"2096",
        "timezone":"America\/Los_Angeles",
        "name":"Vons",
        "url":"https:\/\/local.vons.com\/ca\/ventura\/115-w-main-st.html",
        "address":"115 W Main St",
        "city":"Ventura",
        "state":"CA",
        "zip":"93001",
        "latitude":"34.2822819",
        "longitude":"-119.3024067"
    },
    {
        "index":54,
        "id":"1913",
        "timezone":"America\/Los_Angeles",
        "name":"Vons",
        "url":"https:\/\/local.vons.com\/ca\/oxnard\/450-s-ventura-rd.html",
        "address":"450 S Ventura Rd",
        "city":"Oxnard",
        "state":"CA",
        "zip":"93030",
        "latitude":"34.19840544094263",
        "longitude":"-119.19320913677063"
    },
    {
        "index":55,
        "id":"2825",
        "timezone":"America\/Los_Angeles",
        "name":"Vons",
        "url":"https:\/\/local.vons.com\/ca\/oxnard\/1291-s-victoria-ave.html",
        "address":"1291 S Victoria Ave",
        "city":"Oxnard",
        "state":"CA",
        "zip":"93035",
        "latitude":"34.18831795300853",
        "longitude":"-119.22206057063906"
    },
    {
        "index":56,
        "id":"3325",
        "timezone":"America\/Los_Angeles",
        "name":"Vons",
        "url":"https:\/\/local.vons.com\/ca\/saugus\/26518-bouquet-canyon-rd.html",
        "address":"26518 Bouquet Canyon Rd",
        "city":"Saugus",
        "state":"CA",
        "zip":"91350",
        "latitude":"34.42695302014139",
        "longitude":"-118.53527740405298"
    },
    {
        "index":57,
        "id":"2216",
        "timezone":"America\/Los_Angeles",
        "name":"Vons",
        "url":"https:\/\/local.vons.com\/ca\/anaheim-hills\/8010-e-santa-ana-canyon-rd.html",
        "address":"8010 E Santa Ana Canyon Rd",
        "city":"Anaheim Hills",
        "state":"CA",
        "zip":"92808",
        "latitude":"33.8672729",
        "longitude":"-117.7515448"
    },
    {
        "index":58,
        "id":"3069",
        "timezone":"America\/Los_Angeles",
        "name":"Vons",
        "url":"https:\/\/local.vons.com\/ca\/yorba-linda\/20445-yorba-linda-blvd.html",
        "address":"20445 Yorba Linda Blvd",
        "city":"Yorba Linda",
        "state":"CA",
        "zip":"92886",
        "latitude":"33.89329546935657",
        "longitude":"-117.77564362452722"
    },
    {
        "index":59,
        "id":"2103",
        "timezone":"America\/Los_Angeles",
        "name":"Vons",
        "url":"https:\/\/local.vons.com\/ca\/anaheim\/5600-santa-ana-canyon-rd.html",
        "address":"5600 Santa Ana Canyon Rd",
        "city":"Anaheim",
        "state":"CA",
        "zip":"92807",
        "latitude":"33.84974167609173",
        "longitude":"-117.79180365807406"
    },
    {
        "index":60,
        "id":"2335",
        "timezone":"America\/Los_Angeles",
        "name":"Vons",
        "url":"https:\/\/local.vons.com\/ca\/orange\/2684-n-tustin-ave.html",
        "address":"2684 N Tustin Ave",
        "city":"Orange",
        "state":"CA",
        "zip":"92865",
        "latitude":"33.83340216393927",
        "longitude":"-117.83732691349182"
    },
    {
        "index":61,
        "id":"2596",
        "timezone":"America\/Los_Angeles",
        "name":"Vons",
        "url":"https:\/\/local.vons.com\/ca\/corona\/369-magnolia-ave.html",
        "address":"369 Magnolia Ave",
        "city":"Corona",
        "state":"CA",
        "zip":"92879",
        "latitude":"33.854531163153126",
        "longitude":"-117.56569238039447"
    },
    {
        "index":62,
        "id":"2688",
        "timezone":"America\/Los_Angeles",
        "name":"Vons",
        "url":"https:\/\/local.vons.com\/ca\/mira-loma\/6170-hamner-ave.html",
        "address":"6170 Hamner Ave",
        "city":"Mira Loma",
        "state":"CA",
        "zip":"91752",
        "latitude":"33.9765251",
        "longitude":"-117.5578394"
    },
    {
        "index":63,
        "id":"2328",
        "timezone":"America\/Los_Angeles",
        "name":"Vons",
        "url":"https:\/\/local.vons.com\/ca\/anaheim\/130-w-lincoln.html",
        "address":"130 W Lincoln",
        "city":"Anaheim",
        "state":"CA",
        "zip":"92805",
        "latitude":"33.83511055162666",
        "longitude":"-117.91458871349182"
    },
    {
        "index":64,
        "id":"2167",
        "timezone":"America\/Los_Angeles",
        "name":"Vons",
        "url":"https:\/\/local.vons.com\/ca\/walnut\/350-n-lemon-ave.html",
        "address":"350 N Lemon Ave",
        "city":"Walnut",
        "state":"CA",
        "zip":"91789",
        "latitude":"34.0195867",
        "longitude":"-117.8639643"
    },
    {
        "index":65,
        "id":"2176",
        "timezone":"America\/Los_Angeles",
        "name":"Vons",
        "url":"https:\/\/local.vons.com\/ca\/garden-grove\/12961-w-chapman-ave.html",
        "address":"12961 W Chapman Ave",
        "city":"Garden Grove",
        "state":"CA",
        "zip":"92840",
        "latitude":"33.7895413",
        "longitude":"-117.9072586"
    },
    {
        "index":66,
        "id":"2818",
        "timezone":"America\/Los_Angeles",
        "name":"Vons",
        "url":"https:\/\/local.vons.com\/ca\/temescal-valley\/11800-de-palma-rd.html",
        "address":"11800 De Palma Rd",
        "city":"Temescal Valley",
        "state":"CA",
        "zip":"92883",
        "latitude":"33.74743948601739",
        "longitude":"-117.45317371221972"
    },
    {
        "index":67,
        "id":"2381",
        "timezone":"America\/Los_Angeles",
        "name":"Vons",
        "url":"https:\/\/local.vons.com\/ca\/corona\/535-n-mckinley-st.html",
        "address":"535 N Mckinley St",
        "city":"Corona",
        "state":"CA",
        "zip":"92879",
        "latitude":"33.891449893835436",
        "longitude":"-117.52022893759204"
    },
    {
        "index":68,
        "id":"2659",
        "timezone":"America\/Los_Angeles",
        "name":"Vons",
        "url":"https:\/\/local.vons.com\/ca\/riverside\/3520-riverside-plaza.html",
        "address":"3520 Riverside Plaza",
        "city":"Riverside",
        "state":"CA",
        "zip":"92506",
        "latitude":"33.9546810024487",
        "longitude":"-117.38954634980473"
    },
    {
        "index":69,
        "id":"2386",
        "timezone":"America\/Los_Angeles",
        "name":"Vons",
        "url":"https:\/\/local.vons.com\/ca\/sun-city\/27220-sun-city-blvd.html",
        "address":"27220 Sun City Blvd",
        "city":"Sun City",
        "state":"CA",
        "zip":"92586",
        "latitude":"33.71282241248879",
        "longitude":"-117.19319586931151"
    },
    {
        "index":70,
        "id":"2027",
        "timezone":"America\/Los_Angeles",
        "name":"Vons",
        "url":"https:\/\/local.vons.com\/ca\/whittier\/15740-la-forge-st.html",
        "address":"15740 La Forge St",
        "city":"Whittier",
        "state":"CA",
        "zip":"90603",
        "latitude":"33.9409551",
        "longitude":"-117.994277"
    },
    {
        "index":71,
        "id":"1626",
        "timezone":"America\/Los_Angeles",
        "name":"Vons",
        "url":"https:\/\/local.vons.com\/ca\/santa-ana\/3650-s-bristol-st.html",
        "address":"3650 S Bristol St",
        "city":"Santa Ana",
        "state":"CA",
        "zip":"92704",
        "latitude":"33.698310708815214",
        "longitude":"-117.88702368736267"
    },
    {
        "index":72,
        "id":"1736",
        "timezone":"America\/Los_Angeles",
        "name":"Vons",
        "url":"https:\/\/local.vons.com\/ca\/costa-mesa\/2701-b-harbor-blvd.html",
        "address":"2701 B Harbor Blvd",
        "city":"Costa Mesa",
        "state":"CA",
        "zip":"92626",
        "latitude":"33.6718708782081",
        "longitude":"-117.920254009787"
    },
    {
        "index":73,
        "id":"2041",
        "timezone":"America\/Los_Angeles",
        "name":"Vons",
        "url":"https:\/\/local.vons.com\/ca\/garden-grove\/11861-valley-view-st.html",
        "address":"11861 Valley View St",
        "city":"Garden Grove",
        "state":"CA",
        "zip":"92845",
        "latitude":"33.7902127",
        "longitude":"-118.0291364"
    },
    {
        "index":74,
        "id":"1742",
        "timezone":"America\/Los_Angeles",
        "name":"Vons",
        "url":"https:\/\/local.vons.com\/ca\/fontana\/7390-cherry-ave.html",
        "address":"7390 Cherry Ave",
        "city":"Fontana",
        "state":"CA",
        "zip":"92336",
        "latitude":"34.11979808978862",
        "longitude":"-117.49038306137695"
    },
    {
        "index":75,
        "id":"2681",
        "timezone":"America\/Los_Angeles",
        "name":"Vons",
        "url":"https:\/\/local.vons.com\/ca\/upland\/81-w-foothill-blvd.html",
        "address":"81 W Foothill Blvd",
        "city":"Upland",
        "state":"CA",
        "zip":"91786",
        "latitude":"34.10832726479641",
        "longitude":"-117.65285979444276"
    },
    {
        "index":76,
        "id":"1914",
        "timezone":"America\/Los_Angeles",
        "name":"Vons",
        "url":"https:\/\/local.vons.com\/ca\/rancho-cucamonga\/6351-haven-ave.html",
        "address":"6351 Haven Ave",
        "city":"Rancho Cucamonga",
        "state":"CA",
        "zip":"91737",
        "latitude":"34.13867129917831",
        "longitude":"-117.57413092327882"
    },
    {
        "index":77,
        "id":"2285",
        "timezone":"America\/Los_Angeles",
        "name":"Vons",
        "url":"https:\/\/local.vons.com\/ca\/los-alamitos\/11322-los-alamitos-blvd.html",
        "address":"11322 Los Alamitos Blvd",
        "city":"Los Alamitos",
        "state":"CA",
        "zip":"90720",
        "latitude":"33.797870157222256",
        "longitude":"-118.0706986784935"
    },
    {
        "index":78,
        "id":"2090",
        "timezone":"America\/Los_Angeles",
        "name":"Vons",
        "url":"https:\/\/local.vons.com\/ca\/huntington-beach\/5922-edinger-ave.html",
        "address":"5922 Edinger Ave",
        "city":"Huntington Beach",
        "state":"CA",
        "zip":"92649",
        "latitude":"33.72858055320909",
        "longitude":"-118.02482693792172"
    },
    {
        "index":79,
        "id":"2203",
        "timezone":"America\/Los_Angeles",
        "name":"Vons",
        "url":"https:\/\/local.vons.com\/ca\/long-beach\/5949-e-spring-st.html",
        "address":"5949 E Spring St",
        "city":"Long Beach",
        "state":"CA",
        "zip":"90808",
        "latitude":"33.8116636",
        "longitude":"-118.1154879"
    },
    {
        "index":80,
        "id":"1638",
        "timezone":"America\/Los_Angeles",
        "name":"Vons",
        "url":"https:\/\/local.vons.com\/ca\/lakewood\/4226-woodruff-ave.html",
        "address":"4226 Woodruff Ave",
        "city":"Lakewood",
        "state":"CA",
        "zip":"90713",
        "latitude":"33.835061006156685",
        "longitude":"-118.11522872778369"
    },
    {
        "index":81,
        "id":"3076",
        "timezone":"America\/Los_Angeles",
        "name":"Vons",
        "url":"https:\/\/local.vons.com\/ca\/long-beach\/1820-ximeno-ave.html",
        "address":"1820 Ximeno Ave",
        "city":"Long Beach",
        "state":"CA",
        "zip":"90815",
        "latitude":"33.79064050000001",
        "longitude":"-118.13735728095092"
    },
    {
        "index":82,
        "id":"2209",
        "timezone":"America\/Los_Angeles",
        "name":"Vons",
        "url":"https:\/\/local.vons.com\/ca\/lakewood\/5500-woodruff-ave.html",
        "address":"5500 Woodruff Ave",
        "city":"Lakewood",
        "state":"CA",
        "zip":"90713",
        "latitude":"33.8568774",
        "longitude":"-118.1154223"
    },
    {
        "index":83,
        "id":"2280",
        "timezone":"America\/Los_Angeles",
        "name":"Vons",
        "url":"https:\/\/local.vons.com\/ca\/long-beach\/3900-e-ocean-ave.html",
        "address":"3900 E Ocean Ave",
        "city":"Long Beach",
        "state":"CA",
        "zip":"90803",
        "latitude":"33.7598015",
        "longitude":"-118.1471209"
    },
    {
        "index":84,
        "id":"3160",
        "timezone":"America\/Los_Angeles",
        "name":"Vons",
        "url":"https:\/\/local.vons.com\/ca\/huntington-beach\/8891-atlanta-ave.html",
        "address":"8891 Atlanta Ave",
        "city":"Huntington Beach",
        "state":"CA",
        "zip":"92646",
        "latitude":"33.658386200000024",
        "longitude":"-117.97314547672119"
    },
    {
        "index":85,
        "id":"3086",
        "timezone":"America\/Los_Angeles",
        "name":"Vons",
        "url":"https:\/\/local.vons.com\/ca\/hacienda-heights\/2122-s-hacienda-blvd.html",
        "address":"2122 S Hacienda Blvd",
        "city":"Hacienda Heights",
        "state":"CA",
        "zip":"91745",
        "latitude":"33.99502390788731",
        "longitude":"-117.96729550526834"
    },
    {
        "index":86,
        "id":"2125",
        "timezone":"America\/Los_Angeles",
        "name":"Vons",
        "url":"https:\/\/local.vons.com\/ca\/san-dimas\/1160-via-verde-ave.html",
        "address":"1160 Via Verde Ave",
        "city":"San Dimas",
        "state":"CA",
        "zip":"91773",
        "latitude":"34.07259797250348",
        "longitude":"-117.82904425266673"
    },
    {
        "index":87,
        "id":"2123",
        "timezone":"America\/Los_Angeles",
        "name":"Vons",
        "url":"https:\/\/local.vons.com\/ca\/west-covina\/777-glendora-ave.html",
        "address":"777 Glendora Ave",
        "city":"West Covina",
        "state":"CA",
        "zip":"91790",
        "latitude":"34.0626231",
        "longitude":"-117.9323687"
    },
    {
        "index":88,
        "id":"2513",
        "timezone":"America\/Los_Angeles",
        "name":"Vons",
        "url":"https:\/\/local.vons.com\/ca\/costa-mesa\/185-e-17th-st.html",
        "address":"185 E 17th St",
        "city":"Costa Mesa",
        "state":"CA",
        "zip":"92627",
        "latitude":"33.63452295020686",
        "longitude":"-117.92036531719667"
    },
    {
        "index":89,
        "id":"2091",
        "timezone":"America\/Los_Angeles",
        "name":"Vons",
        "url":"https:\/\/local.vons.com\/ca\/san-juan-capistrano\/32401-camino-capistrano.html",
        "address":"32401 Camino Capistrano",
        "city":"San Juan Capistrano",
        "state":"CA",
        "zip":"92675",
        "latitude":"33.4926725",
        "longitude":"-117.663619"
    },
    {
        "index":90,
        "id":"2861",
        "timezone":"America\/Los_Angeles",
        "name":"Vons",
        "url":"https:\/\/local.vons.com\/ca\/long-beach\/600-e-broadway.html",
        "address":"600 E Broadway",
        "city":"Long Beach",
        "state":"CA",
        "zip":"90802",
        "latitude":"33.76887000671547",
        "longitude":"-118.18444856560669"
    },
    {
        "index":91,
        "id":"2660",
        "timezone":"America\/Los_Angeles",
        "name":"Vons",
        "url":"https:\/\/local.vons.com\/ca\/murrieta\/38995-sky-canyon-dr.html",
        "address":"38995 Sky Canyon Dr",
        "city":"Murrieta",
        "state":"CA",
        "zip":"92563",
        "latitude":"33.5542322",
        "longitude":"-117.138551"
    },
    {
        "index":92,
        "id":"1962",
        "timezone":"America\/Los_Angeles",
        "name":"Vons",
        "url":"https:\/\/local.vons.com\/ca\/temecula\/29530-rancho-california-rd.html",
        "address":"29530 Rancho California Rd",
        "city":"Temecula",
        "state":"CA",
        "zip":"92591",
        "latitude":"33.5052468",
        "longitude":"-117.147633"
    },
    {
        "index":93,
        "id":"1796",
        "timezone":"America\/Los_Angeles",
        "name":"Vons",
        "url":"https:\/\/local.vons.com\/ca\/yucaipa\/33644-yucaipa-blvd.html",
        "address":"33644 Yucaipa Blvd",
        "city":"Yucaipa",
        "state":"CA",
        "zip":"92399",
        "latitude":"34.0353675",
        "longitude":"-117.0700198"
    },
    {
        "index":94,
        "id":"1734",
        "timezone":"America\/Los_Angeles",
        "name":"Vons",
        "url":"https:\/\/local.vons.com\/ca\/redlands\/522-n-orange-st.html",
        "address":"522 N Orange St",
        "city":"Redlands",
        "state":"CA",
        "zip":"92374",
        "latitude":"34.06003292943473",
        "longitude":"-117.18098850580645"
    },
    {
        "index":95,
        "id":"2360",
        "timezone":"America\/Los_Angeles",
        "name":"Vons",
        "url":"https:\/\/local.vons.com\/ca\/oceanside\/845-college-blvd.html",
        "address":"845 College Blvd",
        "city":"Oceanside",
        "state":"CA",
        "zip":"92057",
        "latitude":"33.240742443703716",
        "longitude":"-117.29475975036621"
    },
    {
        "index":96,
        "id":"2147",
        "timezone":"America\/Los_Angeles",
        "name":"Vons",
        "url":"https:\/\/local.vons.com\/ca\/rancho-cucamonga\/8778-19th-st.html",
        "address":"8778 19th St",
        "city":"Rancho Cucamonga",
        "state":"CA",
        "zip":"91701",
        "latitude":"34.1336714",
        "longitude":"-117.6146153"
    },
    {
        "index":97,
        "id":"2131",
        "timezone":"America\/Los_Angeles",
        "name":"Vons",
        "url":"https:\/\/local.vons.com\/ca\/victorville\/12199-hesperia-rd.html",
        "address":"12199 Hesperia Rd",
        "city":"Victorville",
        "state":"CA",
        "zip":"92395",
        "latitude":"34.4724121",
        "longitude":"-117.2898559"
    },
    {
        "index":98,
        "id":"2155",
        "timezone":"America\/Los_Angeles",
        "name":"Vons",
        "url":"https:\/\/local.vons.com\/ca\/claremont\/550-e-baseline-rd.html",
        "address":"550 E Baseline Rd",
        "city":"Claremont",
        "state":"CA",
        "zip":"91711",
        "latitude":"34.12060275867562",
        "longitude":"-117.70607785151691"
    },
    {
        "index":99,
        "id":"2374",
        "timezone":"America\/Los_Angeles",
        "name":"Vons",
        "url":"https:\/\/local.vons.com\/ca\/big-bear-lake\/42170-big-bear-blvd.html",
        "address":"42170 Big Bear Blvd",
        "city":"Big Bear Lake",
        "state":"CA",
        "zip":"92315",
        "latitude":"34.2524122",
        "longitude":"-116.8849812"
    },
    {
        "index":100,
        "id":"2832",
        "timezone":"America\/Los_Angeles",
        "name":"Vons",
        "url":"https:\/\/local.vons.com\/ca\/la-verne\/1600-foothill-blvd.html",
        "address":"1600 Foothill Blvd",
        "city":"La Verne",
        "state":"CA",
        "zip":"91750",
        "latitude":"34.11460313624292",
        "longitude":"-117.77325376131557"
    },
    {
        "index":101,
        "id":"3058",
        "timezone":"America\/Los_Angeles",
        "name":"Vons",
        "url":"https:\/\/local.vons.com\/ca\/yucca-valley\/57590-29-palms-hwy.html",
        "address":"57590 29 Palms Hwy",
        "city":"Yucca Valley",
        "state":"CA",
        "zip":"92284",
        "latitude":"34.126895557216336",
        "longitude":"-116.40834064814044"
    },
    {
        "index":102,
        "id":"2177",
        "timezone":"America\/Los_Angeles",
        "name":"Vons",
        "url":"https:\/\/local.vons.com\/ca\/desert-hot-springs\/14200-palm-dr.html",
        "address":"14200 Palm Dr",
        "city":"Desert Hot Springs",
        "state":"CA",
        "zip":"92240",
        "latitude":"33.9454684",
        "longitude":"-116.4999766"
    },
    {
        "index":103,
        "id":"2175",
        "timezone":"America\/Los_Angeles",
        "name":"Vons",
        "url":"https:\/\/local.vons.com\/ca\/la-quinta\/78-271-state-hwy-111.html",
        "address":"78-271 State Hwy 111",
        "city":"La Quinta",
        "state":"CA",
        "zip":"92253",
        "latitude":"33.71499366744",
        "longitude":"-116.29831445952453"
    },
    {
        "index":104,
        "id":"2384",
        "timezone":"America\/Los_Angeles",
        "name":"Vons",
        "url":"https:\/\/local.vons.com\/ca\/palm-springs\/4733-e-palm-canyon-dr.html",
        "address":"4733 E Palm Canyon Dr",
        "city":"Palm Springs",
        "state":"CA",
        "zip":"92264",
        "latitude":"33.791989206201045",
        "longitude":"-116.49454178650818"
    },
    {
        "index":105,
        "id":"2406",
        "timezone":"America\/Los_Angeles",
        "name":"Vons",
        "url":"https:\/\/local.vons.com\/ca\/el-centro\/750-n-imperial-ave.html",
        "address":"750 N Imperial Ave",
        "city":"El Centro",
        "state":"CA",
        "zip":"92243",
        "latitude":"32.7989141",
        "longitude":"-115.5717561"
    },
    {
        "index":106,
        "id":"1767",
        "timezone":"America\/Los_Angeles",
        "name":"Vons",
        "url":"https:\/\/local.vons.com\/ca\/brawley\/475-w-main-st.html",
        "address":"475 W Main St",
        "city":"Brawley",
        "state":"CA",
        "zip":"92227",
        "latitude":"32.9789392",
        "longitude":"-115.5503649"
    },
    {
        "index":107,
        "id":"2115",
        "timezone":"America\/Los_Angeles",
        "name":"Vons",
        "url":"https:\/\/local.vons.com\/ca\/san-diego\/620-dennery-rd.html",
        "address":"620 Dennery Rd",
        "city":"San Diego",
        "state":"CA",
        "zip":"92154",
        "latitude":"32.5830679",
        "longitude":"-117.0346525"
    },
    {
        "index":108,
        "id":"2338",
        "timezone":"America\/Los_Angeles",
        "name":"Vons",
        "url":"https:\/\/local.vons.com\/ca\/san-diego\/665-saturn-blvd.html",
        "address":"665 Saturn Blvd",
        "city":"San Diego",
        "state":"CA",
        "zip":"92154",
        "latitude":"32.58482889940658",
        "longitude":"-117.09005950555725"
    },
    {
        "index":109,
        "id":"2826",
        "timezone":"America\/Los_Angeles",
        "name":"Vons",
        "url":"https:\/\/local.vons.com\/ca\/chula-vista\/1745-eastlake-pkwy.html",
        "address":"1745 Eastlake Pkwy",
        "city":"Chula Vista",
        "state":"CA",
        "zip":"91915",
        "latitude":"32.61967769616686",
        "longitude":"-116.96092469629517"
    },
    {
        "index":110,
        "id":"2130",
        "timezone":"America\/Los_Angeles",
        "name":"Vons",
        "url":"https:\/\/local.vons.com\/ca\/bonita\/4404-bonita-rd.html",
        "address":"4404 Bonita Rd",
        "city":"Bonita",
        "state":"CA",
        "zip":"91902",
        "latitude":"32.6599528",
        "longitude":"-117.0323211"
    },
    {
        "index":111,
        "id":"2071",
        "timezone":"America\/Los_Angeles",
        "name":"Vons",
        "url":"https:\/\/local.vons.com\/ca\/chula-vista\/2250-otay-lakes-rd.html",
        "address":"2250 Otay Lakes Rd",
        "city":"Chula Vista",
        "state":"CA",
        "zip":"91915",
        "latitude":"32.645757952425086",
        "longitude":"-116.96651185396729"
    },
    {
        "index":112,
        "id":"2364",
        "timezone":"America\/Los_Angeles",
        "name":"Vons",
        "url":"https:\/\/local.vons.com\/ca\/coronado\/868-orange-ave.html",
        "address":"868 Orange Ave",
        "city":"Coronado",
        "state":"CA",
        "zip":"92118",
        "latitude":"32.6878233",
        "longitude":"-117.1792469"
    },
    {
        "index":113,
        "id":"2352",
        "timezone":"America\/Los_Angeles",
        "name":"Vons",
        "url":"https:\/\/local.vons.com\/ca\/san-diego\/6155-el-cajon-blvd.html",
        "address":"6155 El Cajon Blvd",
        "city":"San Diego",
        "state":"CA",
        "zip":"92115",
        "latitude":"32.760954532745004",
        "longitude":"-117.06496381349181"
    },
    {
        "index":114,
        "id":"2093",
        "timezone":"America\/Los_Angeles",
        "name":"Vons",
        "url":"https:\/\/local.vons.com\/ca\/la-mesa\/8011-university-ave.html",
        "address":"8011 University Ave",
        "city":"La Mesa",
        "state":"CA",
        "zip":"91942",
        "latitude":"32.7653359",
        "longitude":"-117.0242851"
    },
    {
        "index":115,
        "id":"2355",
        "timezone":"America\/Los_Angeles",
        "name":"Vons",
        "url":"https:\/\/local.vons.com\/ca\/san-diego\/4145-30th-st.html",
        "address":"4145 30th St",
        "city":"San Diego",
        "state":"CA",
        "zip":"92104",
        "latitude":"32.7530846",
        "longitude":"-117.1294864"
    },
    {
        "index":116,
        "id":"2358",
        "timezone":"America\/Los_Angeles",
        "name":"Vons",
        "url":"https:\/\/local.vons.com\/ca\/san-diego\/3610-adams-ave.html",
        "address":"3610 Adams Ave",
        "city":"San Diego",
        "state":"CA",
        "zip":"92116",
        "latitude":"32.7641395",
        "longitude":"-117.1146623"
    },
    {
        "index":117,
        "id":"2784",
        "timezone":"America\/Los_Angeles",
        "name":"Vons",
        "url":"https:\/\/local.vons.com\/ca\/san-diego\/515-w-washington-st.html",
        "address":"515 W Washington St",
        "city":"San Diego",
        "state":"CA",
        "zip":"92103",
        "latitude":"32.74937798470182",
        "longitude":"-117.16821363491822"
    },
    {
        "index":118,
        "id":"3327",
        "timezone":"America\/Los_Angeles",
        "name":"Vons",
        "url":"https:\/\/local.vons.com\/ca\/la-mesa\/5630-lake-murray-blvd.html",
        "address":"5630 Lake Murray Blvd",
        "city":"La Mesa",
        "state":"CA",
        "zip":"91942",
        "latitude":"32.78242861921922",
        "longitude":"-117.0323933065265"
    },
    {
        "index":119,
        "id":"3044",
        "timezone":"America\/Los_Angeles",
        "name":"Vons",
        "url":"https:\/\/local.vons.com\/ca\/el-cajon\/1201-avocado-blvd.html",
        "address":"1201 Avocado Blvd",
        "city":"El Cajon",
        "state":"CA",
        "zip":"92020",
        "latitude":"32.77887254687219",
        "longitude":"-116.95633605883813"
    },
    {
        "index":120,
        "id":"2359",
        "timezone":"America\/Los_Angeles",
        "name":"Vons",
        "url":"https:\/\/local.vons.com\/ca\/san-diego\/6555-mission-gorge-rd.html",
        "address":"6555 Mission Gorge Rd",
        "city":"San Diego",
        "state":"CA",
        "zip":"92120",
        "latitude":"32.7923799",
        "longitude":"-117.0964609"
    },
    {
        "index":121,
        "id":"4018",
        "timezone":"America\/Los_Angeles",
        "name":"Vons",
        "url":"https:\/\/local.vons.com\/ca\/san-diego\/10016-scripps-ranch-blvd.html",
        "address":"10016 Scripps Ranch Blvd",
        "city":"San Diego",
        "state":"CA",
        "zip":"92131",
        "latitude":"32.90313016766139",
        "longitude":"-117.10043846965618"
    },
    {
        "index":122,
        "id":"2107",
        "timezone":"America\/Los_Angeles",
        "name":"Vons",
        "url":"https:\/\/local.vons.com\/ca\/san-diego\/10675-scripps-poway-pkwy.html",
        "address":"10675 Scripps Poway Pkwy",
        "city":"San Diego",
        "state":"CA",
        "zip":"92131",
        "latitude":"32.93539354090204",
        "longitude":"-117.09839096197129"
    },
    {
        "index":123,
        "id":"2136",
        "timezone":"America\/Los_Angeles",
        "name":"Vons",
        "url":"https:\/\/local.vons.com\/ca\/san-diego\/8310-mira-mesa-blvd.html",
        "address":"8310 Mira Mesa Blvd",
        "city":"San Diego",
        "state":"CA",
        "zip":"92126",
        "latitude":"32.915256889967274",
        "longitude":"-117.14476392434335"
    },
    {
        "index":124,
        "id":"2134",
        "timezone":"America\/Los_Angeles",
        "name":"Vons",
        "url":"https:\/\/local.vons.com\/ca\/san-diego\/10460-clairemont-mesa-blvd.html",
        "address":"10460 Clairemont Mesa Blvd",
        "city":"San Diego",
        "state":"CA",
        "zip":"92124",
        "latitude":"32.8305239",
        "longitude":"-117.1041703"
    },
    {
        "index":125,
        "id":"2081",
        "timezone":"America\/Los_Angeles",
        "name":"Vons",
        "url":"https:\/\/local.vons.com\/ca\/san-diego\/13255-black-mountain-rd.html",
        "address":"13255 Black Mountain Rd",
        "city":"San Diego",
        "state":"CA",
        "zip":"92129",
        "latitude":"32.9579597",
        "longitude":"-117.1249704"
    },
    {
        "index":126,
        "id":"1897",
        "timezone":"America\/Los_Angeles",
        "name":"Vons",
        "url":"https:\/\/local.vons.com\/ca\/santee\/9643-mission-gorge-rd.html",
        "address":"9643 Mission Gorge Rd",
        "city":"Santee",
        "state":"CA",
        "zip":"92071",
        "latitude":"32.83727877333448",
        "longitude":"-116.98698029683328"
    },
    {
        "index":127,
        "id":"2118",
        "timezone":"America\/Los_Angeles",
        "name":"Vons",
        "url":"https:\/\/local.vons.com\/ca\/san-diego\/3550-murphy-canyon-dr.html",
        "address":"3550 Murphy Canyon Dr",
        "city":"San Diego",
        "state":"CA",
        "zip":"92123",
        "latitude":"32.80716160546506",
        "longitude":"-117.11651924973755"
    },
    {
        "index":128,
        "id":"3323",
        "timezone":"America\/Los_Angeles",
        "name":"Vons",
        "url":"https:\/\/local.vons.com\/ca\/san-diego\/7895-highland-village-place.html",
        "address":"7895 Highland Village Place",
        "city":"San Diego",
        "state":"CA",
        "zip":"92129",
        "latitude":"32.961032367304064",
        "longitude":"-117.15367046745911"
    },
    {
        "index":129,
        "id":"2040",
        "timezone":"America\/Los_Angeles",
        "name":"Vons",
        "url":"https:\/\/local.vons.com\/ca\/san-diego\/5555-balboa-ave.html",
        "address":"5555 Balboa Ave",
        "city":"San Diego",
        "state":"CA",
        "zip":"92111",
        "latitude":"32.818322",
        "longitude":"-117.1789863"
    },
    {
        "index":130,
        "id":"2370",
        "timezone":"America\/Los_Angeles",
        "name":"Vons",
        "url":"https:\/\/local.vons.com\/ca\/san-diego\/3993-governor-dr.html",
        "address":"3993 Governor Dr",
        "city":"San Diego",
        "state":"CA",
        "zip":"92122",
        "latitude":"32.8535238",
        "longitude":"-117.2032369"
    },
    {
        "index":131,
        "id":"1797",
        "timezone":"America\/Los_Angeles",
        "name":"Vons",
        "url":"https:\/\/local.vons.com\/ca\/san-diego\/4627-carmel-mountain-rd.html",
        "address":"4627 Carmel Mountain Rd",
        "city":"San Diego",
        "state":"CA",
        "zip":"92130",
        "latitude":"32.9203554",
        "longitude":"-117.2150572"
    },
    {
        "index":132,
        "id":"2079",
        "timezone":"America\/Los_Angeles",
        "name":"Vons",
        "url":"https:\/\/local.vons.com\/ca\/san-diego\/11986-bernardo-plaza-dr.html",
        "address":"11986 Bernardo Plaza Dr",
        "city":"San Diego",
        "state":"CA",
        "zip":"92128",
        "latitude":"33.0208902",
        "longitude":"-117.0723841"
    },
    {
        "index":133,
        "id":"2120",
        "timezone":"America\/Los_Angeles",
        "name":"Vons",
        "url":"https:\/\/local.vons.com\/ca\/san-diego\/4725-clairemont-dr.html",
        "address":"4725 Clairemont Dr",
        "city":"San Diego",
        "state":"CA",
        "zip":"92117",
        "latitude":"32.8302042",
        "longitude":"-117.204775"
    },
    {
        "index":134,
        "id":"2348",
        "timezone":"America\/Los_Angeles",
        "name":"Vons",
        "url":"https:\/\/local.vons.com\/ca\/del-mar\/2606-del-mar-heights-rd.html",
        "address":"2606 Del Mar Heights Rd",
        "city":"Del Mar",
        "state":"CA",
        "zip":"92014",
        "latitude":"32.95145087982254",
        "longitude":"-117.24642367693377"
    },
    {
        "index":135,
        "id":"2327",
        "timezone":"America\/Los_Angeles",
        "name":"Vons",
        "url":"https:\/\/local.vons.com\/ca\/solana-beach\/931-lomas-santa-fe-dr.html",
        "address":"931 Lomas Santa Fe Dr",
        "city":"Solana Beach",
        "state":"CA",
        "zip":"92075",
        "latitude":"32.9940527",
        "longitude":"-117.2545012"
    },
    {
        "index":136,
        "id":"2012",
        "timezone":"America\/Los_Angeles",
        "name":"Vons",
        "url":"https:\/\/local.vons.com\/ca\/san-diego\/7788-regents-rd.html",
        "address":"7788 Regents Rd",
        "city":"San Diego",
        "state":"CA",
        "zip":"92122",
        "latitude":"32.8625727",
        "longitude":"-117.2234904"
    },
    {
        "index":137,
        "id":"2859",
        "timezone":"America\/Los_Angeles",
        "name":"Vons",
        "url":"https:\/\/local.vons.com\/ca\/encinitas\/453-santa-fe-dr.html",
        "address":"453 Santa Fe Dr",
        "city":"Encinitas",
        "state":"CA",
        "zip":"92024",
        "latitude":"33.0347915",
        "longitude":"-117.2827498"
    },
    {
        "index":138,
        "id":"2144",
        "timezone":"America\/Los_Angeles",
        "name":"Vons",
        "url":"https:\/\/local.vons.com\/ca\/encinitas\/262-n-el-camino-real.html",
        "address":"262 N El Camino Real",
        "city":"Encinitas",
        "state":"CA",
        "zip":"92024",
        "latitude":"33.0512352",
        "longitude":"-117.2623432"
    },
    {
        "index":139,
        "id":"2724",
        "timezone":"America\/Los_Angeles",
        "name":"Vons",
        "url":"https:\/\/local.vons.com\/ca\/carlsbad\/3439-via-montebello.html",
        "address":"3439 Via Montebello",
        "city":"Carlsbad",
        "state":"CA",
        "zip":"92009",
        "latitude":"33.08144244224863",
        "longitude":"-117.23208524232788"
    },
    {
        "index":140,
        "id":"2344",
        "timezone":"America\/Los_Angeles",
        "name":"Vons",
        "url":"https:\/\/local.vons.com\/ca\/escondido\/351-w-felicita-ave.html",
        "address":"351 W Felicita Ave",
        "city":"Escondido",
        "state":"CA",
        "zip":"92025",
        "latitude":"33.1030714",
        "longitude":"-117.0731609"
    },
    {
        "index":141,
        "id":"2156",
        "timezone":"America\/Los_Angeles",
        "name":"Vons",
        "url":"https:\/\/local.vons.com\/ca\/escondido\/2345-e-valley-pkwy.html",
        "address":"2345 E Valley Pkwy",
        "city":"Escondido",
        "state":"CA",
        "zip":"92027",
        "latitude":"33.1391712",
        "longitude":"-117.0444704"
    },
    {
        "index":142,
        "id":"2049",
        "timezone":"America\/Los_Angeles",
        "name":"Vons",
        "url":"https:\/\/local.vons.com\/ca\/escondido\/330-w-el-norte-pkwy.html",
        "address":"330 W El Norte Pkwy",
        "city":"Escondido",
        "state":"CA",
        "zip":"92026",
        "latitude":"33.14340996628619",
        "longitude":"-117.09400523862303"
    },
    {
        "index":143,
        "id":"2345",
        "timezone":"America\/Los_Angeles",
        "name":"Vons",
        "url":"https:\/\/local.vons.com\/ca\/escondido\/1000-w-el-norte-pkwy.html",
        "address":"1000 W El Norte Pkwy",
        "city":"Escondido",
        "state":"CA",
        "zip":"92026",
        "latitude":"33.1486921",
        "longitude":"-117.1063915"
    },
    {
        "index":144,
        "id":"2116",
        "timezone":"America\/Los_Angeles",
        "name":"Vons",
        "url":"https:\/\/local.vons.com\/ca\/san-diego\/1702-garnet-ave.html",
        "address":"1702 Garnet Ave",
        "city":"San Diego",
        "state":"CA",
        "zip":"92109",
        "latitude":"32.8018694",
        "longitude":"-117.2387757"
    },
    {
        "index":145,
        "id":"2053",
        "timezone":"America\/Los_Angeles",
        "name":"Vons",
        "url":"https:\/\/local.vons.com\/ca\/san-diego\/3645-midway-dr.html",
        "address":"3645 Midway Dr",
        "city":"San Diego",
        "state":"CA",
        "zip":"92110",
        "latitude":"32.75119938168064",
        "longitude":"-117.21751975767212"
    },
    {
        "index":146,
        "id":"2735",
        "timezone":"America\/Los_Angeles",
        "name":"Vons",
        "url":"https:\/\/local.vons.com\/ca\/san-diego\/2495-truxtun-rd-bldg-28.html",
        "address":"2495 Truxtun Rd Bldg 28",
        "city":"San Diego",
        "state":"CA",
        "zip":"92106",
        "latitude":"32.736937",
        "longitude":"-117.216228"
    },
    {
        "index":147,
        "id":"2142",
        "timezone":"America\/Los_Angeles",
        "name":"Vons",
        "url":"https:\/\/local.vons.com\/ca\/carlsbad\/2560-el-camino-real.html",
        "address":"2560 El Camino Real",
        "city":"Carlsbad",
        "state":"CA",
        "zip":"92008",
        "latitude":"33.178719",
        "longitude":"-117.324746"
    },
    {
        "index":148,
        "id":"2343",
        "timezone":"America\/Los_Angeles",
        "name":"Vons",
        "url":"https:\/\/local.vons.com\/ca\/carlsbad\/985-tamarack-ave.html",
        "address":"985 Tamarack Ave",
        "city":"Carlsbad",
        "state":"CA",
        "zip":"92008",
        "latitude":"33.1522774",
        "longitude":"-117.3339542"
    },
    {
        "index":149,
        "id":"2065",
        "timezone":"America\/Los_Angeles",
        "name":"Vons",
        "url":"https:\/\/local.vons.com\/ca\/carlsbad\/6951-el-camino-real.html",
        "address":"6951 El Camino Real",
        "city":"Carlsbad",
        "state":"CA",
        "zip":"92009",
        "latitude":"33.103378112599145",
        "longitude":"-117.26862316997529"
    },
    {
        "index":150,
        "id":"3258",
        "timezone":"America\/Los_Angeles",
        "name":"Vons",
        "url":"https:\/\/local.vons.com\/ca\/montebello\/804-beverly-blvd.html",
        "address":"804 Beverly Blvd",
        "city":"Montebello",
        "state":"CA",
        "zip":"90640",
        "latitude":"34.0200927",
        "longitude":"-118.1060371"
    },
    {
        "index":151,
        "id":"3263",
        "timezone":"America\/Los_Angeles",
        "name":"Vons",
        "url":"https:\/\/local.vons.com\/ca\/los-angeles\/1342-n-alvarado-st.html",
        "address":"1342 N Alvarado St",
        "city":"Los Angeles",
        "state":"CA",
        "zip":"90026",
        "latitude":"34.079517557209606",
        "longitude":"-118.26126073068849"
    },
    {
        "index":152,
        "id":"2665",
        "timezone":"America\/Los_Angeles",
        "name":"Vons",
        "url":"https:\/\/local.vons.com\/ca\/los-angeles\/4520-sunset-blvd.html",
        "address":"4520 Sunset Blvd",
        "city":"Los Angeles",
        "state":"CA",
        "zip":"90027",
        "latitude":"34.0970657",
        "longitude":"-118.287983"
    },
    {
        "index":153,
        "id":"2261",
        "timezone":"America\/Los_Angeles",
        "name":"Vons",
        "url":"https:\/\/local.vons.com\/ca\/los-angeles\/3461-w-3rd-st.html",
        "address":"3461 W 3rd St",
        "city":"Los Angeles",
        "state":"CA",
        "zip":"90020",
        "latitude":"34.069960270057045",
        "longitude":"-118.29088389873505"
    },
    {
        "index":154,
        "id":"2056",
        "timezone":"America\/Los_Angeles",
        "name":"Vons",
        "url":"https:\/\/local.vons.com\/ca\/covina\/932-e-badillo-st.html",
        "address":"932 E Badillo St",
        "city":"Covina",
        "state":"CA",
        "zip":"91724",
        "latitude":"34.08518490136493",
        "longitude":"-117.87151371719665"
    },
    {
        "index":155,
        "id":"1674",
        "timezone":"America\/Los_Angeles",
        "name":"Vons",
        "url":"https:\/\/local.vons.com\/ca\/studio-city\/4033-laurel-canyon-blvd.html",
        "address":"4033 Laurel Canyon Blvd",
        "city":"Studio City",
        "state":"CA",
        "zip":"91604",
        "latitude":"34.14456494702308",
        "longitude":"-118.39612305164331"
    },
    {
        "index":156,
        "id":"3083",
        "timezone":"America\/Los_Angeles",
        "name":"Vons",
        "url":"https:\/\/local.vons.com\/ca\/burbank\/301-n-pass-ave.html",
        "address":"301 N Pass Ave",
        "city":"Burbank",
        "state":"CA",
        "zip":"91505",
        "latitude":"34.15486701971058",
        "longitude":"-118.34655852648211"
    },
    {
        "index":157,
        "id":"3161",
        "timezone":"America\/Los_Angeles",
        "name":"Vons",
        "url":"https:\/\/local.vons.com\/ca\/mission-hills\/10321-sepulveda-blvd.html",
        "address":"10321 Sepulveda Blvd",
        "city":"Mission Hills",
        "state":"CA",
        "zip":"91345",
        "latitude":"34.258046952696034",
        "longitude":"-118.46837842883605"
    },
    {
        "index":158,
        "id":"2066",
        "timezone":"America\/Los_Angeles",
        "name":"Vons",
        "url":"https:\/\/local.vons.com\/ca\/tarzana\/18439-ventura-blvd.html",
        "address":"18439 Ventura Blvd",
        "city":"Tarzana",
        "state":"CA",
        "zip":"91356",
        "latitude":"34.16900002121255",
        "longitude":"-118.53419915602899"
    },
    {
        "index":159,
        "id":"2268",
        "timezone":"America\/Los_Angeles",
        "name":"Vons",
        "url":"https:\/\/local.vons.com\/ca\/los-angeles\/1430-s-fairfax-ave.html",
        "address":"1430 S Fairfax Ave",
        "city":"Los Angeles",
        "state":"CA",
        "zip":"90019",
        "latitude":"34.05051526037608",
        "longitude":"-118.36625526745911"
    },
    {
        "index":160,
        "id":"2034",
        "timezone":"America\/Los_Angeles",
        "name":"Vons",
        "url":"https:\/\/local.vons.com\/ca\/sylmar\/13730-foothill-blvd.html",
        "address":"13730 Foothill Blvd",
        "city":"Sylmar",
        "state":"CA",
        "zip":"91342",
        "latitude":"34.308360132026635",
        "longitude":"-118.43315563254089"
    },
    {
        "index":161,
        "id":"2100",
        "timezone":"America\/Los_Angeles",
        "name":"Vons",
        "url":"https:\/\/local.vons.com\/ca\/los-angeles\/9860-national-blvd.html",
        "address":"9860 National Blvd",
        "city":"Los Angeles",
        "state":"CA",
        "zip":"90034",
        "latitude":"34.03021944279835",
        "longitude":"-118.40143452513122"
    },
    {
        "index":162,
        "id":"2077",
        "timezone":"America\/Los_Angeles",
        "name":"Vons",
        "url":"https:\/\/local.vons.com\/ca\/los-angeles\/3118-s-sepulveda-blvd.html",
        "address":"3118 S Sepulveda Blvd",
        "city":"Los Angeles",
        "state":"CA",
        "zip":"90034",
        "latitude":"34.0266323",
        "longitude":"-118.4270011"
    },
    {
        "index":163,
        "id":"2002",
        "timezone":"America\/Los_Angeles",
        "name":"Vons",
        "url":"https:\/\/local.vons.com\/ca\/santa-monica\/1311-wilshire-blvd.html",
        "address":"1311 Wilshire Blvd",
        "city":"Santa Monica",
        "state":"CA",
        "zip":"90403",
        "latitude":"34.026506071313655",
        "longitude":"-118.48990588785"
    },
    {
        "index":164,
        "id":"2266",
        "timezone":"America\/Los_Angeles",
        "name":"Vons",
        "url":"https:\/\/local.vons.com\/ca\/pacific-palisades\/17380-sunset-blvd.html",
        "address":"17380 Sunset Blvd",
        "city":"Pacific Palisades",
        "state":"CA",
        "zip":"90272",
        "latitude":"34.0392650429846",
        "longitude":"-118.55401398095093"
    },
    {
        "index":165,
        "id":"3519",
        "timezone":"America\/Los_Angeles",
        "name":"Vons",
        "url":"https:\/\/local.vons.com\/ca\/long-beach\/4550-atlantic-ave.html",
        "address":"4550 Atlantic Ave",
        "city":"Long Beach",
        "state":"CA",
        "zip":"90807",
        "latitude":"33.8411779",
        "longitude":"-118.1829844"
    },
    {
        "index":166,
        "id":"2283",
        "timezone":"America\/Los_Angeles",
        "name":"Vons",
        "url":"https:\/\/local.vons.com\/ca\/san-pedro\/1221-s-gaffey-st.html",
        "address":"1221 S Gaffey St",
        "city":"San Pedro",
        "state":"CA",
        "zip":"90731",
        "latitude":"33.73295061108628",
        "longitude":"-118.29363317820025"
    },
    {
        "index":167,
        "id":"2162",
        "timezone":"America\/Los_Angeles",
        "name":"Vons",
        "url":"https:\/\/local.vons.com\/ca\/san-pedro\/1440-w-25th-st.html",
        "address":"1440 W 25th St",
        "city":"San Pedro",
        "state":"CA",
        "zip":"90732",
        "latitude":"33.722977",
        "longitude":"-118.3108107"
    },
    {
        "index":168,
        "id":"3517",
        "timezone":"America\/Los_Angeles",
        "name":"Vons",
        "url":"https:\/\/local.vons.com\/ca\/torrance\/24325-crenshaw-blvd.html",
        "address":"24325 Crenshaw Blvd",
        "city":"Torrance",
        "state":"CA",
        "zip":"90505",
        "latitude":"33.80497831497799",
        "longitude":"-118.33045182090149"
    },
    {
        "index":169,
        "id":"1625",
        "timezone":"America\/Los_Angeles",
        "name":"Vons",
        "url":"https:\/\/local.vons.com\/ca\/gardena\/1260-w-redondo-beach-blvd.html",
        "address":"1260 W Redondo Beach Blvd",
        "city":"Gardena",
        "state":"CA",
        "zip":"90247",
        "latitude":"33.8908948",
        "longitude":"-118.298018"
    },
    {
        "index":170,
        "id":"2232",
        "timezone":"America\/Los_Angeles",
        "name":"Vons",
        "url":"https:\/\/local.vons.com\/ca\/torrance\/4705-torrance-blvd.html",
        "address":"4705 Torrance Blvd",
        "city":"Torrance",
        "state":"CA",
        "zip":"90503",
        "latitude":"33.8382804",
        "longitude":"-118.3636408"
    },
    {
        "index":171,
        "id":"1623",
        "timezone":"America\/Los_Angeles",
        "name":"Vons",
        "url":"https:\/\/local.vons.com\/ca\/redondo-beach\/4001-inglewood-ave.html",
        "address":"4001 Inglewood Ave",
        "city":"Redondo Beach",
        "state":"CA",
        "zip":"90278",
        "latitude":"33.8930502",
        "longitude":"-118.3625251"
    },
    {
        "index":172,
        "id":"2108",
        "timezone":"America\/Los_Angeles",
        "name":"Vons",
        "url":"https:\/\/local.vons.com\/ca\/redondo-beach\/1212-beryl-st.html",
        "address":"1212 Beryl St",
        "city":"Redondo Beach",
        "state":"CA",
        "zip":"90277",
        "latitude":"33.8539431",
        "longitude":"-118.3802574"
    },
    {
        "index":173,
        "id":"2273",
        "timezone":"America\/Los_Angeles",
        "name":"Vons",
        "url":"https:\/\/local.vons.com\/ca\/redondo-beach\/245-palos-verdes-blvd.html",
        "address":"245 Palos Verdes Blvd",
        "city":"Redondo Beach",
        "state":"CA",
        "zip":"90277",
        "latitude":"33.81632522419448",
        "longitude":"-118.38598819021301"
    },
    {
        "index":174,
        "id":"2110",
        "timezone":"America\/Los_Angeles",
        "name":"Vons",
        "url":"https:\/\/local.vons.com\/ca\/hermosa-beach\/715-pier-ave.html",
        "address":"715 Pier Ave",
        "city":"Hermosa Beach",
        "state":"CA",
        "zip":"90254",
        "latitude":"33.865945767483645",
        "longitude":"-118.39444935321808"
    },
    {
        "index":175,
        "id":"2275",
        "timezone":"America\/Los_Angeles",
        "name":"Vons",
        "url":"https:\/\/local.vons.com\/ca\/manhattan-beach\/410-manhattan-beach-blvd.html",
        "address":"410 Manhattan Beach Blvd",
        "city":"Manhattan Beach",
        "state":"CA",
        "zip":"90266",
        "latitude":"33.88509129415915",
        "longitude":"-118.40786168280333"
    },
    {
        "index":176,
        "id":"2502",
        "timezone":"America\/Los_Angeles",
        "name":"Vons",
        "url":"https:\/\/local.vons.com\/ca\/inglewood\/500-e-manchester-blvd.html",
        "address":"500 E Manchester Blvd",
        "city":"Inglewood",
        "state":"CA",
        "zip":"90301",
        "latitude":"33.96032342497343",
        "longitude":"-118.34913153439331"
    },
    {
        "index":177,
        "id":"4021",
        "timezone":"America\/Los_Angeles",
        "name":"Vons",
        "url":"https:\/\/local.vons.com\/ca\/los-angeles\/6571-w-80th-st.html",
        "address":"6571 W 80th St",
        "city":"Los Angeles",
        "state":"CA",
        "zip":"90045",
        "latitude":"33.96929441140654",
        "longitude":"-118.40543681289748"
    },
    {
        "index":178,
        "id":"2270",
        "timezone":"America\/Los_Angeles",
        "name":"Vons",
        "url":"https:\/\/local.vons.com\/ca\/los-angeles\/4030-centinela-ave.html",
        "address":"4030 Centinela Ave",
        "city":"Los Angeles",
        "state":"CA",
        "zip":"90066",
        "latitude":"33.9991537",
        "longitude":"-118.4289707"
    },
    {
        "index":179,
        "id":"2390",
        "timezone":"America\/Los_Angeles",
        "name":"Vons",
        "url":"https:\/\/local.vons.com\/nv\/las-vegas\/475-e-windmill-ln.html",
        "address":"475 E Windmill Ln",
        "city":"Las Vegas",
        "state":"NV",
        "zip":"89123",
        "latitude":"36.0413188",
        "longitude":"-115.1525078"
    },
    {
        "index":180,
        "id":"1795",
        "timezone":"America\/Los_Angeles",
        "name":"Vons",
        "url":"https:\/\/local.vons.com\/nv\/henderson\/2511-anthem-village.html",
        "address":"2511 Anthem Village",
        "city":"Henderson",
        "state":"NV",
        "zip":"89052",
        "latitude":"35.978384177593064",
        "longitude":"-115.09995372625781"
    },
    {
        "index":181,
        "id":"2511",
        "timezone":"America\/Los_Angeles",
        "name":"Vons",
        "url":"https:\/\/local.vons.com\/nv\/henderson\/2667-e-windmill-pkwy.html",
        "address":"2667 E Windmill Pkwy",
        "city":"Henderson",
        "state":"NV",
        "zip":"89074",
        "latitude":"36.041438675247974",
        "longitude":"-115.10283445899961"
    },
    {
        "index":182,
        "id":"2396",
        "timezone":"America\/Los_Angeles",
        "name":"Vons",
        "url":"https:\/\/local.vons.com\/nv\/las-vegas\/1131-e-tropicana-ave.html",
        "address":"1131 E Tropicana Ave",
        "city":"Las Vegas",
        "state":"NV",
        "zip":"89119",
        "latitude":"36.099983042941055",
        "longitude":"-115.13777445767212"
    },
    {
        "index":183,
        "id":"2614",
        "timezone":"America\/Los_Angeles",
        "name":"Vons",
        "url":"https:\/\/local.vons.com\/nv\/las-vegas\/7405-s-durango-dr.html",
        "address":"7405 S Durango Dr",
        "city":"Las Vegas",
        "state":"NV",
        "zip":"89113",
        "latitude":"36.0538471153025",
        "longitude":"-115.28138081415558"
    },
    {
        "index":184,
        "id":"1963",
        "timezone":"America\/Los_Angeles",
        "name":"Vons",
        "url":"https:\/\/local.vons.com\/nv\/las-vegas\/1155-e-twain-ave.html",
        "address":"1155 E Twain Ave",
        "city":"Las Vegas",
        "state":"NV",
        "zip":"89169",
        "latitude":"36.12097823970644",
        "longitude":"-115.1391267552948"
    },
    {
        "index":185,
        "id":"2615",
        "timezone":"America\/Los_Angeles",
        "name":"Vons",
        "url":"https:\/\/local.vons.com\/nv\/henderson\/45-e-horizon-ridge-pkwy.html",
        "address":"45 E Horizon Ridge Pkwy",
        "city":"Henderson",
        "state":"NV",
        "zip":"89002",
        "latitude":"36.009046721185626",
        "longitude":"-114.99318361719665"
    },
    {
        "index":186,
        "id":"2613",
        "timezone":"America\/Los_Angeles",
        "name":"Vons",
        "url":"https:\/\/local.vons.com\/nv\/las-vegas\/6450-sky-pointe-dr.html",
        "address":"6450 Sky Pointe Dr",
        "city":"Las Vegas",
        "state":"NV",
        "zip":"89131",
        "latitude":"36.280360515449",
        "longitude":"-115.26144953104443"
    }
]