{
"type": "FeatureCollection",
"features": [
{ "type": "Feature", "properties": { "name": "Gillette Stadium", "city": "FOXBORO", "team": "New England Revolution", "sports_league": "mls_stadiums" }, "geometry": { "type": "Point", "coordinates": [ -71.264357162145402, 42.0909159218699 ] } },
{ "type": "Feature", "properties": { "name": "Nissan Stadium", "city": "NASHVILLE", "team": "Nashville SC", "sports_league": "mls_stadiums" }, "geometry": { "type": "Point", "coordinates": [ -86.771280000174599, 36.1664499997283 ] } },
{ "type": "Feature", "properties": { "name": "Soldier Field", "city": "CHICAGO", "team": "Chicago Fire FC", "sports_league": "mls_stadiums" }, "geometry": { "type": "Point", "coordinates": [ -87.616698591558304, 41.862357299189298 ] } },
{ "type": "Feature", "properties": { "name": "Lumen Field", "city": "SEATTLE", "team": "Seattle Sounders", "sports_league": "mls_stadiums" }, "geometry": { "type": "Point", "coordinates": [ -122.331561861786994, 47.595170487699498 ] } },
{ "type": "Feature", "properties": { "name": "Children's Mercy Park", "city": "KANSAS CITY", "team": "Sporting Kansas City", "sports_league": "mls_stadiums" }, "geometry": { "type": "Point", "coordinates": [ -94.823298846223494, 39.121612228930204 ] } },
{ "type": "Feature", "properties": { "name": "Red Bull Arena", "city": "HARRISON", "team": "New York Red Bulls", "sports_league": "mls_stadiums" }, "geometry": { "type": "Point", "coordinates": [ -74.150269443190496, 40.736914681053896 ] } },
{ "type": "Feature", "properties": { "name": "Dick's Sporting Goods Park", "city": "COMMERCE CITY", "team": "Colorado Rapids", "sports_league": "mls_stadiums" }, "geometry": { "type": "Point", "coordinates": [ -104.891844174745003, 39.805643644181899 ] } },
{ "type": "Feature", "properties": { "name": "Mapfre Stadium", "city": "COLUMBUS", "team": "Columbus Crew SC", "sports_league": "mls_stadiums" }, "geometry": { "type": "Point", "coordinates": [ -82.991049971261901, 40.009550005917902 ] } },
{ "type": "Feature", "properties": { "name": "Toyota Stadium", "city": "FRISCO", "team": "FC Dallas", "sports_league": "mls_stadiums" }, "geometry": { "type": "Point", "coordinates": [ -96.835221790749998, 33.154332218747399 ] } },
{ "type": "Feature", "properties": { "name": "Dignity Health Sports Park", "city": "CARSON", "team": "LA Galaxy", "sports_league": "mls_stadiums" }, "geometry": { "type": "Point", "coordinates": [ -118.261112572350001, 33.864286712055801 ] } },
{ "type": "Feature", "properties": { "name": "Rio Tinto Stadium", "city": "SANDY", "team": "Real Salt Lake", "sports_league": "mls_stadiums" }, "geometry": { "type": "Point", "coordinates": [ -111.893327129309995, 40.582912169081801 ] } },
{ "type": "Feature", "properties": { "name": "Subaru Park", "city": "CHESTER", "team": "Philadelphia Union", "sports_league": "mls_stadiums" }, "geometry": { "type": "Point", "coordinates": [ -75.378515234881306, 39.832779173069703 ] } },
{ "type": "Feature", "properties": { "name": "BMO Field", "city": "TORONTO", "team": "Toronto FC", "sports_league": "mls_stadiums" }, "geometry": { "type": "Point", "coordinates": [ -79.418593153807393, 43.633182509178802 ] } },
{ "type": "Feature", "properties": { "name": "Paypal Park", "city": "SAN JOSE", "team": "San Jose Earthquakes", "sports_league": "mls_stadiums" }, "geometry": { "type": "Point", "coordinates": [ -121.924857000155001, 37.3511579999509 ] } },
{ "type": "Feature", "properties": { "name": "Providence Park", "city": "PORTLAND", "team": "Portland Timbers", "sports_league": "mls_stadiums" }, "geometry": { "type": "Point", "coordinates": [ -122.691804045021996, 45.521560480790797 ] } },
{ "type": "Feature", "properties": { "name": "BC Place", "city": "VANCOUVER", "team": "Vancouver Whitecaps FC", "sports_league": "mls_stadiums" }, "geometry": { "type": "Point", "coordinates": [ -123.112021277123006, 49.276637232970799 ] } },
{ "type": "Feature", "properties": { "name": "Yankee Stadium", "city": "BRONX", "team": "New York City FC", "sports_league": "mls_stadiums" }, "geometry": { "type": "Point", "coordinates": [ -73.926240000347406, 40.829630000165899 ] } },
{ "type": "Feature", "properties": { "name": "Saputo Stadium", "city": "MONTREAL", "team": "CF Montreal", "sports_league": "mls_stadiums" }, "geometry": { "type": "Point", "coordinates": [ -73.552653410940195, 45.563093051036397 ] } },
{ "type": "Feature", "properties": { "name": "BBVA Compass Stadium", "city": "HOUSTON", "team": "Houston Dynamo FC", "sports_league": "mls_stadiums" }, "geometry": { "type": "Point", "coordinates": [ -95.352060000092806, 29.752324999922902 ] } },
{ "type": "Feature", "properties": { "name": "Mercedes-Benz Stadium", "city": "ATLANTA", "team": "Atlanta United FC", "sports_league": "mls_stadiums" }, "geometry": { "type": "Point", "coordinates": [ -84.401178451740805, 33.755668504947899 ] } },
{ "type": "Feature", "properties": { "name": "Exploria Stadium", "city": "ORLANDO", "team": "Orlando City SC", "sports_league": "mls_stadiums" }, "geometry": { "type": "Point", "coordinates": [ -81.389071637286506, 28.541105171248802 ] } },
{ "type": "Feature", "properties": { "name": "Allianz Field", "city": "SAINT PAUL", "team": "Minnesota United FC", "sports_league": "mls_stadiums" }, "geometry": { "type": "Point", "coordinates": [ -93.165181000151193, 44.952689000133802 ] } },
{ "type": "Feature", "properties": { "name": "Banc of California Stadium", "city": "LOS ANGELES", "team": "Los Angeles FC", "sports_league": "mls_stadiums" }, "geometry": { "type": "Point", "coordinates": [ -118.284078945819999, 34.012783446061299 ] } },
{ "type": "Feature", "properties": { "name": "Audi Field", "city": "WASHINGTON", "team": "DC United", "sports_league": "mls_stadiums" }, "geometry": { "type": "Point", "coordinates": [ -77.012917517926894, 38.868541178795603 ] } },
{ "type": "Feature", "properties": { "name": "Drive Pink Stadium", "city": "FORT LAUDERDALE", "team": "Inter Miami CF", "sports_league": "mls_stadiums" }, "geometry": { "type": "Point", "coordinates": [ -80.161059885473307, 26.193146938244301 ] } },
{ "type": "Feature", "properties": { "name": "TQL Stadium", "city": "CINCINNATI", "team": "FC Cincinnati", "sports_league": "mls_stadiums" }, "geometry": { "type": "Point", "coordinates": [ -84.522784440984296, 39.110825441972104 ] } },
{ "type": "Feature", "properties": { "name": "Q2 Stadium", "city": "AUSTIN", "team": "Austin FC", "sports_league": "mls_stadiums" }, "geometry": { "type": "Point", "coordinates": [ -97.719357889456901, 30.388026387020702 ] } }
]
}
