{
"type": "FeatureCollection",
"features": [
{ "type": "Feature", "properties": { "name": "American Airlines Arena", "city": "Miami", "team": "Miami Heat", "sports_league": "NBA" }, "geometry": { "type": "Point", "coordinates": [ -80.187579962944895, 25.781169953430702 ] } },
{ "type": "Feature", "properties": { "name": "ARCO Arena", "city": "Sacramento", "team": "Sacramento Kings", "sports_league": "NBA" }, "geometry": { "type": "Point", "coordinates": [ -121.518689968767006, 38.649319926573398 ] } },
{ "type": "Feature", "properties": { "name": "EnergySolutions Arena", "city": "Salt Lake City", "team": "Utah Jazz", "sports_league": "NBA" }, "geometry": { "type": "Point", "coordinates": [ -111.901025101426995, 40.768205528862097 ] } },
{ "type": "Feature", "properties": { "name": "Fed Ex Forum", "city": "Memphis", "team": "Memphis Gizzlies", "sports_league": "NBA" }, "geometry": { "type": "Point", "coordinates": [ -90.051299932945497, 35.138100077156899 ] } },
{ "type": "Feature", "properties": { "name": "Quicken Loans Arena", "city": "Cleveland", "team": "Cleveland Cavaliers", "sports_league": "NBA" }, "geometry": { "type": "Point", "coordinates": [ -81.688699953140301, 41.496479936499902 ] } },
{ "type": "Feature", "properties": { "name": "Oracle Arena", "city": "Oakland", "team": "Golden State Warriors", "sports_league": "NBA" }, "geometry": { "type": "Point", "coordinates": [ -122.202170007739994, 37.751309923913901 ] } },
{ "type": "Feature", "properties": { "name": "New Orleans Arena", "city": "New Orleans", "team": "New Orleans Hornets", "sports_league": "NBA" }, "geometry": { "type": "Point", "coordinates": [ -90.082030002882306, 29.9488900014724 ] } },
{ "type": "Feature", "properties": { "name": "Rose Garden", "city": "Portland", "team": "Portland Trailblazers", "sports_league": "NBA" }, "geometry": { "type": "Point", "coordinates": [ -122.666920079098006, 45.531650068296102 ] } },
{ "type": "Feature", "properties": { "name": "Amway Arena", "city": "Orlando", "team": "Orlando Magic", "sports_league": "NBA" }, "geometry": { "type": "Point", "coordinates": [ -81.386359994218296, 28.54882995294 ] } },
{ "type": "Feature", "properties": { "name": "Bradley Center", "city": "Milwaukee", "team": "Milwaukee Bucks", "sports_league": "NBA" }, "geometry": { "type": "Point", "coordinates": [ -87.917359961992602, 43.043460002776897 ] } },
{ "type": "Feature", "properties": { "name": "American Airlines Center", "city": "Dallas", "team": "Dallas Mavericks", "sports_league": "NBA" }, "geometry": { "type": "Point", "coordinates": [ -96.810430005040601, 32.790620046078303 ] } },
{ "type": "Feature", "properties": { "name": "TD Garden Center", "city": "Boston", "team": "Boston Celtics", "sports_league": "NBA" }, "geometry": { "type": "Point", "coordinates": [ -71.062059950006599, 42.366529918720801 ] } },
{ "type": "Feature", "properties": { "name": "Pepsi Center", "city": "Denver", "team": "Denver Nuggets", "sports_league": "NBA" }, "geometry": { "type": "Point", "coordinates": [ -105.007507696523007, 39.7485294086053 ] } },
{ "type": "Feature", "properties": { "name": "Philips Arena", "city": "Atlanta", "team": "Atlanta Hawks", "sports_league": "NBA" }, "geometry": { "type": "Point", "coordinates": [ -84.396309983918599, 33.757299967119799 ] } },
{ "type": "Feature", "properties": { "name": "United Center", "city": "Chicago", "team": "Chicago Bulls", "sports_league": "NBA" }, "geometry": { "type": "Point", "coordinates": [ -87.674179981121199, 41.880590059983298 ] } },
{ "type": "Feature", "properties": { "name": "Wachovia Center", "city": "Philadelphia", "team": "Philadelphia 76ers", "sports_league": "NBA" }, "geometry": { "type": "Point", "coordinates": [ -75.172180059561995, 39.900969987574904 ] } },
{ "type": "Feature", "properties": { "name": "IZOD Center", "city": "East Rutherfor", "team": "New Jersey Nets", "sports_league": "NBA" }, "geometry": { "type": "Point", "coordinates": [ -74.067669958102002, 40.811629958455903 ] } },
{ "type": "Feature", "properties": { "name": "Madison Square Garden", "city": "New York", "team": "New York Knicks", "sports_league": "NBA" }, "geometry": { "type": "Point", "coordinates": [ -73.993779957279202, 40.750599976907402 ] } },
{ "type": "Feature", "properties": { "name": "Verizon Center", "city": "Washington", "team": "Washington Wizards", "sports_league": "NBA" }, "geometry": { "type": "Point", "coordinates": [ -77.020980072472398, 38.898379978952903 ] } },
{ "type": "Feature", "properties": { "name": "Staples Center", "city": "Los Angeles", "team": "Los Angeles Lakers, Clipppers", "sports_league": "NBA" }, "geometry": { "type": "Point", "coordinates": [ -118.267159936181997, 34.043210054200699 ] } },
{ "type": "Feature", "properties": { "name": "Target Center", "city": "Minneapolis", "team": "Minnesota Timberwolves", "sports_league": "NBA" }, "geometry": { "type": "Point", "coordinates": [ -93.276090016640893, 44.9794400286345 ] } },
{ "type": "Feature", "properties": { "name": "US Airways Center", "city": "Phoenix", "team": "Phoenix Suns", "sports_league": "NBA" }, "geometry": { "type": "Point", "coordinates": [ -112.07125003646, 33.445999921459197 ] } },
{ "type": "Feature", "properties": { "name": "Time Warner Cable Arena", "city": "Charlotte", "team": "Charlotte Bobcats", "sports_league": "NBA" }, "geometry": { "type": "Point", "coordinates": [ -80.839989962166996, 35.223729940384501 ] } },
{ "type": "Feature", "properties": { "name": "Conseco Fieldhouse", "city": "Indianapolis", "team": "Indiana Pacers", "sports_league": "NBA" }, "geometry": { "type": "Point", "coordinates": [ -86.155569976673107, 39.764010016349197 ] } },
{ "type": "Feature", "properties": { "name": "Toyota Center (Houston)", "city": "Houston", "team": "Houston Rockets", "sports_league": "NBA" }, "geometry": { "type": "Point", "coordinates": [ -95.362180046372004, 29.750780019782098 ] } },
{ "type": "Feature", "properties": { "name": "Palace of Auburn Hills", "city": "Auburn Hills", "team": "Detroit Pistons", "sports_league": "NBA" }, "geometry": { "type": "Point", "coordinates": [ -83.244669947460096, 42.697209932692303 ] } },
{ "type": "Feature", "properties": { "name": "AT&T Center", "city": "San Antonio", "team": "San Antonio Spurs", "sports_league": "NBA" }, "geometry": { "type": "Point", "coordinates": [ -98.437659926564294, 29.427029996237401 ] } },
{ "type": "Feature", "properties": { "name": "Ford Center", "city": "Oklahoma City", "team": "Oklahoma City Thunder", "sports_league": "NBA" }, "geometry": { "type": "Point", "coordinates": [ -97.514829934054205, 35.463469987449997 ] } },
{ "type": "Feature", "properties": { "name": "Air Canada Centre", "city": "Toronto", "team": "Toronto Raptors", "sports_league": "NBA" }, "geometry": { "type": "Point", "coordinates": [ -79.379023537606102, 43.6434154743447 ] } }
]
}
