{
"type": "FeatureCollection",
"features": [
{ "type": "Feature", "properties": { "name": "State Farm Stadium", "city": "Glendale", "team": "Arizona Cardinals", "sports_league": "NFL" }, "geometry": { "type": "Point", "coordinates": [ -112.186270000030007, 33.538610000019901 ] } },
{ "type": "Feature", "properties": { "name": "Mercedes-Benz Stadium", "city": "Atlanta", "team": "Atlanta Falcons", "sports_league": "NFL" }, "geometry": { "type": "Point", "coordinates": [ -84.391110000187396, 33.748310000003599 ] } },
{ "type": "Feature", "properties": { "name": "M&T Bank Stadium", "city": "Baltimore", "team": "Baltimore Ravens", "sports_league": "NFL" }, "geometry": { "type": "Point", "coordinates": [ -76.609259999555306, 39.290580000238798 ] } },
{ "type": "Feature", "properties": { "name": "New Era Field", "city": "Orchard Park", "team": "Buffalo Bills", "sports_league": "NFL" }, "geometry": { "type": "Point", "coordinates": [ -78.743880000120001, 42.767179999903099 ] } },
{ "type": "Feature", "properties": { "name": "Bank of America Stadium", "city": "Charlotte", "team": "Carolina Panthers", "sports_league": "NFL" }, "geometry": { "type": "Point", "coordinates": [ -80.837960000296306, 35.222859999650403 ] } },
{ "type": "Feature", "properties": { "name": "Soldier Field", "city": "Chicago", "team": "Chicago Bears", "sports_league": "NFL" }, "geometry": { "type": "Point", "coordinates": [ -87.632450000296402, 41.884250000107102 ] } },
{ "type": "Feature", "properties": { "name": "Paul Brown Stadium", "city": "Cincinnati", "team": "Cincinnati Bengals", "sports_league": "NFL" }, "geometry": { "type": "Point", "coordinates": [ -84.456890000148107, 39.161999999858203 ] } },
{ "type": "Feature", "properties": { "name": "FirstEnergy Stadium", "city": "Cleveland", "team": "Cleveland Browns", "sports_league": "NFL" }, "geometry": { "type": "Point", "coordinates": [ -81.690739999769093, 41.5047300002011 ] } },
{ "type": "Feature", "properties": { "name": "AT&T Stadium", "city": "Arlington", "team": "Dallas Cowboys", "sports_league": "NFL" }, "geometry": { "type": "Point", "coordinates": [ -97.107720000037801, 32.735599999636001 ] } },
{ "type": "Feature", "properties": { "name": "Broncos Stadium at Mile High", "city": "Denver", "team": "Denver Broncos", "sports_league": "NFL" }, "geometry": { "type": "Point", "coordinates": [ -104.992020000384997, 39.740010000257101 ] } },
{ "type": "Feature", "properties": { "name": "Ford Field", "city": "Detroit", "team": "Detroit Lions", "sports_league": "NFL" }, "geometry": { "type": "Point", "coordinates": [ -83.048000000001906, 42.331679999875597 ] } },
{ "type": "Feature", "properties": { "name": "Lambeau Field", "city": "Green Bay", "team": "Green Bay Packers", "sports_league": "NFL" }, "geometry": { "type": "Point", "coordinates": [ -88.010009999901897, 44.5129999996809 ] } },
{ "type": "Feature", "properties": { "name": "NRG Stadium", "city": "Houston", "team": "Houston Texans", "sports_league": "NFL" }, "geometry": { "type": "Point", "coordinates": [ -95.369679999843299, 29.7605799999114 ] } },
{ "type": "Feature", "properties": { "name": "Lucas Oil Stadium", "city": "Indianapolis", "team": "Indianapolis Colts", "sports_league": "NFL" }, "geometry": { "type": "Point", "coordinates": [ -86.149960000351399, 39.766910000268098 ] } },
{ "type": "Feature", "properties": { "name": "TIAA Bank Field", "city": "Jacksonville", "team": "Jacksonville Jaguars", "sports_league": "NFL" }, "geometry": { "type": "Point", "coordinates": [ -81.6562199999684, 30.331470000203499 ] } },
{ "type": "Feature", "properties": { "name": "Arrowhead Stadium", "city": "Kansas City", "team": "Kansas City Chiefs", "sports_league": "NFL" }, "geometry": { "type": "Point", "coordinates": [ -94.583109999603096, 39.103449999889598 ] } },
{ "type": "Feature", "properties": { "name": "StubHub Center", "city": "Carson", "team": "Los Angeles Chargers", "sports_league": "NFL" }, "geometry": { "type": "Point", "coordinates": [ -118.262089999566001, 33.831610000072402 ] } },
{ "type": "Feature", "properties": { "name": "Los Angeles Memorial Coliseum", "city": "Los Angeles", "team": "Los Angeles Rams", "sports_league": "NFL" }, "geometry": { "type": "Point", "coordinates": [ -118.245320000110993, 34.053489999637797 ] } },
{ "type": "Feature", "properties": { "name": "Hard Rock Stadium", "city": "Miami Gardens", "team": "Miami Dolphins", "sports_league": "NFL" }, "geometry": { "type": "Point", "coordinates": [ -80.223240000120597, 25.9274899998337 ] } },
{ "type": "Feature", "properties": { "name": "U.S. Bank Stadium", "city": "Minneapolis", "team": "Minnesota Vikings", "sports_league": "NFL" }, "geometry": { "type": "Point", "coordinates": [ -93.264940000312507, 44.9790200002452 ] } },
{ "type": "Feature", "properties": { "name": "Gillette Stadium", "city": "Foxborough", "team": "New England Patriots", "sports_league": "NFL" }, "geometry": { "type": "Point", "coordinates": [ -71.248389999635606, 42.065869999955403 ] } },
{ "type": "Feature", "properties": { "name": "Mercedes-Benz Superdome", "city": "New Orleans", "team": "New Orleans Saints", "sports_league": "NFL" }, "geometry": { "type": "Point", "coordinates": [ -90.077749999965903, 29.9536999996267 ] } },
{ "type": "Feature", "properties": { "name": "MetLife Stadium", "city": "East Rutherford", "team": "New York Giants", "sports_league": "NFL" }, "geometry": { "type": "Point", "coordinates": [ -74.098349999804498, 40.834549999836902 ] } },
{ "type": "Feature", "properties": { "name": "MetLife Stadium", "city": "East Rutherford", "team": "New York Jets", "sports_league": "NFL" }, "geometry": { "type": "Point", "coordinates": [ -74.098349999804498, 40.834549999836902 ] } },
{ "type": "Feature", "properties": { "name": "Oaklandâ€“Alameda County Coliseum", "city": "Oakland", "team": "Oakland Raiders", "sports_league": "NFL" }, "geometry": { "type": "Point", "coordinates": [ -122.273069999727994, 37.8050800001946 ] } },
{ "type": "Feature", "properties": { "name": "Lincoln Financial Field", "city": "Philadelphia", "team": "Philadelphia Eagles", "sports_league": "NFL" }, "geometry": { "type": "Point", "coordinates": [ -75.162179999888906, 39.9522199998612 ] } },
{ "type": "Feature", "properties": { "name": "Heinz Field", "city": "Pittsburgh", "team": "Pittsburgh Steelers", "sports_league": "NFL" }, "geometry": { "type": "Point", "coordinates": [ -79.997339999852898, 40.438510000018802 ] } },
{ "type": "Feature", "properties": { "name": "Levi's Stadium", "city": "Santa Clara", "team": "San Francisco 49ers", "sports_league": "NFL" }, "geometry": { "type": "Point", "coordinates": [ -121.955089999570006, 37.355790000085598 ] } },
{ "type": "Feature", "properties": { "name": "CenturyLink Field", "city": "Seattle", "team": "Seattle Seahawks", "sports_league": "NFL" }, "geometry": { "type": "Point", "coordinates": [ -122.329449999809, 47.603569999899598 ] } },
{ "type": "Feature", "properties": { "name": "Raymond James Stadium", "city": "Tampa", "team": "Tampa Bay Buccaneers", "sports_league": "NFL" }, "geometry": { "type": "Point", "coordinates": [ -82.459270000134197, 27.946530000081999 ] } },
{ "type": "Feature", "properties": { "name": "Nissan Stadium", "city": "Nashville", "team": "Tennessee Titans", "sports_league": "NFL" }, "geometry": { "type": "Point", "coordinates": [ -86.778160000204593, 36.167839999640201 ] } },
{ "type": "Feature", "properties": { "name": "FedExField", "city": "Landover", "team": "Washington Redskins", "sports_league": "NFL" }, "geometry": { "type": "Point", "coordinates": [ -76.896639999877195, 38.9340000000727 ] } }
]
}
