{
"type": "FeatureCollection",
"features": [
{ "type": "Feature", "properties": { "name": "Honda Center", "city": "Anaheim", "team": "Ducks", "sports_league": "NHL" }, "geometry": { "type": "Point", "coordinates": [ -117.876323544887001, 33.806205460179399 ] } },
{ "type": "Feature", "properties": { "name": "Gila River Arena", "city": "Glendale", "team": "Coyotes", "sports_league": "NHL" }, "geometry": { "type": "Point", "coordinates": [ -112.262032731603995, 33.5302864477651 ] } },
{ "type": "Feature", "properties": { "name": "TD Gardens", "city": "Boston", "team": "Bruins", "sports_league": "NHL" }, "geometry": { "type": "Point", "coordinates": [ -71.062940570673206, 42.365857931988003 ] } },
{ "type": "Feature", "properties": { "name": "First Niagara Center", "city": "Buffalo", "team": "Sabres", "sports_league": "NHL" }, "geometry": { "type": "Point", "coordinates": [ -78.877468677125506, 42.875938097172899 ] } },
{ "type": "Feature", "properties": { "name": "Scotiabank Saddledome", "city": "Calgary", "team": "Flames", "sports_league": "NHL" }, "geometry": { "type": "Point", "coordinates": [ -114.051412530959993, 51.038193812245296 ] } },
{ "type": "Feature", "properties": { "name": "PNC Arena", "city": "Raleigh", "team": "Hurricanes", "sports_league": "NHL" }, "geometry": { "type": "Point", "coordinates": [ -78.726323902027303, 35.804298172334398 ] } },
{ "type": "Feature", "properties": { "name": "United Center", "city": "Chicago", "team": "Blackhawks", "sports_league": "NHL" }, "geometry": { "type": "Point", "coordinates": [ -87.6744850802869, 41.881254174100903 ] } },
{ "type": "Feature", "properties": { "name": "Pepsi Center", "city": "Denver", "team": "Avalanche", "sports_league": "NHL" }, "geometry": { "type": "Point", "coordinates": [ -105.008011196420995, 39.747373754792299 ] } },
{ "type": "Feature", "properties": { "name": "Nationwide Arena", "city": "Columbus", "team": "Blue Jackets", "sports_league": "NHL" }, "geometry": { "type": "Point", "coordinates": [ -83.006734198593193, 39.968431389176502 ] } },
{ "type": "Feature", "properties": { "name": "American Airlines Center", "city": "Dallas", "team": "Stars", "sports_league": "NHL" }, "geometry": { "type": "Point", "coordinates": [ -96.811280253818694, 32.790063414326902 ] } },
{ "type": "Feature", "properties": { "name": "Joe Louis Arena", "city": "Detroit", "team": "Red Wings", "sports_league": "NHL" }, "geometry": { "type": "Point", "coordinates": [ -83.050373144166699, 42.324741465754599 ] } },
{ "type": "Feature", "properties": { "name": "Rogers Place", "city": "Edmonton", "team": "Oilers", "sports_league": "NHL" }, "geometry": { "type": "Point", "coordinates": [ -113.496129963105005, 53.5462711118141 ] } },
{ "type": "Feature", "properties": { "name": "BB&T Center", "city": "Miami", "team": "Panters", "sports_league": "NHL" }, "geometry": { "type": "Point", "coordinates": [ -80.324415817758094, 26.155802361783898 ] } },
{ "type": "Feature", "properties": { "name": "Staples Center", "city": "Los Angeles", "team": "Kings", "sports_league": "NHL" }, "geometry": { "type": "Point", "coordinates": [ -118.265582397863, 34.043322218021999 ] } },
{ "type": "Feature", "properties": { "name": "Xcel Energy Center", "city": "St.Paul", "team": "Wild", "sports_league": "NHL" }, "geometry": { "type": "Point", "coordinates": [ -93.101074946942205, 44.943895600953603 ] } },
{ "type": "Feature", "properties": { "name": "Bell Centre", "city": "Montreal", "team": "Canadiens", "sports_league": "NHL" }, "geometry": { "type": "Point", "coordinates": [ -73.569544011019303, 45.496939359067298 ] } },
{ "type": "Feature", "properties": { "name": "Bridgestone Arena", "city": "Nashville", "team": "Predators", "sports_league": "NHL" }, "geometry": { "type": "Point", "coordinates": [ -86.779120284870302, 36.160143042918797 ] } },
{ "type": "Feature", "properties": { "name": "Prudential Center", "city": "Newark", "team": "Devils", "sports_league": "NHL" }, "geometry": { "type": "Point", "coordinates": [ -74.170117628663306, 40.733403311023103 ] } },
{ "type": "Feature", "properties": { "name": "Barclays Center", "city": "New York", "team": "Islanders", "sports_league": "NHL" }, "geometry": { "type": "Point", "coordinates": [ -73.976052235927, 40.6834802359298 ] } },
{ "type": "Feature", "properties": { "name": "Madison Square Garden", "city": "New York", "team": "Rangers", "sports_league": "NHL" }, "geometry": { "type": "Point", "coordinates": [ -73.992232961217496, 40.7506852082224 ] } },
{ "type": "Feature", "properties": { "name": "Canadian Tire Centre", "city": "Ottawa", "team": "Senators", "sports_league": "NHL" }, "geometry": { "type": "Point", "coordinates": [ -75.926268830998893, 45.295901428087497 ] } },
{ "type": "Feature", "properties": { "name": "Wells Fargo Center", "city": "Philadelphia", "team": "Flyers", "sports_league": "NHL" }, "geometry": { "type": "Point", "coordinates": [ -75.173507734062099, 39.905252213677102 ] } },
{ "type": "Feature", "properties": { "name": "Consol Energy Center", "city": "Pittsburgh", "team": "Penguins", "sports_league": "NHL" }, "geometry": { "type": "Point", "coordinates": [ -79.990540056782706, 40.438831450304001 ] } },
{ "type": "Feature", "properties": { "name": "SAP Center at San Jose", "city": "San Jose", "team": "Sharks", "sports_league": "NHL" }, "geometry": { "type": "Point", "coordinates": [ -121.900734114927999, 37.332003456679303 ] } },
{ "type": "Feature", "properties": { "name": "Scottrade Center", "city": "St. Louis", "team": "Blues", "sports_league": "NHL" }, "geometry": { "type": "Point", "coordinates": [ -90.2019050046422, 38.625943095824503 ] } },
{ "type": "Feature", "properties": { "name": "Amalie Arena", "city": "Tampa Bay", "team": "Lightning", "sports_league": "NHL" }, "geometry": { "type": "Point", "coordinates": [ -82.452774680268405, 27.943488351303799 ] } },
{ "type": "Feature", "properties": { "name": "Air Canada Centre", "city": "Toronto", "team": "Maple Leafs", "sports_league": "NHL" }, "geometry": { "type": "Point", "coordinates": [ -79.378183245641793, 43.643745022850098 ] } },
{ "type": "Feature", "properties": { "name": "Rogers Arena", "city": "Vancouver", "team": "Canucks", "sports_league": "NHL" }, "geometry": { "type": "Point", "coordinates": [ -123.110314908375997, 49.277910222213599 ] } },
{ "type": "Feature", "properties": { "name": "T-Mobile Arena", "city": "Las Vegas", "team": "Golden Knights", "sports_league": "NHL" }, "geometry": { "type": "Point", "coordinates": [ -115.173177031589006, 36.103587989255097 ] } },
{ "type": "Feature", "properties": { "name": "Verizon Center", "city": "Washington", "team": "Capitals", "sports_league": "NHL" }, "geometry": { "type": "Point", "coordinates": [ -77.020960500279898, 38.897363458086403 ] } },
{ "type": "Feature", "properties": { "name": "MTS Centre", "city": "Winnipeg", "team": "Jets", "sports_league": "NHL" }, "geometry": { "type": "Point", "coordinates": [ -97.144234180717504, 49.8932982129921 ] } }
]
}
