{
"type": "FeatureCollection",
"crs": { "type": "name", "properties": { "name": "urn:ogc:def:crs:OGC:1.3:CRS84" } },
"features": [
{ "type": "Feature", "properties": { "id": 3969, "name": "Ronald Regan Leander", "lat": 30.6361144773755, "lon": -97.826066895586365, "address": "19392 Ronald W. Reagan Blvd, Suite 530", "city": "Georgetown", "state_abbr": "TX", "zip": "78628", "phone": "(512) 887-1700" }, "geometry": { "type": "Point", "coordinates": [ -97.826066895586365, 30.6361144773755 ] } },
{ "type": "Feature", "properties": { "id": 2613, "name": "Abilene", "lat": 32.40716, "lon": -99.7762986, "address": "3765 Catclaw Drive", "city": "Abilene", "state_abbr": "TX", "zip": "79606", "phone": "325-480-3380" }, "geometry": { "type": "Point", "coordinates": [ -99.7762986, 32.40716 ] } },
{ "type": "Feature", "properties": { "id": 3932, "name": "Hunt Lane ", "lat": 29.445735468666598, "lon": -98.672093416859667, "address": " 9602 State Highway 151, #101", "city": "San Antonio", "state_abbr": "TX", "zip": "78251", "phone": "" }, "geometry": { "type": "Point", "coordinates": [ -98.672093416859667, 29.445735468666598 ] } },
{ "type": "Feature", "properties": { "id": 3025, "name": "Bandera", "lat": 29.5522745, "lon": -98.6653843, "address": "11654 Bandera Road, Suite 111", "city": "San Antonio", "state_abbr": "TX", "zip": "78250", "phone": "(210) 920-2929" }, "geometry": { "type": "Point", "coordinates": [ -98.6653843, 29.5522745 ] } },
{ "type": "Feature", "properties": { "id": 1573, "name": "The Rim", "lat": 29.6098543, "lon": -98.5989332, "address": "17627 La Cantera Parkway Suite 105", "city": "San Antonio", "state_abbr": "TX", "zip": "78257", "phone": "(210) 424-3151" }, "geometry": { "type": "Point", "coordinates": [ -98.598933199999976, 29.6098543 ] } },
{ "type": "Feature", "properties": { "id": 2068, "name": "Med Center", "lat": 29.5174312, "lon": -98.5776233, "address": "8435 Wurzbach Rd. Suite 202", "city": "San Antonio", "state_abbr": "TX", "zip": "78229", "phone": "(210) 987-5574" }, "geometry": { "type": "Point", "coordinates": [ -98.5776233, 29.5174312 ] } },
{ "type": "Feature", "properties": { "id": 1553, "name": "Sonterra", "lat": 29.6093722, "lon": -98.4981524, "address": "18210 Sonterra Place", "city": "San Antonio", "state_abbr": "TX", "zip": "78258", "phone": "726-444-9116" }, "geometry": { "type": "Point", "coordinates": [ -98.498152399999981, 29.6093722 ] } },
{ "type": "Feature", "properties": { "id": 569, "name": "Lincoln Heights", "lat": 29.497636, "lon": -98.470519, "address": "999 E. Basse Road #183", "city": "San Antonio", "state_abbr": "TX", "zip": "78209", "phone": "(210) 824-1603" }, "geometry": { "type": "Point", "coordinates": [ -98.470519, 29.497636 ] } },
{ "type": "Feature", "properties": { "id": 443, "name": "Belterra", "lat": 30.205442, "lon": -97.978417, "address": "166 Hargraves Drive, Ste. J100", "city": "Austin", "state_abbr": "TX", "zip": "78737", "phone": "(737) 717-6951" }, "geometry": { "type": "Point", "coordinates": [ -97.978417, 30.205442 ] } },
{ "type": "Feature", "properties": { "id": 536, "name": "Lakeway", "lat": 30.346693, "lon": -97.967399, "address": "1945 Medical Drive, Ste. 100", "city": "Austin", "state_abbr": "TX", "zip": "78734", "phone": "(512) 975-3240" }, "geometry": { "type": "Point", "coordinates": [ -97.967399, 30.346693 ] } },
{ "type": "Feature", "properties": { "id": 538, "name": "San Marcos", "lat": 29.884645, "lon": -97.942005, "address": "301 N. Guadalupe Street, Suite #194", "city": "San Marcos", "state_abbr": "TX", "zip": "78666", "phone": "(512) 757-8888" }, "geometry": { "type": "Point", "coordinates": [ -97.942005, 29.884645 ] } },
{ "type": "Feature", "properties": { "id": 1568, "name": "Escarpment", "lat": 30.201566676745131, "lon": -97.879017374868795, "address": "5900 Slaughter Lane Suite 550", "city": "Austin", "state_abbr": "TX", "zip": "78749", "phone": "512-420-4111" }, "geometry": { "type": "Point", "coordinates": [ -97.879017374868795, 30.201566676745131 ] } },
{ "type": "Feature", "properties": { "id": 442, "name": "Arbor Trails", "lat": 30.222333, "lon": -97.840426, "address": "4301 W. William Cannon Dr. G-400", "city": "Austin", "state_abbr": "TX", "zip": "78749", "phone": "(512) 514-0767" }, "geometry": { "type": "Point", "coordinates": [ -97.840426, 30.222333 ] } },
{ "type": "Feature", "properties": { "id": 441, "name": "Anderson Mill", "lat": 30.453007, "lon": -97.827605, "address": "11521 RR 620 N. E-1000", "city": "Austin", "state_abbr": "TX", "zip": "78726", "phone": "(512) 381-8226" }, "geometry": { "type": "Point", "coordinates": [ -97.827605, 30.453007 ] } },
{ "type": "Feature", "properties": { "id": 535, "name": "Cedar Park", "lat": 30.526583, "lon": -97.809088, "address": "1468 E. Whitestone Blvd., Ste. 100", "city": "Austin", "state_abbr": "TX", "zip": "78613", "phone": "(512) 337-0997" }, "geometry": { "type": "Point", "coordinates": [ -97.809088, 30.526583 ] } },
{ "type": "Feature", "properties": { "id": 3159, "name": "Slaughter (H‑E‑B/IH-35, THE OAKS)", "lat": 30.1716276, "lon": -97.786905, "address": "8601 South Congress Ave., Suite 250", "city": "Austin", "state_abbr": "TX", "zip": "78745", "phone": "(512) 640-4200" }, "geometry": { "type": "Point", "coordinates": [ -97.786905, 30.1716276 ] } },
{ "type": "Feature", "properties": { "id": 432, "name": "South Lamar", "lat": 30.24158, "lon": -97.784222, "address": "3005 S. Lamar Blvd. D-116", "city": "Austin", "state_abbr": "TX", "zip": "78704", "phone": "(512) 614-1832" }, "geometry": { "type": "Point", "coordinates": [ -97.784222, 30.24158 ] } },
{ "type": "Feature", "properties": { "id": 533, "name": "Spicewood Springs", "lat": 30.370741, "lon": -97.756248, "address": "4211 Spicewood Springs Rd.", "city": "Austin", "state_abbr": "TX", "zip": "78759", "phone": "(512) 291-7277" }, "geometry": { "type": "Point", "coordinates": [ -97.756248, 30.370741 ] } },
{ "type": "Feature", "properties": { "id": 435, "name": "Congress", "lat": 30.245473, "lon": -97.751579, "address": "1822 S. Congress Ave.", "city": "Austin", "state_abbr": "TX", "zip": "78704", "phone": "(512) 916-9025" }, "geometry": { "type": "Point", "coordinates": [ -97.751579, 30.245473 ] } },
{ "type": "Feature", "properties": { "id": 1524, "name": "Northshore", "lat": 30.2653123, "lon": -97.7495447, "address": "110 San Antonio Street Unit 120", "city": "Austin", "state_abbr": "TX", "zip": "78701", "phone": "(512) 792-5909" }, "geometry": { "type": "Point", "coordinates": [ -97.7495447, 30.2653123 ] } },
{ "type": "Feature", "properties": { "id": 532, "name": "Guadalupe", "lat": 30.293722, "lon": -97.741728, "address": "2801 Guadalupe St. 5-B", "city": "Austin", "state_abbr": "TX", "zip": "78705", "phone": "(512) 494-8226" }, "geometry": { "type": "Point", "coordinates": [ -97.741728, 30.293722 ] } },
{ "type": "Feature", "properties": { "id": 528, "name": "Burnet", "lat": 30.323395, "lon": -97.739228, "address": "5119 Burnet Rd.", "city": "Austin", "state_abbr": "TX", "zip": "78756", "phone": "(512) 382-0823" }, "geometry": { "type": "Point", "coordinates": [ -97.739228, 30.323395 ] } },
{ "type": "Feature", "properties": { "id": 251, "name": "Mueller", "lat": 30.301655, "lon": -97.698969, "address": "1801 E. 51st Bldg. D", "city": "Austin", "state_abbr": "TX", "zip": "78723", "phone": "(512) 322-2411" }, "geometry": { "type": "Point", "coordinates": [ -97.698969, 30.301655 ] } },
{ "type": "Feature", "properties": { "id": 1562, "name": "Round Rock 35", "lat": 30.5220918, "lon": -97.6904033, "address": "1500 N. I-35", "city": "Round Rock", "state_abbr": "TX", "zip": "78681", "phone": "512-614-3156" }, "geometry": { "type": "Point", "coordinates": [ -97.6904033, 30.5220918 ] } },
{ "type": "Feature", "properties": { "id": 537, "name": "Round Rock - Palm Valley", "lat": 30.519125, "lon": -97.651913, "address": "2150 E. Palm Valley Blvd., Ste. 100", "city": "Round Rock", "state_abbr": "TX", "zip": "78665", "phone": "(512) 381-0173" }, "geometry": { "type": "Point", "coordinates": [ -97.651913, 30.519125 ] } },
{ "type": "Feature", "properties": { "id": 1563, "name": "Stonehill (Pflugerville)", "lat": 30.4691284, "lon": -97.5958159, "address": "18817 Limestone Commercial Drive Suite #100", "city": "Austin", "state_abbr": "TX", "zip": "78660", "phone": "512-687-7442" }, "geometry": { "type": "Point", "coordinates": [ -97.5958159, 30.4691284 ] } },
{ "type": "Feature", "properties": { "id": 524, "name": "Chisholm Creek", "lat": 35.602352, "lon": -97.548705, "address": "13002 N Pennsylvania Avenue", "city": "Oklahoma City", "state_abbr": "OK", "zip": "73120", "phone": "(405) 936-4264" }, "geometry": { "type": "Point", "coordinates": [ -97.548705, 35.602352 ] } },
{ "type": "Feature", "properties": { "id": 2265, "name": "OKC Triangle", "lat": 35.536803, "lon": -97.533067, "address": "1144 NW 63rd St, Suite 1007", "city": "Oklahoma City", "state_abbr": "OK", "zip": "73116", "phone": "405-310-8323" }, "geometry": { "type": "Point", "coordinates": [ -97.533067, 35.536803 ] } },
{ "type": "Feature", "properties": { "id": 523, "name": "Norman", "lat": 35.242529, "lon": -97.481999, "address": "2050 24th Ave NW, Suite 130", "city": "Norman", "state_abbr": "OK", "zip": "73069", "phone": "(405) 364-0286" }, "geometry": { "type": "Point", "coordinates": [ -97.481999, 35.242529 ] } },
{ "type": "Feature", "properties": { "id": 942, "name": "Edmond", "lat": 35.652657, "lon": -97.459961, "address": "1556 E. 2nd Street", "city": "Edmond", "state_abbr": "OK", "zip": "73034", "phone": "(405) 531-5201" }, "geometry": { "type": "Point", "coordinates": [ -97.459961, 35.652657 ] } },
{ "type": "Feature", "properties": { "id": 548, "name": "Hulen", "lat": 32.673768, "lon": -97.399978, "address": "5030 S. Hulen Street", "city": "Fort Worth", "state_abbr": "TX", "zip": "76132", "phone": "(817) 413-1180" }, "geometry": { "type": "Point", "coordinates": [ -97.399978, 32.673768 ] } },
{ "type": "Feature", "properties": { "id": 3883, "name": "Burleson", "lat": 32.523273982591078, "lon": -97.351972660945933, "address": "257 Northwest John Jones Drive", "city": "Burleson", "state_abbr": "TX", "zip": "76028", "phone": "682-882-4440" }, "geometry": { "type": "Point", "coordinates": [ -97.351972660945933, 32.523273982591078 ] } },
{ "type": "Feature", "properties": { "id": 547, "name": "Fort Worth Midtown", "lat": 32.734353, "lon": -97.35167, "address": "928 Northton St.", "city": "Fort Worth", "state_abbr": "TX", "zip": "76104", "phone": "(817) 289-8226" }, "geometry": { "type": "Point", "coordinates": [ -97.35167, 32.734353 ] } },
{ "type": "Feature", "properties": { "id": 4263, "name": "Torchy's Tacos - Alliance", "lat": 32.916178562200024, "lon": -97.306873064249842, "address": "3330 Tracewood Way, Suite 120 ", "city": "Fort Worth", "state_abbr": "TX", "zip": "76244", "phone": "(682) 200-3550" }, "geometry": { "type": "Point", "coordinates": [ -97.306873064249842, 32.916178562200024 ] } },
{ "type": "Feature", "properties": { "id": 1147, "name": "Denton", "lat": 33.230367, "lon": -97.160247, "address": "2224 W. University Drive", "city": "Denton", "state_abbr": "TX", "zip": "76201", "phone": "(940) 999-5566" }, "geometry": { "type": "Point", "coordinates": [ -97.160247, 33.230367 ] } },
{ "type": "Feature", "properties": { "id": 1148, "name": "Waco", "lat": 31.550832, "lon": -97.125283, "address": "801 S 5th St", "city": "Waco", "state_abbr": "TX", "zip": "76706", "phone": "(254) 732-1445" }, "geometry": { "type": "Point", "coordinates": [ -97.125283, 31.550832 ] } },
{ "type": "Feature", "properties": { "id": 553, "name": "Southlake", "lat": 32.940314, "lon": -97.118915, "address": "2175 E. Southlake Blvd., Ste. 160", "city": "Southlake", "state_abbr": "TX", "zip": "76092", "phone": "(817) 601-2880" }, "geometry": { "type": "Point", "coordinates": [ -97.118915, 32.940314 ] } },
{ "type": "Feature", "properties": { "id": 2062, "name": "Mansfield", "lat": 32.567634, "lon": -97.118552, "address": "1671 East Broad Street", "city": "Mansfield", "state_abbr": "TX", "zip": "76063", "phone": "(817) 500-9055" }, "geometry": { "type": "Point", "coordinates": [ -97.118552, 32.567634 ] } },
{ "type": "Feature", "properties": { "id": 542, "name": "South Arlington", "lat": 32.680282, "lon": -97.10734, "address": "4000 Five Points Blvd., Suite 141", "city": "Arlington", "state_abbr": "TX", "zip": "76018", "phone": "(817) 466-7331" }, "geometry": { "type": "Point", "coordinates": [ -97.10734, 32.680282 ] } },
{ "type": "Feature", "properties": { "id": 2067, "name": "Euless", "lat": 32.8735224, "lon": -97.1007937, "address": "2501 State Hwy 121, Suite 100", "city": "Euless", "state_abbr": "TX", "zip": "76039", "phone": "817-677-0773" }, "geometry": { "type": "Point", "coordinates": [ -97.1007937, 32.8735224 ] } },
{ "type": "Feature", "properties": { "id": 541, "name": "North Arlington", "lat": 32.763149, "lon": -97.096559, "address": "1805 N. Collins Street, Ste. 151", "city": "Arlington", "state_abbr": "TX", "zip": "76011", "phone": "(682) 808-5596" }, "geometry": { "type": "Point", "coordinates": [ -97.096559, 32.763149 ] } },
{ "type": "Feature", "properties": { "id": 549, "name": "Highland Village", "lat": 33.074461, "lon": -97.083965, "address": "1601 Village Parkway, Suite K110", "city": "Highland Village", "state_abbr": "TX", "zip": "75077", "phone": "(469) 771-1050" }, "geometry": { "type": "Point", "coordinates": [ -97.083965, 33.074461 ] } },
{ "type": "Feature", "properties": { "id": 550, "name": "Las Colinas", "lat": 32.912992, "lon": -96.95336, "address": "7855 Las Colinas Ridge", "city": "Irving", "state_abbr": "TX", "zip": "75063", "phone": "(214) 743-8565" }, "geometry": { "type": "Point", "coordinates": [ -96.95336, 32.912992 ] } },
{ "type": "Feature", "properties": { "id": 3137, "name": "Frisco (Hollyhock)", "lat": 33.2176657, "lon": -96.8771778, "address": "1555 US Highway 380, Suite 100", "city": "Frisco", "state_abbr": "TX", "zip": "75034", "phone": "(469) 200-6823" }, "geometry": { "type": "Point", "coordinates": [ -96.8771778, 33.2176657 ] } },
{ "type": "Feature", "properties": { "id": 551, "name": "Plano", "lat": 33.026079, "lon": -96.831062, "address": "1855 Dallas Parkway, Suite #600", "city": "Plano", "state_abbr": "TX", "zip": "75093", "phone": "(972) 735-0310" }, "geometry": { "type": "Point", "coordinates": [ -96.831062, 33.026079 ] } },
{ "type": "Feature", "properties": { "id": 3020, "name": "Frisco (Stonebriar)", "lat": 33.1035392, "lon": -96.8085278, "address": "2947 Preston Road", "city": "Frisco", "state_abbr": "TX", "zip": "75034", "phone": "(469) 777-4576" }, "geometry": { "type": "Point", "coordinates": [ -96.8085278, 33.1035392 ] } },
{ "type": "Feature", "properties": { "id": 544, "name": "Forest Lane", "lat": 32.909985, "lon": -96.805855, "address": "5921 Forest Ln. #200", "city": "Dallas", "state_abbr": "TX", "zip": "75230", "phone": "(972) 720-9200" }, "geometry": { "type": "Point", "coordinates": [ -96.805855, 32.909985 ] } },
{ "type": "Feature", "properties": { "id": 545, "name": "Addison (Preston-Alexis)", "lat": 32.949144, "lon": -96.802796, "address": "14760 Preston Rd., Ste. 124", "city": "Dallas", "state_abbr": "TX", "zip": "75254", "phone": "(214) 379-1550" }, "geometry": { "type": "Point", "coordinates": [ -96.802796, 32.949144 ] } },
{ "type": "Feature", "properties": { "id": 546, "name": "SMU", "lat": 32.841811, "lon": -96.771373, "address": "5600 SMU Blvd. #102", "city": "Dallas", "state_abbr": "TX", "zip": "75206", "phone": "(972) 993-8226" }, "geometry": { "type": "Point", "coordinates": [ -96.771373, 32.841811 ] } },
{ "type": "Feature", "properties": { "id": 552, "name": "Richardson", "lat": 32.976353, "lon": -96.722043, "address": "300 West Campbell Road, Suite 160", "city": "Richardson", "state_abbr": "TX", "zip": "75080", "phone": "(972) 234-4391" }, "geometry": { "type": "Point", "coordinates": [ -96.722043, 32.976353 ] } },
{ "type": "Feature", "properties": { "id": 543, "name": "Casa Linda", "lat": 32.832067, "lon": -96.700681, "address": "9440 Garland Road, Ste. 234", "city": "Dallas", "state_abbr": "TX", "zip": "75218", "phone": "(972) 354-8226" }, "geometry": { "type": "Point", "coordinates": [ -96.700681, 32.832067 ] } },
{ "type": "Feature", "properties": { "id": 429, "name": "Allen", "lat": 33.101347, "lon": -96.687274, "address": "1008 W. McDermott Dr. #600", "city": "Allen", "state_abbr": "TX", "zip": "75013", "phone": "(214) 383-8226" }, "geometry": { "type": "Point", "coordinates": [ -96.687274, 33.101347 ] } },
{ "type": "Feature", "properties": { "id": 3665, "name": "Rockwall", "lat": 32.909190669280143, "lon": -96.448225107926874, "address": "2235 S. Goliad Street, Suite 120", "city": "Dallas", "state_abbr": "TX", "zip": "75032", "phone": "(469)769-5554" }, "geometry": { "type": "Point", "coordinates": [ -96.448225107926874, 32.909190669280143 ] } },
{ "type": "Feature", "properties": { "id": 1146, "name": "College Station", "lat": 30.622968, "lon": -96.328309, "address": "1037 Texas Ave South", "city": "College Station", "state_abbr": "TX", "zip": "77840", "phone": "(979) 329-6900" }, "geometry": { "type": "Point", "coordinates": [ -96.328309, 30.622968 ] } },
{ "type": "Feature", "properties": { "id": 527, "name": "Tulsa", "lat": 36.114567, "lon": -95.975952, "address": "3330 S. Peoria Ave", "city": "Tulsa", "state_abbr": "OK", "zip": "74105", "phone": "(918) 495-4073" }, "geometry": { "type": "Point", "coordinates": [ -95.975952, 36.114567 ] } },
{ "type": "Feature", "properties": { "id": 563, "name": "Katy", "lat": 29.74157, "lon": -95.775592, "address": "23501 Cinco Ranch Blvd. # N-100", "city": "Katy", "state_abbr": "TX", "zip": "77494", "phone": "(281) 394-7808" }, "geometry": { "type": "Point", "coordinates": [ -95.775592, 29.74157 ] } },
{ "type": "Feature", "properties": { "id": 3240, "name": "Rosenberg", "lat": 29.5434821, "lon": -95.7516223, "address": "24401 Southwest Freeway, #100", "city": "Rosenberg", "state_abbr": "TX", "zip": "77471", "phone": "(281) 766-8100" }, "geometry": { "type": "Point", "coordinates": [ -95.7516223, 29.5434821 ] } },
{ "type": "Feature", "properties": { "id": 3088, "name": "Richmond", "lat": 29.6603871, "lon": -95.7186923, "address": "4818 Waterview Town Center Drive, Ste. 500", "city": "Richmond", "state_abbr": "TX", "zip": "77406", "phone": "(832) 586-8811" }, "geometry": { "type": "Point", "coordinates": [ -95.7186923, 29.6603871 ] } },
{ "type": "Feature", "properties": { "id": 558, "name": "Katy Green", "lat": 29.784282, "lon": -95.702608, "address": "19111 Katy Freeway, Ste. 100", "city": "Houston", "state_abbr": "TX", "zip": "77094", "phone": "(281) 829-4990" }, "geometry": { "type": "Point", "coordinates": [ -95.702608, 29.784282 ] } },
{ "type": "Feature", "properties": { "id": 555, "name": "Cypress", "lat": 29.92285, "lon": -95.686867, "address": "9975 Barker Cypress Road", "city": "Houston", "state_abbr": "TX", "zip": "77433", "phone": "(832) 745-5200" }, "geometry": { "type": "Point", "coordinates": [ -95.686867, 29.92285 ] } },
{ "type": "Feature", "properties": { "id": 567, "name": "Sugarland", "lat": 29.600689, "lon": -95.621511, "address": "15810 Southwest Fwy., Ste. 600", "city": "Houston", "state_abbr": "TX", "zip": "77478", "phone": "(281) 313-5110" }, "geometry": { "type": "Point", "coordinates": [ -95.621511, 29.600689 ] } },
{ "type": "Feature", "properties": { "id": 2844, "name": "Stafford", "lat": 29.6419192, "lon": -95.5770831, "address": "11327 Current Lane", "city": "Stafford", "state_abbr": "TX", "zip": "77477", "phone": "(281) 557-6060" }, "geometry": { "type": "Point", "coordinates": [ -95.5770831, 29.6419192 ] } },
{ "type": "Feature", "properties": { "id": 562, "name": "Westchase", "lat": 29.735116, "lon": -95.571198, "address": "2675 Wilcrest Dr.", "city": "Houston", "state_abbr": "TX", "zip": "77042", "phone": "(713) 487-4991" }, "geometry": { "type": "Point", "coordinates": [ -95.571198, 29.735116 ] } },
{ "type": "Feature", "properties": { "id": 561, "name": "Vintage", "lat": 30.009501, "lon": -95.562758, "address": "10123 Louetta Rd. #1300", "city": "Houston", "state_abbr": "TX", "zip": "77070", "phone": "(281) 803-5300" }, "geometry": { "type": "Point", "coordinates": [ -95.562758, 30.009501 ] } },
{ "type": "Feature", "properties": { "id": 2063, "name": "Memorial City", "lat": 29.786095, "lon": -95.544891, "address": "1035 Gessner Rd., Suite A", "city": "Houston", "state_abbr": "TX", "zip": "77055", "phone": "832-304-2700" }, "geometry": { "type": "Point", "coordinates": [ -95.544891, 29.786095 ] } },
{ "type": "Feature", "properties": { "id": 568, "name": "The Woodlands", "lat": 30.183914, "lon": -95.490008, "address": "4747 Research Forest Drive #475", "city": "The Woodlands", "state_abbr": "TX", "zip": "77381", "phone": "(281) 465-8918" }, "geometry": { "type": "Point", "coordinates": [ -95.490008, 30.183914 ] } },
{ "type": "Feature", "properties": { "id": 2061, "name": "San Felipe", "lat": 29.749392, "lon": -95.484275, "address": "5885 San Felipe Street", "city": "Houston", "state_abbr": "TX", "zip": "77057", "phone": "832-786-6653" }, "geometry": { "type": "Point", "coordinates": [ -95.484275, 29.749392 ] } },
{ "type": "Feature", "properties": { "id": 1559, "name": "Conroe", "lat": 30.2795376, "lon": -95.4659332, "address": "351 S. Loop 336 W", "city": "Conroe", "state_abbr": "TX", "zip": "77304", "phone": "936-647-2457" }, "geometry": { "type": "Point", "coordinates": [ -95.4659332, 30.2795376 ] } },
{ "type": "Feature", "properties": { "id": 2521, "name": "Woodlands Mall", "lat": 30.166735, "lon": -95.458914, "address": "1555 Lake Woodlands Drive, Ste 435", "city": "The Woodlands", "state_abbr": "TX", "zip": "77380", "phone": "346-413-2501" }, "geometry": { "type": "Point", "coordinates": [ -95.458914, 30.166735 ] } },
{ "type": "Feature", "properties": { "id": 566, "name": "Spring", "lat": 30.083458, "lon": -95.449375, "address": "2156 Spring Stuebner Rd., Suite 530", "city": "Spring", "state_abbr": "TX", "zip": "77389", "phone": "(346) 413-2215" }, "geometry": { "type": "Point", "coordinates": [ -95.449375, 30.083458 ] } },
{ "type": "Feature", "properties": { "id": 1558, "name": "West U", "lat": 29.722172, "lon": -95.440542, "address": "5537 Weslayan St. Houston, TX 77005", "city": "Houston", "state_abbr": "TX", "zip": "77005", "phone": "832-397-5954" }, "geometry": { "type": "Point", "coordinates": [ -95.440542, 29.722172 ] } },
{ "type": "Feature", "properties": { "id": 559, "name": "Rice Village", "lat": 29.716969, "lon": -95.415127, "address": "2400 Times Blvd.", "city": "Houston", "state_abbr": "TX", "zip": "77005", "phone": "(713) 487-0067" }, "geometry": { "type": "Point", "coordinates": [ -95.415127, 29.716969 ] } },
{ "type": "Feature", "properties": { "id": 560, "name": "Shepherd", "lat": 29.744126, "lon": -95.410406, "address": "2411 S. Shepherd Dr.", "city": "Houston", "state_abbr": "TX", "zip": "77019", "phone": "(713) 595-8226" }, "geometry": { "type": "Point", "coordinates": [ -95.410406, 29.744126 ] } },
{ "type": "Feature", "properties": { "id": 557, "name": "Houston Heights", "lat": 29.802675, "lon": -95.40324, "address": "350 W. 19th Street, Ste. A", "city": "Houston", "state_abbr": "TX", "zip": "77008", "phone": "(713) 595-8229" }, "geometry": { "type": "Point", "coordinates": [ -95.40324, 29.802675 ] } },
{ "type": "Feature", "properties": { "id": 554, "name": "Tyler", "lat": 32.303564, "lon": -95.295486, "address": "426 E. Southeast Loop 323", "city": "Tyler", "state_abbr": "TX", "zip": "75701", "phone": "(903) 581-3716" }, "geometry": { "type": "Point", "coordinates": [ -95.295486, 32.303564 ] } },
{ "type": "Feature", "properties": { "id": 3933, "name": "Pearland Parkway", "lat": 29.555024838749635, "lon": -95.263888705215052, "address": " 2800 E Broadway St # P", "city": "Pearland", "state_abbr": "TX", "zip": "77581", "phone": "" }, "geometry": { "type": "Point", "coordinates": [ -95.263888705215052, 29.555024838749635 ] } },
{ "type": "Feature", "properties": { "id": 564, "name": "Kingwood", "lat": 30.050988, "lon": -95.183883, "address": "4529 Kingwood Dr, Suite 180", "city": "Houston", "state_abbr": "TX", "zip": "77345", "phone": "(346) 251-0742" }, "geometry": { "type": "Point", "coordinates": [ -95.183883, 30.050988 ] } },
{ "type": "Feature", "properties": { "id": 556, "name": "Baybrook", "lat": 29.543157, "lon": -95.138254, "address": "19431 Gatebrook Dr, Suite 3", "city": "Houston", "state_abbr": "TX", "zip": "77598", "phone": "(281) 724-3508" }, "geometry": { "type": "Point", "coordinates": [ -95.138254, 29.543157 ] } },
{ "type": "Feature", "properties": { "id": 2795, "name": "Olathe", "lat": 38.91093, "lon": -94.76605, "address": "11919 S Strang Line Rd.", "city": "Olathe", "state_abbr": "KS", "zip": "66062", "phone": "(913)361-0131" }, "geometry": { "type": "Point", "coordinates": [ -94.76605, 38.91093 ] } },
{ "type": "Feature", "properties": { "id": 3021, "name": "Overland Park", "lat": 38.8833175, "lon": -94.6668374, "address": "6815 West 135th Street", "city": "Overland Park", "state_abbr": "KS", "zip": "66223", "phone": "(913) 340-9299" }, "geometry": { "type": "Point", "coordinates": [ -94.6668374, 38.8833175 ] } },
{ "type": "Feature", "properties": { "id": 2306, "name": "Ward Parkway", "lat": 38.9686, "lon": -94.6079, "address": "8815 State Line Road", "city": "Kansas City", "state_abbr": "MO", "zip": "64114", "phone": "816-844-3744" }, "geometry": { "type": "Point", "coordinates": [ -94.6079, 38.9686 ] } },
{ "type": "Feature", "properties": { "id": 1983, "name": "Rogers", "lat": 36.297286, "lon": -94.185439, "address": "4950 West Pauline Whitaker Parkway", "city": "Rogers", "state_abbr": "AR", "zip": "72758", "phone": "(479) 326-8507" }, "geometry": { "type": "Point", "coordinates": [ -94.185439, 36.297286 ] } },
{ "type": "Feature", "properties": { "id": 1551, "name": "Fayetteville", "lat": 36.0562844, "lon": -94.1836725, "address": "1541 M.L.K. Jr Blvd", "city": "Fayetteville", "state_abbr": "AR", "zip": "72701", "phone": "479-502-9143" }, "geometry": { "type": "Point", "coordinates": [ -94.1836725, 36.0562844 ] } },
{ "type": "Feature", "properties": { "id": 2268, "name": "Shreveport", "lat": 32.444504, "lon": -93.728349, "address": "1384 E 70th St., Suite 900", "city": "Shreveport", "state_abbr": "LA", "zip": "71105", "phone": "(318) 381-8747" }, "geometry": { "type": "Point", "coordinates": [ -93.728349, 32.444504 ] } },
{ "type": "Feature", "properties": { "id": 2269, "name": "Lake Charles", "lat": 30.195985, "lon": -93.249416, "address": "3407 Nelson Road", "city": "Lake Charles", "state_abbr": "LA", "zip": "70605", "phone": "337-376-0020" }, "geometry": { "type": "Point", "coordinates": [ -93.249416, 30.195985 ] } },
{ "type": "Feature", "properties": { "id": 2267, "name": "Baton Rouge - LSU", "lat": 30.413395, "lon": -91.186828, "address": "3658 Nicholson Drive, Unit 1A", "city": "Baton Rouge", "state_abbr": "LA", "zip": "70802", "phone": "(225) 289-4300" }, "geometry": { "type": "Point", "coordinates": [ -91.186828, 30.413395 ] } },
{ "type": "Feature", "properties": { "id": 2883, "name": "Memphis", "lat": 35.1116882, "lon": -89.8987761, "address": "719 South Mendenhall Road.", "city": "Memphis", "state_abbr": "TN", "zip": "38117", "phone": "(901) 343-8880" }, "geometry": { "type": "Point", "coordinates": [ -89.8987761, 35.1116882 ] } },
{ "type": "Feature", "properties": { "id": 3381, "name": "Fishers", "lat": 39.9566761, "lon": -86.0007538, "address": "11595 Whistle Drive, Suite 101-A", "city": "Fishers", "state_abbr": "IN", "zip": "46037", "phone": "(317) 537-0914" }, "geometry": { "type": "Point", "coordinates": [ -86.0007538, 39.9566761 ] } },
{ "type": "Feature", "properties": { "id": 2786, "name": "Jeffersonville", "lat": 38.3284265, "lon": -85.7470507, "address": "1540 Veterans Pkwy", "city": "Jeffersonville", "state_abbr": "IN", "zip": "47130", "phone": "(812) 645-4800" }, "geometry": { "type": "Point", "coordinates": [ -85.7470507, 38.3284265 ] } },
{ "type": "Feature", "properties": { "id": 4304, "name": "Liberty Township - Coming Soon!", "lat": 39.370669917408065, "lon": -84.370196014453839, "address": "7673 Blake Street, Suite 100", "city": "Liberty Township", "state_abbr": "OH", "zip": "45069", "phone": "(513) 712-6525" }, "geometry": { "type": "Point", "coordinates": [ -84.370196014453839, 39.370669917408065 ] } },
{ "type": "Feature", "properties": { "id": 3965, "name": "Dublin - NOW OPEN", "lat": 40.096229, "lon": -83.0891662, "address": "3726 West Dublin Granville Road", "city": "Columbus", "state_abbr": "OH", "zip": "43017", "phone": "380-204-6275" }, "geometry": { "type": "Point", "coordinates": [ -83.0891662, 40.096229 ] } },
{ "type": "Feature", "properties": { "id": 3515, "name": "Polaris", "lat": 40.1492428, "lon": -82.9784142, "address": "1478 Gemini Place", "city": "Columbus", "state_abbr": "OH", "zip": "43240", "phone": "(380) 799-7775" }, "geometry": { "type": "Point", "coordinates": [ -82.9784142, 40.1492428 ] } },
{ "type": "Feature", "properties": { "id": 4294, "name": "New Albany - NOW OPEN", "lat": 40.082233672898454, "lon": -82.850922261362371, "address": "6042 N Hamilton Rd", "city": "Columbus", "state_abbr": "OH", "zip": "43081", "phone": "(380) 800-1440" }, "geometry": { "type": "Point", "coordinates": [ -82.850922261362371, 40.082233672898454 ] } },
{ "type": "Feature", "properties": { "id": 3766, "name": "Tyrone - St. Petersburg", "lat": 27.793011231729665, "lon": -82.729712962261857, "address": "2314 Tyrone Blvd. North", "city": "St. Petersburg", "state_abbr": "FL", "zip": "33710", "phone": "(727) 308-3332" }, "geometry": { "type": "Point", "coordinates": [ -82.729712962261857, 27.793011231729665 ] } },
{ "type": "Feature", "properties": { "id": 4327, "name": "Winter Garden - Coming Soon!", "lat": 28.521470524787421, "lon": -81.587958558656084, "address": "3310 Daniels Rd", "city": "Orlando", "state_abbr": "FL", "zip": "34787", "phone": "(321) 376-5056" }, "geometry": { "type": "Point", "coordinates": [ -81.587958558656084, 28.521470524787421 ] } },
{ "type": "Feature", "properties": { "id": 4328, "name": "Vineland - Coming Soon!", "lat": 28.394678332206862, "lon": -81.48371349885322, "address": "11757 Daryl Carter Parkway", "city": "Orlando", "state_abbr": "FL", "zip": "32821", "phone": "(321) 465-5900" }, "geometry": { "type": "Point", "coordinates": [ -81.48371349885322, 28.394678332206862 ] } },
{ "type": "Feature", "properties": { "id": 3762, "name": "Altamonte Springs - NOW OPEN", "lat": 28.684945469631856, "lon": -81.41817904417681, "address": "999 N. State Road 434, Suite 1000", "city": "Altamonte Springs", "state_abbr": "FL", "zip": "32714", "phone": "(689) 207-0220" }, "geometry": { "type": "Point", "coordinates": [ -81.41817904417681, 28.684945469631856 ] } },
{ "type": "Feature", "properties": { "id": 2796, "name": "Raleigh Midtown East", "lat": 35.8215347, "lon": -78.6240772, "address": "1110 Mercantile Drive, Building 6, Suite 120", "city": "Raleigh", "state_abbr": "NC", "zip": "27609", "phone": "(919) 439-1177" }, "geometry": { "type": "Point", "coordinates": [ -78.6240772, 35.8215347 ] } },
{ "type": "Feature", "properties": { "id": 3970, "name": "Wake Forest", "lat": 35.96613300164163, "lon": -78.533472876686716, "address": "505 Dr. Calvin Jones Hwy., #110", "city": "Wake Forest", "state_abbr": "NC", "zip": "27587", "phone": "(984) 401-2330" }, "geometry": { "type": "Point", "coordinates": [ -78.533472876686716, 35.96613300164163 ] } },
{ "type": "Feature", "properties": { "id": 3138, "name": "Charlottesville", "lat": 38.0639634, "lon": -78.4944757, "address": "1951 Swanson Drive #110", "city": "Charlottesville", "state_abbr": "VA", "zip": "22901", "phone": "(434) 688-0070" }, "geometry": { "type": "Point", "coordinates": [ -78.4944757, 38.0639634 ] } },
{ "type": "Feature", "properties": { "id": 3763, "name": "Short Pump ", "lat": 37.650143150782192, "lon": -77.599337131250749, "address": "11120 West Broad Street", "city": "Glen Allen", "state_abbr": "VA", "zip": "23060", "phone": "(804) 554-5554" }, "geometry": { "type": "Point", "coordinates": [ -77.599337131250749, 37.650143150782192 ] } },
{ "type": "Feature", "properties": { "id": 3764, "name": "Carytown", "lat": 37.555668895250342, "lon": -77.486982984673688, "address": "3510 W Cary St.", "city": "Richmond", "state_abbr": "VA", "zip": "23221", "phone": "(804) 554-3335" }, "geometry": { "type": "Point", "coordinates": [ -77.486982984673688, 37.555668895250342 ] } },
{ "type": "Feature", "properties": { "id": 3516, "name": "Camelback", "lat": 33.5089481, "lon": -112.0436312, "address": "1935 East Camelback Rd, # C-130", "city": "Phoenix", "state_abbr": "AZ", "zip": "85016", "phone": "(602) 855-9992" }, "geometry": { "type": "Point", "coordinates": [ -112.0436312, 33.5089481 ] } },
{ "type": "Feature", "properties": { "id": 3664, "name": "Tatum & Shea", "lat": 33.583711080367415, "lon": -111.9769348, "address": "10625 North Tatum Blvd. Suite 125 A", "city": "Phoenix", "state_abbr": "AZ", "zip": "85028", "phone": "(480) 712-4440" }, "geometry": { "type": "Point", "coordinates": [ -111.9769348, 33.583711080367415 ] } },
{ "type": "Feature", "properties": { "id": 3962, "name": "Gilbert -  San Tan Village", "lat": 33.30847173379226, "lon": -111.74754447677192, "address": "2320 S. San Tan Village Pkwy, Suite 101", "city": "Gilbert", "state_abbr": "AZ", "zip": "85295", "phone": "(480) 712-9070" }, "geometry": { "type": "Point", "coordinates": [ -111.747544476771921, 33.30847173379226 ] } },
{ "type": "Feature", "properties": { "id": 3722, "name": "Queen Creek", "lat": 33.254322364421732, "lon": -111.63957408582399, "address": "21386 South Ellsworth Loop Road", "city": "Queen Creek", "state_abbr": "AZ", "zip": "85142", "phone": "(480) 500-8522" }, "geometry": { "type": "Point", "coordinates": [ -111.639574085823995, 33.254322364421732 ] } },
{ "type": "Feature", "properties": { "id": 1984, "name": "Boulder", "lat": 40.022847, "lon": -105.25789, "address": "2805 Pearl Street", "city": "Boulder", "state_abbr": "CO", "zip": "80301", "phone": "720-617-4462" }, "geometry": { "type": "Point", "coordinates": [ -105.25789, 40.022847 ] } },
{ "type": "Feature", "properties": { "id": 941, "name": "88th & Wads", "lat": 39.856948, "lon": -105.07764, "address": "7159 W. 88th Avenue Suite 400", "city": "Denver", "state_abbr": "CO", "zip": "80021", "phone": "(303) 495-1115" }, "geometry": { "type": "Point", "coordinates": [ -105.07764, 39.856948 ] } },
{ "type": "Feature", "properties": { "id": 522, "name": "Fort Collins", "lat": 40.542406, "lon": -105.076519, "address": "3280 S. College Ave, Suite 130", "city": "Fort Collins", "state_abbr": "CO", "zip": "80525", "phone": "(970) 223-6457" }, "geometry": { "type": "Point", "coordinates": [ -105.076519, 40.542406 ] } },
{ "type": "Feature", "properties": { "id": 521, "name": "Highlands Ranch", "lat": 39.554159, "lon": -105.007617, "address": "1515 Park Central Dr., Suite C-200", "city": "Highlands Ranch", "state_abbr": "CO", "zip": "80129", "phone": "(720) 647-7420" }, "geometry": { "type": "Point", "coordinates": [ -105.007617, 39.554159 ] } },
{ "type": "Feature", "properties": { "id": 431, "name": "Broadway", "lat": 39.733496, "lon": -104.987818, "address": "1085 N Broadway", "city": "Denver", "state_abbr": "CO", "zip": "80203", "phone": "(303) 436-1704" }, "geometry": { "type": "Point", "coordinates": [ -104.987818, 39.733496 ] } },
{ "type": "Feature", "properties": { "id": 3382, "name": "Lowry", "lat": 39.7176543, "lon": -104.9044441, "address": "63 North Quebec Street", "city": "Denver", "state_abbr": "CO", "zip": "80230", "phone": "720-797-9997" }, "geometry": { "type": "Point", "coordinates": [ -104.9044441, 39.7176543 ] } },
{ "type": "Feature", "properties": { "id": 519, "name": "Northfield", "lat": 39.786074, "lon": -104.892207, "address": "8281 E Northfield Blvd.", "city": "Denver", "state_abbr": "CO", "zip": "80238", "phone": "(303) 375-1733" }, "geometry": { "type": "Point", "coordinates": [ -104.892207, 39.786074 ] } },
{ "type": "Feature", "properties": { "id": 520, "name": "Arapahoe", "lat": 39.595464, "lon": -104.891728, "address": "8505 E. Arapahoe", "city": "Greenwood Village", "state_abbr": "CO", "zip": "80111", "phone": "(303) 721-0060" }, "geometry": { "type": "Point", "coordinates": [ -104.891728, 39.595464 ] } },
{ "type": "Feature", "properties": { "id": 3135, "name": "Colorado Springs", "lat": 38.9909841, "lon": -104.8040846, "address": "1358 Interquest Parkway", "city": "Colorado Springs", "state_abbr": "CO", "zip": "80921", "phone": "(719) 235-5000" }, "geometry": { "type": "Point", "coordinates": [ -104.8040846, 38.9909841 ] } },
{ "type": "Feature", "properties": { "id": 4302, "name": "Powers - NOW OPEN", "lat": 38.875825176910645, "lon": -104.71915192437821, "address": "3015 New Center Point, #150", "city": "Colorado Springs", "state_abbr": "CO", "zip": "80922", "phone": "(719) 425-8581" }, "geometry": { "type": "Point", "coordinates": [ -104.71915192437821, 38.875825176910645 ] } },
{ "type": "Feature", "properties": { "id": 1982, "name": "Odessa", "lat": 31.8496836, "lon": -102.3671001, "address": "306 E. 5th St", "city": "Odessa", "state_abbr": "TX", "zip": "79761", "phone": "(432) 308-5040" }, "geometry": { "type": "Point", "coordinates": [ -102.3671001, 31.8496836 ] } },
{ "type": "Feature", "properties": { "id": 2266, "name": "West End", "lat": 33.56521, "lon": -101.945007, "address": "3204 W Loop 289 Suite 100", "city": "Lubbock", "state_abbr": "TX", "zip": "79414", "phone": "(806) 412-5220" }, "geometry": { "type": "Point", "coordinates": [ -101.945007, 33.56521 ] } },
{ "type": "Feature", "properties": { "id": 439, "name": "Amarillo", "lat": 35.170263, "lon": -101.939429, "address": "3562 S Soncy Rd.", "city": "Amarillo", "state_abbr": "TX", "zip": "79119", "phone": "(806) 398-1111" }, "geometry": { "type": "Point", "coordinates": [ -101.939429, 35.170263 ] } },
{ "type": "Feature", "properties": { "id": 565, "name": "Lubbock", "lat": 33.586754, "lon": -101.868813, "address": "2407 9th. St., Ste. 100", "city": "Lubbock", "state_abbr": "TX", "zip": "79401", "phone": "(806)368-8973" }, "geometry": { "type": "Point", "coordinates": [ -101.868813, 33.586754 ] } },
{ "type": "Feature", "properties": { "id": 3930, "name": "New Braunfels ", "lat": 29.730620196344361, "lon": -98.080782361030728, "address": "229 FM 306 Suite 101", "city": "New Braunfels", "state_abbr": "TX", "zip": "78130", "phone": "(830) 433-7224" }, "geometry": { "type": "Point", "coordinates": [ -98.080782361030728, 29.730620196344361 ] } },
{ "type": "Feature", "properties": { "id": 1985, "name": "Hampden", "lat": 39.654242, "lon": -104.91711, "address": "6325 E Hampden Avenue", "city": "Denver", "state_abbr": "CO", "zip": "80222", "phone": "720-866-7606" }, "geometry": { "type": "Point", "coordinates": [ -104.91711, 39.654242 ] } },
{ "type": "Feature", "properties": { "id": 3964, "name": "Midlothian", "lat": 37.509934796104361, "lon": -77.612835899444349, "address": "1315 Huguenot Road", "city": "Midlothian", "state_abbr": "VA", "zip": "23113", "phone": "" }, "geometry": { "type": "Point", "coordinates": [ -77.612835899444349, 37.509934796104361 ] } },
{ "type": "Feature", "properties": { "id": 3963, "name": "Kyle", "lat": 30.030433083434101, "lon": -97.849471505524036, "address": "19100 IH-35", "city": "Kyle", "state_abbr": "TX", "zip": "78640", "phone": "" }, "geometry": { "type": "Point", "coordinates": [ -97.849471505524036, 30.030433083434101 ] } }
]
}
