id,address,city,state,zip,phone,url,latitude,longitude
1102092,6709 US HWY 90,SEALY,TX,77474,(979) 732-2986,,29.742653,-96.330407
1102518,2301 FM 523,ANGLETON,TX,77515,(979) 849-5936,,29.196469,-95.456736
1102092,6709 US HWY 90,SEALY,TX,77474,(979) 732-2986,,29.742653,-96.330407
1102518,2301 FM 523,ANGLETON,TX,77515,(979) 849-5936,,29.196469,-95.456736
1101552,1898 N LEE TREVINO DR,EL PASO,TX,79936,(915) 595-0924,https://order.carlsjr.com/location/-tx-el-paso-1898-n-lee-trevino-dr/menu,31.76849,-106.31861
1101354,1490 N ZARAGOZA RD,EL PASO,TX,79936,(915) 921-1504,https://order.carlsjr.com/location/-tx-el-paso-1490-n-zaragoza-rd/menu,31.73745,-106.29171
1101790,10620 MONTANA AVE,EL PASO,TX,79935,(915) 591-4250,https://order.carlsjr.com/location/-tx-el-paso-10620-montana-ave/menu,31.79774,-106.33081
1102776,1124 MCRAE BLVD,EL PASO,TX,79925,(915) 591-0409,https://order.carlsjr.com/location/-tx-el-paso-1124-mcrae-blvd/menu,31.76072,-106.35447
1102556,3510 ZARAGOZA ROAD,EL PASO,TX,79938,(915) 849-5853,https://order.carlsjr.com/location/-tx-el-paso-3510-zaragoza-rd/menu,31.79138,-106.23557
1101382,9071 ALAMEDA,EL PASO,TX,79907,(915) 790-9964,https://order.carlsjr.com/location/-tx-el-paso-9071-alameda/menu,31.69212,-106.32761
1101376,7120 AIRPORT RD,EL PASO,TX,79906,(915) 772-2943,https://order.carlsjr.com/location/-tx-el-paso-7120-airport-rd/menu,31.81784,-106.40409
1102636,1305 HORIZON BLVD,EL PASO,TX,79928,(915) 852-1955,https://order.carlsjr.com/location/-tx-el-paso-1305-horizon-blvd/menu,31.66157,-106.23742
1102596,"11300 MCCOMBS STREET, SUITE C",EL PASO,TX,79934,(915) 821-0869,https://order.carlsjr.com/location/-tx-el-paso-11300-mccombs-st/menu,31.93875,-106.40712
1101745,6031 N MESA ST,EL PASO,TX,79912,(915) 584-4763,https://order.carlsjr.com/location/-tx-el-paso-6031-n-mesa-st/menu,31.83039,-106.53074
1101587,7910 ARTCRAFT RD,EL PASO,TX,79932,(915) 845-1100,https://order.carlsjr.com/location/-tx-el-paso-7910-artcraft-rd/menu,31.88242,-106.58348
1101385,503 S SOLANO,LAS CRUCES,NM,88001,(575) 647-8816,https://order.carlsjr.com/location/-nm-las-cruces-503-s-solano/menu,32.30856,-106.76465
1102784,3965 BATAAN MEMORIAL WEST,LAS CRUCES,NM,88012,(575) 382-2018,https://order.carlsjr.com/location/-nm-las-cruces-3965-bataan-memorial-west/menu,32.37236,-106.74173
1102094,829 S WHITE SANDS BLVD,ALAMOGORDO,NM,88310,(575) 437-2477,,32.88174,-105.95982
1100321,2912 S FIGUEROA,LOS ANGELES,CA,90007,(213) 747-5801,https://order.carlsjr.com/location/-ca-los-angeles-2912-s-figueroa/menu,34.02532,-118.27747
1100440,1439 E GAGE AVE,LOS ANGELES,CA,90001,(323) 588-5324,https://order.carlsjr.com/location/-ca-los-angeles-1439-e-gage-ave/menu,33.98244,-118.24806
1100804,1001 W MARTIN LUTHER KING JR,LOS ANGELES,CA,90037,(323) 766-8290,https://order.carlsjr.com/location/-ca-los-angeles-1001-w-martin-luther-king-jr/menu,34.011153,-118.29191
1100212,1751 S SOTO ST,LOS ANGELES,CA,90023,(323) 264-4232,https://order.carlsjr.com/location/-ca-los-angeles-1751-s-soto-st/menu,34.01708,-118.22036
1103026,229 W 7TH STREET,LOS ANGELES,CA,90012,(213) 624-1315,https://order.carlsjr.com/location/-ca-los-angeles-229-w-7th-street/menu,34.044986,-118.25328
1100558,2401  E FLORENCE AVENUE,HUNTINGTON PARK,CA,90255,(323) 588-4718,https://order.carlsjr.com/location/-ca-huntington-park-2401-e-florence-avenue/menu,33.97502,-118.22997
1101521,254 S BROADWAY,LOS ANGELES,CA,90012,(213) 625-1357,,34.051087,-118.24768
1100422,2320 E 4TH ST,LOS ANGELES,CA,90033,(323) 262-2603,https://order.carlsjr.com/location/-ca-los-angeles-2320-e-4th-st/menu,34.04055,-118.21244
1102184,2110 W 7TH ST,LOS ANGELES,CA,90057,(213) 388-8582,https://order.carlsjr.com/location/-ca-2110-w-7th-st/menu,34.056433,-118.27751
1100012,1611 S WESTERN AVE,LOS ANGELES,CA,90006,(323) 731-0384,https://order.carlsjr.com/location/-ca-los-angeles-1611-s-western-ave/menu,34.04314,-118.30936
1100273,3005 W 6TH ST,LOS ANGELES,CA,90020,(213) 380-4255,https://order.carlsjr.com/location/-ca-los-angeles-3005-w-6th-st/menu,34.06384,-118.28753
1100253,3500 WILSHIRE BLVD.,LOS ANGELES,CA,90010,(213) 386-6902,https://order.carlsjr.com/location/-ca-3500-wilshire-blvd/menu,34.06143,-118.30077
1100087,501S WESTERN,LOS ANGELES,CA,90020,(213) 383-3401,https://order.carlsjr.com/location/-ca-los-angeles-501s-western/menu,34.06516,-118.30942
1100007,4966 FLORENCE AVE,BELL,CA,90201,(323) 771-1097,https://order.carlsjr.com/location/-ca-bell-4966-florence-ave/menu,33.96898,-118.1782
1101414,3215 N BROADWAY,LOS ANGELES,CA,90031,(323) 441-8878,https://order.carlsjr.com/location/-ca-los-angeles-3215-n-broadway/menu,34.07409,-118.20711
1100532,3300 W CENTURY BLVD,INGLEWOOD,CA,90303,(310) 672-2742,https://order.carlsjr.com/location/-ca-3300-w-century-blvd/menu,33.945161,-118.32878
1100337,5501 TELEGRAPH RD,CITY OF COMMERCE,CA,90040,(323) 725-1386,https://order.carlsjr.com/location/-ca-city-of-commerce-5501-telegraph-rd/menu,34.00799,-118.15621
1101133,11224 S WESTERN AVE,LOS ANGELES,CA,90047,(323) 242-0011,https://order.carlsjr.com/location/-ca-los-angeles-11224-s-western-ave/menu,33.931877,-118.30851
1100364,3621 E IMPERIAL HIGHWAY,LYNWOOD,CA,90262,(310) 631-4833,https://order.carlsjr.com/location/-ca-lynwood-3621-e-imperial-highway/menu,33.93156,-118.20382
1101487,5151 STATE UNIVERSITY DR,LOS ANGELES,CA,90032,(323) 343-6780,https://order.carlsjr.com/location/-ca-los-angeles-5151-state-university-dr/menu,34.06237,-118.17159
1102092,6709 US HWY 90,SEALY,TX,77474,(979) 732-2986,,29.742653,-96.330407
1102518,2301 FM 523,ANGLETON,TX,77515,(979) 849-5936,,29.196469,-95.456736
1100696,12940 IMPERIAL HWY,SANTA FE SPRINGS,CA,90670,(562) 863-4702,https://order.carlsjr.com/location/-ca-12940-imperial-hwy/menu,33.916901,-118.05577
1100329,10148 ROSECRANS AVE,BELLFLOWER,CA,90706,(562) 461-2906,https://order.carlsjr.com/location/-ca-bellflower-10148-rosecrans-ave/menu,33.90179,-118.11716
1100191,9110 IMPERIAL HIGHWAY,DOWNEY,CA,90242,(562) 923-7446,https://order.carlsjr.com/location/-ca-9110-imperial-highway/menu,33.916799,-118.13368
1100108,13157 TELEGRAPH RD,SANTA FE SPRINGS,CA,90670,(562) 941-0548,https://order.carlsjr.com/location/-ca-santa-fe-springs-13157-telegraph-rd/menu,33.9421,-118.0516
1100340,14555 LAKEWOOD BLVD,PARAMOUNT,CA,90723,(562) 408-2299,https://order.carlsjr.com/location/-ca-14555-lakewood-blvd/menu,33.901074,-118.14318
1100498,5601 WOODRUFF AVE,LAKEWOOD,CA,90713,(562) 867-6369,https://order.carlsjr.com/location/-ca-lakewood-5601-woodruff-ave/menu,33.85866,-118.11748
1100379,9400 SLAUSON AVENUE,PICO RIVERA,CA,90660,(562) 942-7681,https://order.carlsjr.com/location/-ca-9400-slauson-avenue/menu,33.968226,-118.09701
1100024,15226 E ROSECRANS,LA MIRADA,CA,90638,(714) 523-3373,http://carlsjr.olo.com/menu/ca-la-mirada-15226-e-rosecrans,33.898301,-118.00622
1100175,12358 WASHINGTON BLVD.,WHITTIER,CA,90606,(562) 789-8045,https://order.carlsjr.com/location/-ca-whittier-12358-washington-blvd/menu,33.96708,-118.04925
1100466,16229 PARAMOUNT BLVD,PARAMOUNT,CA,90723,(562) 531-8662,https://order.carlsjr.com/location/-ca-16229-paramount-blvd/menu,33.887045,-118.16054
1100050,5012 LA PALMA,LA PALMA,CA,90623,(562) 924-0988,https://order.carlsjr.com/location/-ca-la-palma-5012-la-palma/menu,33.84589,-118.04553
1100018,7200 FIRESTONE BLVD,DOWNEY,CA,90241,(562) 927-0129,http://carlsjr.olo.com/menu/ca-downey-7200-firestone-blvd,33.947296,-118.15433
1100398,5760 IMPERIAL HWY,SOUTH GATE,CA,90280,(562) 861-5435,https://order.carlsjr.com/location/-ca-5760-imperial-hwy/menu,33.929496,-118.16757
1100209,7201 CARSON ST,LONG BEACH,CA,90808,(562) 627-0979,https://order.carlsjr.com/location/-ca-long-beach-7201-carson-st/menu,33.83094,-118.0897
1100034,6002 BEACH BLVD,BUENA PARK,CA,90621,(714) 523-7240,https://order.carlsjr.com/location/-ca-6002-beach-blvd/menu,33.873275,-117.99793
1100669,15360 WHITTIER BLVD,WHITTIER,CA,90603,(562) 902-1974,https://order.carlsjr.com/location/-ca-whittier-15360-whittier-blvd/menu,33.94623,-117.99899
1100256,10409 WHITTIER BLVD.,WHITTIER,CA,90606,(562) 692-3114,https://order.carlsjr.com/location/-ca-whittier-10409-whittier-blvd/menu,33.99295,-118.06768
1100119,2710 DEL AMO,LAKEWOOD,CA,90712,(562) 422-1463,https://order.carlsjr.com/location/-ca-2710-del-amo/menu,33.846669,-118.15946
1100579,6601 ATLANTIC AVE,LONG BEACH,CA,90805,(562) 423-9539,https://order.carlsjr.com/location/-ca-6601-atlantic-ave/menu,33.874814,-118.18662
1100357,8991 KNOTT AVE,BUENA PARK,CA,90620,(714) 827-7210,https://order.carlsjr.com/location/-ca-8991-knott-ave/menu,33.83223,-118.01131
1100311,8401 LAUREL CANYON BLVD,SUN VALLEY,CA,91352,(818) 504-9167,https://order.carlsjr.com/location/-ca-sun-valley-8401-laurel-canyon-blvd/menu,34.22319,-118.39678
1100213,11509 LAUREL CANYON BLVD,SAN FERNANDO,CA,91340,(818) 365-5587,https://order.carlsjr.com/location/-ca-san-fernando-11509-laurel-canyon-blvd/menu,34.27902,-118.45406
1100042,14344 ROSCOE BLVD,PANORAMA CITY,CA,91402,(818) 892-2712,https://order.carlsjr.com/location/-ca-panorama-city-14344-roscoe-blvd/menu,34.22142,-118.44632
1100314,9505 SEPULVEDA BLVD,SEPULVEDA,CA,91343,(818) 894-4341,https://order.carlsjr.com/location/-ca-sepulveda-9505-sepulveda-blvd/menu,34.24324,-118.46802
1100510,8875 GLEN OAKS BLVD,SUN VALLEY,CA,91352,(818) 768-9227,https://order.carlsjr.com/location/-ca-sun-valley-8875-glen-oaks-blvd/menu,34.23005,-118.36718
1100517,7649 VAN NUYS BLVD,VAN NUYS,CA,91405,(818) 988-2312,https://order.carlsjr.com/location/-ca-van-nuys-7649-van-nuys-blvd/menu,34.20995,-118.44917
1100511,12653 SHERMAN WAY,NORTH HOLLYWOOD,CA,91605,(818) 764-5888,https://order.carlsjr.com/location/-ca-north-hollywood-12653-sherman-way/menu,34.20156,-118.40919
1100153,16815 DEVONSHIRE ST,GRANADA HILLS,CA,91344,(818) 368-5177,https://order.carlsjr.com/location/-ca-granada-hills-16815-devonshire-st/menu,34.25783,-118.49867
1101927,6601 LANKERSHIM BLVD,NORTH HOLLYWOOD,CA,91606,(818) 759-4708,https://order.carlsjr.com/location/-ca-north-hollywood-6601-lankershim-blvd/menu,34.19054,-118.38808
1100079,6202 LAUREL CANYON BLVD,NORTH HOLLYWOOD,CA,91606,(818) 762-3927,https://order.carlsjr.com/location/-ca-n-hollywood-6202-laurel-canyon-blvd/menu,34.18325,-118.39624
1100229,6457 SEPULVEDA BLVD,VAN NUYS,CA,91411,(818) 781-6101,https://order.carlsjr.com/location/-ca-van-nuys-6457-sepulveda-blvd/menu,34.18834,-118.46666
1100127,5575 WOODMAN AVE,VAN NUYS,CA,91401,(818) 994-2056,https://order.carlsjr.com/location/-ca-van-nuys-5575-woodman-ave/menu,34.17201,-118.43154
1100303,18090 W CHATSWORTH ST,GRANADA HILLS,CA,91344,(818) 360-6125,https://order.carlsjr.com/location/-ca-granada-hills-18090-w-chatsworth-st/menu,34.26449,-118.52534
1100641,5166 VINELAND AVE,NORTH HOLLYWOOD,CA,91601,(818) 763-5240,https://order.carlsjr.com/location/-ca-north-hollywood-5166-vineland-ave/menu,34.16465,-118.36981
1100172,1320 N. SAN FERNANDO ROAD,BURBANK,CA,91504,(818) 845-4390,https://order.carlsjr.com/location/-ca-burbank-1320-n-san-fernando-road/menu,34.1901,-118.32064
1100058,18756 SHERMAN WAY,RESEDA,CA,91335,(818) 881-8775,https://order.carlsjr.com/location/-ca-reseda-18756-sherman-way/menu,34.20072,-118.54242
1100171,3770 CAHUENGA BLVD,NORTH HOLLYWOOD,CA,91604,(818) 760-7669,https://order.carlsjr.com/location/-ca-north-hollywood-3770-cahuenga-blvd/menu,34.13659,-118.36245
1100487,20425 NEWHALL AVE,NEWHALL,CA,91321,(661) 259-9286,https://order.carlsjr.com/location/-ca-20425-newhall-ave/menu,34.366062,-118.50576
1100092,19305 VICTORY BLVD,RESEDA,CA,91335,(818) 996-1068,https://order.carlsjr.com/location/-ca-reseda-19305-victory-blvd/menu,34.18698,-118.554
1100262,20105 SATICOY,CANOGA PARK,CA,91306,(818) 709-0689,https://order.carlsjr.com/location/-ca-canoga-park-20105-saticoy/menu,34.20857,-118.57181
1101380,715 S CENTRAL EXPY,ANNA,TX,75409,(972) 924-3934,,33.345164,-96.584189
1101360,1990 E I30,ROCKWALL,TX,75087,(972) 722-3068,,32.918212,-96.419268
1101351,8800 S POLK ST,DALLAS,TX,75232,(972) 228-1840,,32.640968,-96.839305
1101566,2500 S INTERSTATE HIGHWAY 45 RD,HUTCHINS,TX,75141,(972) 225-3560,,32.624054,-96.693883
1101646,1306 MEMORIAL DR,MARIETTA,OK,73448,(580) 276-4979,https://order.carlsjr.com/location/-ok-marietta-1306-memorial-dr/menu,33.941009,-97.131978
1101645,1305 W MAIN ST,DURANT,OK,74701,(580) 924-7340,https://order.carlsjr.com/location/-ok-durant-1305-w-main-st/menu,33.99405,-96.390725
1102662,1201 S HILLCREST,SULPHUR SPRINGS,TX,75482,(903) 438-1803,,33.117431,-95.636768
1102389,1021 DALE EVANS DR,ITALY,TX,76651,(972) 483-1657,,32.194254,-96.898694
1101647,1608 N COMMERCE,ARDMORE,OK,73401,(580) 223-8822,,34.191867,-97.142506
1101219,1221 S OAK,VAN,TX,75790,(903) 963-3306,,32.508312,-95.642494
1101665,2104 W BROADWAY AVE,SULPHUR,OK,73086,(580) 622-3525,,34.506794,-96.993931
1100248,8924 SIERRA AVE,FONTANA,CA,92335,(909) 823-7200,https://order.carlsjr.com/location/-ca-fontana-8924-sierra-ave/menu,34.09173,-117.43621
1100048,14454 VALLEY BLVD,FONTANA,CA,92335,(909) 429-2226,https://order.carlsjr.com/location/-ca-fontana-14454-valley-blvd/menu,34.07051,-117.48999
1100226,16565 SIERRA LAKES PKWY,FONTANA,CA,92336,(909) 428-2704,https://order.carlsjr.com/location/-ca-16565-sierra-lakes-pkwy/menu,34.138468,-117.44215
1100200,11738 FOOTHILL BLVD,RANCHO CUCAMONGA,CA,91730,(909) 941-0041,https://order.carlsjr.com/location/-ca-11738-foothill-blvd/menu,34.10687,-117.54932
1100283,620 W FOOTHILL BLVD,RIALTO,CA,92376,(909) 875-2650,https://order.carlsjr.com/location/-ca-620-w-foothill-blvd/menu,34.107246,-117.38188
1100390,4453 MILLS CIRCLE,ONTARIO,CA,91764,(909) 476-0053,https://order.carlsjr.com/location/-ca-4453-mills-circle/menu,34.076798,-117.55483
1100541,10100 BEN NEVIS BLVD,RIVERSIDE,CA,92509,(951) 360-1249,https://order.carlsjr.com/location/-ca-10100-ben-nevis-blvd/menu,34.017929,-117.50463
1100428,1334 S RIVERSIDE AVE,RIALTO,CA,92376,(909) 562-0113,https://order.carlsjr.com/location/-ca-1334-s-riverside-ave/menu,34.07674,-117.3708
1100668,4555 E JURUPA ST,ONTARIO,CA,91761,(909) 605-0506,https://order.carlsjr.com/location/-ca-ontario-4555-e-jurupa-st/menu,34.04847,-117.55374
1100643,7359 MILLIKEN AVE,RANCHO CUCAMONGA,CA,91730,(909) 941-3795,https://order.carlsjr.com/location/-ca-7359-milliken-ave/menu,34.120316,-117.55808
1100582,2022 N RIVERSIDE AVE,RIALTO,CA,92377,(909) 873-4766,https://order.carlsjr.com/location/-ca-2022-n-riverside-ave/menu,34.138128,-117.37138
1101412,3610 S RIVERSIDE AVE,BLOOMINGTON,CA,92316,(951) 824-5199,https://order.carlsjr.com/location/-ca-bloomington-3610-s-riverside-ave/menu,34.037272,-117.36736
1101097,8919 LIMONITE AVE,RIVERSIDE,CA,92509,(951) 681-3970,https://order.carlsjr.com/location/-ca-riverside-8919-limonite-ave/menu,33.97594,-117.47816
1100236,9756 19TH ST,ALTA LOMA,CA,91737,(909) 987-6186,https://order.carlsjr.com/location/-ca-9756-19th-st/menu,34.133171,-117.59222
1102832,3440 E ONTARIO RANCH ROAD,ONTARIO,CA,91761,(909) 781-5981,https://order.carlsjr.com/location/-ca-3440-e-ontario-ranch-road/menu,34.000117,-117.57771
1100204,1625 E 4TH ST,ONTARIO,CA,91764,(909) 984-0949,https://order.carlsjr.com/location/-ca-1625-e-4th-st/menu,34.07812,-117.61953
1100126,8736 BASELINE RD,RANCHO CUCAMONGA,CA,91701,(909) 945-1383,https://order.carlsjr.com/location/-ca-8736-baseline-rd/menu,34.121996,-117.61522
1100268,6221 PATS RANCH RD,MIRA LOMA,CA,91752,(951) 739-0916,https://order.carlsjr.com/location/-ca-6221-pats-ranch-rd/menu,33.973952,-117.54426
1100202,4282 MARKET ST,RIVERSIDE,CA,92501,(951) 784-0521,https://order.carlsjr.com/location/-ca-riverside-4282-market-st/menu,33.97791,-117.37826
1100501,2421 SO VINEYARD AVE.,ONTARIO,CA,91761,(909) 947-2594,https://order.carlsjr.com/location/-ca-2421-so-vineyard-ave/menu,34.02966,-117.61049
1100007,4966 FLORENCE AVE,BELL,CA,90201,(323) 771-1097,https://order.carlsjr.com/location/-ca-bell-4966-florence-ave/menu,33.96898,-118.1782
1100018,7200 FIRESTONE BLVD,DOWNEY,CA,90241,(562) 927-0129,http://carlsjr.olo.com/menu/ca-downey-7200-firestone-blvd,33.947296,-118.15433
1100337,5501 TELEGRAPH RD,CITY OF COMMERCE,CA,90040,(323) 725-1386,https://order.carlsjr.com/location/-ca-city-of-commerce-5501-telegraph-rd/menu,34.00799,-118.15621
1100398,5760 IMPERIAL HWY,SOUTH GATE,CA,90280,(562) 861-5435,https://order.carlsjr.com/location/-ca-5760-imperial-hwy/menu,33.929496,-118.16757
1100364,3621 E IMPERIAL HIGHWAY,LYNWOOD,CA,90262,(310) 631-4833,https://order.carlsjr.com/location/-ca-lynwood-3621-e-imperial-highway/menu,33.93156,-118.20382
1100558,2401  E FLORENCE AVENUE,HUNTINGTON PARK,CA,90255,(323) 588-4718,https://order.carlsjr.com/location/-ca-huntington-park-2401-e-florence-avenue/menu,33.97502,-118.22997
1100163,5633 N. WHITTIER BLVD.,EAST LOS ANGELES,CA,90022,(323) 724-5488,https://order.carlsjr.com/location/-ca-los-angeles-5633-n-whittier-blvd/menu,34.01896,-118.14909
1100212,1751 S SOTO ST,LOS ANGELES,CA,90023,(323) 264-4232,https://order.carlsjr.com/location/-ca-los-angeles-1751-s-soto-st/menu,34.01708,-118.22036
1100379,9400 SLAUSON AVENUE,PICO RIVERA,CA,90660,(562) 942-7681,https://order.carlsjr.com/location/-ca-9400-slauson-avenue/menu,33.968226,-118.09701
1100191,9110 IMPERIAL HIGHWAY,DOWNEY,CA,90242,(562) 923-7446,https://order.carlsjr.com/location/-ca-9110-imperial-highway/menu,33.916799,-118.13368
1100440,1439 E GAGE AVE,LOS ANGELES,CA,90001,(323) 588-5324,https://order.carlsjr.com/location/-ca-los-angeles-1439-e-gage-ave/menu,33.98244,-118.24806
1100531,1231 W. AVENIDA CESAR CHAVEZ,MONTEREY PARK,CA,91754,(323) 264-1122,https://order.carlsjr.com/location/-ca-monterey-park-1231-w-avenida-cesar-chavez/menu,34.03831,-118.14677
1100340,14555 LAKEWOOD BLVD,PARAMOUNT,CA,90723,(562) 408-2299,https://order.carlsjr.com/location/-ca-14555-lakewood-blvd/menu,33.901074,-118.14318
1100049,1400 E ROSECRANS AVE,COMPTON,CA,90221,(310) 632-6359,http://carlsjr.olo.com/menu/ca-compton-1400-e-rosecrans-ave,33.90308,-118.20803
1100422,2320 E 4TH ST,LOS ANGELES,CA,90033,(323) 262-2603,https://order.carlsjr.com/location/-ca-los-angeles-2320-e-4th-st/menu,34.04055,-118.21244
1100329,10148 ROSECRANS AVE,BELLFLOWER,CA,90706,(562) 461-2906,https://order.carlsjr.com/location/-ca-bellflower-10148-rosecrans-ave/menu,33.90179,-118.11716
1100466,16229 PARAMOUNT BLVD,PARAMOUNT,CA,90723,(562) 531-8662,https://order.carlsjr.com/location/-ca-16229-paramount-blvd/menu,33.887045,-118.16054
1100256,10409 WHITTIER BLVD.,WHITTIER,CA,90606,(562) 692-3114,https://order.carlsjr.com/location/-ca-whittier-10409-whittier-blvd/menu,33.99295,-118.06768
1100637,1471 N. MONTEBELLO BLVD,MONTEBELLO,CA,90640,(323) 721-9989,https://order.carlsjr.com/location/-ca-montebello-1471-n-montebello-blvd/menu,34.03285,-118.09323
1101487,5151 STATE UNIVERSITY DR,LOS ANGELES,CA,90032,(323) 343-6780,https://order.carlsjr.com/location/-ca-los-angeles-5151-state-university-dr/menu,34.06237,-118.17159
1101757,1315 E WHITESTONE BLVD,CEDAR PARK,TX,78613,(512) 259-5159,https://order.carlsjr.com/location/-tx-cedar-park-1315-e-whitestone-blvd/menu,30.52627,-97.81495
1101854,1039 W UNIVERSITY AVE,GEORGETOWN,TX,78628,(512) 868-0200,https://order.carlsjr.com/location/-tx-georgetown-1039-w-university-ave/menu,30.63243,-97.69847
1102092,6709 US HWY 90,SEALY,TX,77474,(979) 732-2986,,29.742653,-96.330407
1101350,11361 IH 35 S,VON ORMY,TX,78073,(210) 623-5516,,29.310961,-98.617748
1100226,16565 SIERRA LAKES PKWY,FONTANA,CA,92336,(909) 428-2704,https://order.carlsjr.com/location/-ca-16565-sierra-lakes-pkwy/menu,34.138468,-117.44215
1100248,8924 SIERRA AVE,FONTANA,CA,92335,(909) 823-7200,https://order.carlsjr.com/location/-ca-fontana-8924-sierra-ave/menu,34.09173,-117.43621
1100283,620 W FOOTHILL BLVD,RIALTO,CA,92376,(909) 875-2650,https://order.carlsjr.com/location/-ca-620-w-foothill-blvd/menu,34.107246,-117.38188
1100582,2022 N RIVERSIDE AVE,RIALTO,CA,92377,(909) 873-4766,https://order.carlsjr.com/location/-ca-2022-n-riverside-ave/menu,34.138128,-117.37138
1100048,14454 VALLEY BLVD,FONTANA,CA,92335,(909) 429-2226,https://order.carlsjr.com/location/-ca-fontana-14454-valley-blvd/menu,34.07051,-117.48999
1100200,11738 FOOTHILL BLVD,RANCHO CUCAMONGA,CA,91730,(909) 941-0041,https://order.carlsjr.com/location/-ca-11738-foothill-blvd/menu,34.10687,-117.54932
1100643,7359 MILLIKEN AVE,RANCHO CUCAMONGA,CA,91730,(909) 941-3795,https://order.carlsjr.com/location/-ca-7359-milliken-ave/menu,34.120316,-117.55808
1100428,1334 S RIVERSIDE AVE,RIALTO,CA,92376,(909) 562-0113,https://order.carlsjr.com/location/-ca-1334-s-riverside-ave/menu,34.07674,-117.3708
1100390,4453 MILLS CIRCLE,ONTARIO,CA,91764,(909) 476-0053,https://order.carlsjr.com/location/-ca-4453-mills-circle/menu,34.076798,-117.55483
1100653,4424 UNIVERSITY PARKWAY,SAN BERNARDINO,CA,92407,(909) 473-1066,https://order.carlsjr.com/location/-ca-san-bernardino-4424-university-parkway/menu,34.16912,-117.33324
1100236,9756 19TH ST,ALTA LOMA,CA,91737,(909) 987-6186,https://order.carlsjr.com/location/-ca-9756-19th-st/menu,34.133171,-117.59222
1100668,4555 E JURUPA ST,ONTARIO,CA,91761,(909) 605-0506,https://order.carlsjr.com/location/-ca-ontario-4555-e-jurupa-st/menu,34.04847,-117.55374
1100541,10100 BEN NEVIS BLVD,RIVERSIDE,CA,92509,(951) 360-1249,https://order.carlsjr.com/location/-ca-10100-ben-nevis-blvd/menu,34.017929,-117.50463
1101412,3610 S RIVERSIDE AVE,BLOOMINGTON,CA,92316,(951) 824-5199,https://order.carlsjr.com/location/-ca-bloomington-3610-s-riverside-ave/menu,34.037272,-117.36736
1100126,8736 BASELINE RD,RANCHO CUCAMONGA,CA,91701,(909) 945-1383,https://order.carlsjr.com/location/-ca-8736-baseline-rd/menu,34.121996,-117.61522
1100081,524 INLAND CENTER DR,SAN BERNARDINO,CA,92408,(909) 884-5514,https://order.carlsjr.com/location/-ca-524-inland-center-dr/menu,34.091518,-117.29512
1100204,1625 E 4TH ST,ONTARIO,CA,91764,(909) 984-0949,https://order.carlsjr.com/location/-ca-1625-e-4th-st/menu,34.07812,-117.61953
1100116,1915 N CAMPUS AVE,UPLAND,CA,91784,(909) 920-5380,https://order.carlsjr.com/location/-ca-1915-n-campus-ave/menu,34.132993,-117.63805
1102773,293 E 40TH ST,SAN BERNARDINO,CA,92404,(909) 881-1775,https://order.carlsjr.com/location/-ca-san-bernardino-293-e-40th-st/menu,34.16466,-117.27951
1100134,688 E FOOTHILL BLVD,UPLAND,CA,91786,(909) 920-6641,https://order.carlsjr.com/location/-ca-688-e-foothill-blvd/menu,34.106519,-117.64287
1101351,8800 S POLK ST,DALLAS,TX,75232,(972) 228-1840,,32.640968,-96.839305
1101566,2500 S INTERSTATE HIGHWAY 45 RD,HUTCHINS,TX,75141,(972) 225-3560,,32.624054,-96.693883
1102389,1021 DALE EVANS DR,ITALY,TX,76651,(972) 483-1657,,32.194254,-96.898694
1101360,1990 E I30,ROCKWALL,TX,75087,(972) 722-3068,,32.918212,-96.419268
1101380,715 S CENTRAL EXPY,ANNA,TX,75409,(972) 924-3934,,33.345164,-96.584189
1101219,1221 S OAK,VAN,TX,75790,(903) 963-3306,,32.508312,-95.642494
1102662,1201 S HILLCREST,SULPHUR SPRINGS,TX,75482,(903) 438-1803,,33.117431,-95.636768
1101646,1306 MEMORIAL DR,MARIETTA,OK,73448,(580) 276-4979,,33.941009,-97.131978
1101645,1305 W MAIN ST,DURANT,OK,74701,(580) 924-7340,,33.99405,-96.390725
1100144,14208 HAWTHORNE BLVD,HAWTHORNE,CA,90250,(310) 675-2129,https://order.carlsjr.com/location/-ca-14208-hawthorne-blvd/menu,33.902664,-118.35202
1100599,5315 ROSECRANS,HAWTHORNE,CA,90250,(310) 643-6330,https://order.carlsjr.com/location/-ca-5315-reosecrans/menu,33.902155,-118.37251
1100532,3300 W CENTURY BLVD,INGLEWOOD,CA,90303,(310) 672-2742,https://order.carlsjr.com/location/-ca-3300-w-century-blvd/menu,33.945161,-118.32878
1101133,11224 S WESTERN AVE,LOS ANGELES,CA,90047,(323) 242-0011,https://order.carlsjr.com/location/-ca-los-angeles-11224-s-western-ave/menu,33.931877,-118.30851
1100066,2210 W REDONDO BEACH BLVD,TORRANCE,CA,90504,(310) 323-1472,https://order.carlsjr.com/location/-ca-2210-w-redondo-beach-blvd/menu,33.885355,-118.31822
1100408,5625 W CENTURY BLVD,LOS ANGELES,CA,90045,(310) 216-9306,https://order.carlsjr.com/location/-ca-los-angeles-5625-w-century-blvd/menu,33.94585,-118.37982
1100272,639 N. SEPULVEDA BLVD.,EL SEGUNDO,CA,90245,(310) 322-1318,https://order.carlsjr.com/location/-ca-639-n-sepulveda-blvd/menu,33.924903,-118.39674
1100431,3971 ARTESIA BLVD,TORRANCE,CA,90504,(310) 214-9288,https://order.carlsjr.com/location/-ca-3971-artesia-blvd/menu,33.873108,-118.34349
1100210,2100 ARTESIA BLVD,REDONDO BEACH,CA,90278,(310) 374-8022,https://order.carlsjr.com/location/-ca-redondo-beach-2100-artesia-blvd/menu,33.87257,-118.37445
1100114,344 W MANCHESTER,INGLEWOOD,CA,90301,(310) 671-1686,https://order.carlsjr.com/location/-ca-inglewood-344-w-manchester/menu,33.96132,-118.36134
1102047,"TERMINAL 8, SP 8E, LAX, 1 WORLD WAY",LOS ANGELES,CA,90045,(310) 890-3363,,33.95334,-118.40028
1100544,1401 W. ARTESIA BLVD,GARDENA,CA,90248,(310) 324-4562,https://order.carlsjr.com/location/-ca-1401-w-artesia-blvd/menu,33.873373,-118.29942
1100215,1360 W 190TH ST,TORRANCE,CA,90501,(310) 618-1008,https://order.carlsjr.com/location/-ca-torrance-1360-w-190th-st/menu,33.85805,-118.30204
1100280,701 N PACIFIC COAST HWY,REDONDO BEACH,CA,90277,(310) 379-3331,https://order.carlsjr.com/location/-ca-redondo-beach-701-n-pacific-coast-hwy/menu,33.85244,-118.3898
1100076,21112 ANZA AVE,TORRANCE,CA,90503,(310) 371-1586,https://order.carlsjr.com/location/-ca-21112-anza-ave/menu,33.838474,-118.36204
1100362,17450  AVALON  BLVD,CARSON,CA,90746,(310) 323-6855,https://order.carlsjr.com/location/-ca-17450-avalon-blvd/menu,33.872338,-118.2655
1100426,1259 W CARSON ST,TORRANCE,CA,90502,(310) 212-7941,https://order.carlsjr.com/location/-ca-1259-w-carson-st/menu,33.831906,-118.29893
1100370,1931 W ARTESIA BLVD,COMPTON,CA,90220,(310) 632-5103,https://order.carlsjr.com/location/-ca-compton-1931-w-artesia-blvd/menu,33.87432,-118.24838
1100158,24010 HAWTHORNE BLVD,TORRANCE,CA,90505,(310) 375-2844,https://order.carlsjr.com/location/-ca-torrance-24010-hawthorne-blvd/menu,33.80637,-118.35061
1100804,1001 W MARTIN LUTHER KING JR,LOS ANGELES,CA,90037,(323) 766-8290,https://order.carlsjr.com/location/-ca-los-angeles-1001-w-martin-luther-king-jr/menu,34.011153,-118.29191
1100364,3621 E IMPERIAL HIGHWAY,LYNWOOD,CA,90262,(310) 631-4833,https://order.carlsjr.com/location/-ca-lynwood-3621-e-imperial-highway/menu,33.93156,-118.20382
1100398,5760 IMPERIAL HWY,SOUTH GATE,CA,90280,(562) 861-5435,https://order.carlsjr.com/location/-ca-5760-imperial-hwy/menu,33.929496,-118.16757
1100007,4966 FLORENCE AVE,BELL,CA,90201,(323) 771-1097,https://order.carlsjr.com/location/-ca-bell-4966-florence-ave/menu,33.96898,-118.1782
1100018,7200 FIRESTONE BLVD,DOWNEY,CA,90241,(562) 927-0129,http://carlsjr.olo.com/menu/ca-downey-7200-firestone-blvd,33.947296,-118.15433
1100049,1400 E ROSECRANS AVE,COMPTON,CA,90221,(310) 632-6359,http://carlsjr.olo.com/menu/ca-compton-1400-e-rosecrans-ave,33.90308,-118.20803
1100558,2401  E FLORENCE AVENUE,HUNTINGTON PARK,CA,90255,(323) 588-4718,https://order.carlsjr.com/location/-ca-huntington-park-2401-e-florence-avenue/menu,33.97502,-118.22997
1100191,9110 IMPERIAL HIGHWAY,DOWNEY,CA,90242,(562) 923-7446,https://order.carlsjr.com/location/-ca-9110-imperial-highway/menu,33.916799,-118.13368
1100340,14555 LAKEWOOD BLVD,PARAMOUNT,CA,90723,(562) 408-2299,https://order.carlsjr.com/location/-ca-14555-lakewood-blvd/menu,33.901074,-118.14318
1100440,1439 E GAGE AVE,LOS ANGELES,CA,90001,(323) 588-5324,https://order.carlsjr.com/location/-ca-los-angeles-1439-e-gage-ave/menu,33.98244,-118.24806
1100466,16229 PARAMOUNT BLVD,PARAMOUNT,CA,90723,(562) 531-8662,https://order.carlsjr.com/location/-ca-16229-paramount-blvd/menu,33.887045,-118.16054
1100579,6601 ATLANTIC AVE,LONG BEACH,CA,90805,(562) 423-9539,https://order.carlsjr.com/location/-ca-6601-atlantic-ave/menu,33.874814,-118.18662
1100337,5501 TELEGRAPH RD,CITY OF COMMERCE,CA,90040,(323) 725-1386,https://order.carlsjr.com/location/-ca-city-of-commerce-5501-telegraph-rd/menu,34.00799,-118.15621
1100329,10148 ROSECRANS AVE,BELLFLOWER,CA,90706,(562) 461-2906,https://order.carlsjr.com/location/-ca-bellflower-10148-rosecrans-ave/menu,33.90179,-118.11716
1100212,1751 S SOTO ST,LOS ANGELES,CA,90023,(323) 264-4232,https://order.carlsjr.com/location/-ca-los-angeles-1751-s-soto-st/menu,34.01708,-118.22036
1100163,5633 N. WHITTIER BLVD.,EAST LOS ANGELES,CA,90022,(323) 724-5488,https://order.carlsjr.com/location/-ca-los-angeles-5633-n-whittier-blvd/menu,34.01896,-118.14909
1100379,9400 SLAUSON AVENUE,PICO RIVERA,CA,90660,(562) 942-7681,https://order.carlsjr.com/location/-ca-9400-slauson-avenue/menu,33.968226,-118.09701
1100370,1931 W ARTESIA BLVD,COMPTON,CA,90220,(310) 632-5103,https://order.carlsjr.com/location/-ca-compton-1931-w-artesia-blvd/menu,33.87432,-118.24838
1100362,17450  AVALON  BLVD,CARSON,CA,90746,(310) 323-6855,https://order.carlsjr.com/location/-ca-17450-avalon-blvd/menu,33.872338,-118.2655
1101133,11224 S WESTERN AVE,LOS ANGELES,CA,90047,(323) 242-0011,https://order.carlsjr.com/location/-ca-los-angeles-11224-s-western-ave/menu,33.931877,-118.30851
1100422,2320 E 4TH ST,LOS ANGELES,CA,90033,(323) 262-2603,https://order.carlsjr.com/location/-ca-los-angeles-2320-e-4th-st/menu,34.04055,-118.21244
1102092,6709 US HWY 90,SEALY,TX,77474,(979) 732-2986,,29.742653,-96.330407
1102518,2301 FM 523,ANGLETON,TX,77515,(979) 849-5936,,29.196469,-95.456736
1100579,6601 ATLANTIC AVE,LONG BEACH,CA,90805,(562) 423-9539,https://order.carlsjr.com/location/-ca-6601-atlantic-ave/menu,33.874814,-118.18662
1100119,2710 DEL AMO,LAKEWOOD,CA,90712,(562) 422-1463,https://order.carlsjr.com/location/-ca-2710-del-amo/menu,33.846669,-118.15946
1100466,16229 PARAMOUNT BLVD,PARAMOUNT,CA,90723,(562) 531-8662,https://order.carlsjr.com/location/-ca-16229-paramount-blvd/menu,33.887045,-118.16054
1100159,2100  E CARSON ST,LONG BEACH,CA,90807,(562) 492-9984,https://order.carlsjr.com/location/-ca-2100-e-carson-st/menu,33.832056,-118.16644
1100037,3700 ATLANTIC AVE,LONG BEACH,CA,90807,(562) 424-9894,,33.824495,-118.1847
1100049,1400 E ROSECRANS AVE,COMPTON,CA,90221,(310) 632-6359,http://carlsjr.olo.com/menu/ca-compton-1400-e-rosecrans-ave,33.90308,-118.20803
1100340,14555 LAKEWOOD BLVD,PARAMOUNT,CA,90723,(562) 408-2299,https://order.carlsjr.com/location/-ca-14555-lakewood-blvd/menu,33.901074,-118.14318
1100625,1881 E DEL AMO BLVD,CARSON,CA,90746,(310) 763-2744,https://order.carlsjr.com/location/-ca-1881-e-del-amo-blvd/menu,33.847141,-118.23433
1100498,5601 WOODRUFF AVE,LAKEWOOD,CA,90713,(562) 867-6369,https://order.carlsjr.com/location/-ca-lakewood-5601-woodruff-ave/menu,33.85866,-118.11748
1100370,1931 W ARTESIA BLVD,COMPTON,CA,90220,(310) 632-5103,https://order.carlsjr.com/location/-ca-compton-1931-w-artesia-blvd/menu,33.87432,-118.24838
1100228,271 EAST WILLOW STREET,LONG BEACH,CA,90806,(562) 981-9192,https://order.carlsjr.com/location/-ca-long-beach-271-east-willow-st/menu,33.8048,-118.18965
1100329,10148 ROSECRANS AVE,BELLFLOWER,CA,90706,(562) 461-2906,https://order.carlsjr.com/location/-ca-bellflower-10148-rosecrans-ave/menu,33.90179,-118.11716
1100191,9110 IMPERIAL HIGHWAY,DOWNEY,CA,90242,(562) 923-7446,https://order.carlsjr.com/location/-ca-9110-imperial-highway/menu,33.916799,-118.13368
1100398,5760 IMPERIAL HWY,SOUTH GATE,CA,90280,(562) 861-5435,https://order.carlsjr.com/location/-ca-5760-imperial-hwy/menu,33.929496,-118.16757
1100364,3621 E IMPERIAL HIGHWAY,LYNWOOD,CA,90262,(310) 631-4833,https://order.carlsjr.com/location/-ca-lynwood-3621-e-imperial-highway/menu,33.93156,-118.20382
1100362,17450  AVALON  BLVD,CARSON,CA,90746,(310) 323-6855,https://order.carlsjr.com/location/-ca-17450-avalon-blvd/menu,33.872338,-118.2655
1100139,2920 N BELLFLOWER BLVD,LONG BEACH,CA,90815,(562) 421-1050,https://order.carlsjr.com/location/-ca-2920-n-bellflower-blvd/menu,33.809184,-118.12486
1100347,21703 S AVALON BLVD,CARSON,CA,90745,(310) 549-8632,https://order.carlsjr.com/location/-ca-carson-21703-s-avalon-blvd/menu,33.83139,-118.26408
1101137,1670 W PACIFIC COAST HWY,LONG BEACH,CA,90810,(562) 983-7827,https://order.carlsjr.com/location/-ca-long-beach-1670-w-pacific-coast-hwy/menu,33.78922,-118.21511
1100209,7201 CARSON ST,LONG BEACH,CA,90808,(562) 627-0979,https://order.carlsjr.com/location/-ca-long-beach-7201-carson-st/menu,33.83094,-118.0897
1100638,6751 WESTMINSTER BLVD,WESTMINSTER,CA,92683,(714) 892-8214,https://order.carlsjr.com/location/-ce-6751-westminster-blvd/menu,33.759474,-118.00937
1100317,13425 BEACH BLVD,WESTMINSTER,CA,92683,(714) 901-5513,https://order.carlsjr.com/location/-ca-13425-beach-blvd/menu,33.767666,-117.99108
1100005,10012 WESTMINSTER AVE,GARDEN GROVE,CA,92843,(714) 534-1412,https://order.carlsjr.com/location/-ca-10012-westminster-ave/menu,33.759258,-117.95441
1100580,11961 BEACH BLVD,STANTON,CA,90680,(714) 895-5114,https://order.carlsjr.com/location/-ca-11961-beach-blvd/menu,33.788664,-117.99346
1100465,8271 WARNER AVE,HUNTINGTON BEACH,CA,92647,(714) 848-1206,https://order.carlsjr.com/location/-ca-8271-warner-ave/menu,33.716152,-117.98417
1100067,6882 WARNER,HUNTINGTON BEACH,CA,92647,(714) 842-7666,https://order.carlsjr.com/location/-ca-6882-warner/menu,33.71508,-118.00889
1100604,6022 CHAPMAN AVE,GARDEN GROVE,CA,92845,(714) 891-2773,https://order.carlsjr.com/location/-ca-6022-chapman-ave/menu,33.788175,-118.02808
1100444,9917 CHAPMAN AVE,GARDEN GROVE,CA,92841,(714) 636-8456,https://order.carlsjr.com/location/-ca-9917-chapman-ave/menu,33.788987,-117.95995
1100130,16031 BOLSA CHICA,HUNTINGTON BEACH,CA,92649,(714) 846-2422,https://order.carlsjr.com/location/-ca-16031-bolsa-chica/menu,33.729231,-118.04202
1100036,17085 BROOKHURST ST,FOUNTAIN VALLEY,CA,92708,(714) 965-0293,https://order.carlsjr.com/location/-ca-17085-brookhurst-st/menu,33.714463,-117.95492
1100454,6947 KATELLA AVE,CYPRESS,CA,90630,(714) 220-4977,https://order.carlsjr.com/location/-ca-6947-katella-ave/menu,33.803386,-118.01143
1100576,5930 CERRITOS AVENUE,CYPRESS,CA,90630,(714) 527-7443,https://order.carlsjr.com/location/-ca-5930-cerritos-avenue/menu,33.809464,-118.02938
1100536,13011 HARBOR BOULEVARD,GARDEN GROVE,CA,92843,(714) 537-8455,https://order.carlsjr.com/location/-ca-garden-grove-13011-harbor-boulevard/menu,33.77411,-117.92082
1100549,16101 HARBOR BLVD,FOUNTAIN VALLEY,CA,92708,(714) 839-8506,https://order.carlsjr.com/location/-ca-16101-harbor-blvd/menu,33.730781,-117.92047
1100006,11051 EUCLID AVE,GARDEN GROVE,CA,92840,(714) 636-6100,https://order.carlsjr.com/location/-ca-garden-grove-11051-euclid-ave/menu,33.80236,-117.94187
1100352,19125 GOLDENWEST ST,HUNTINGTON BEACH,CA,92648,(714) 374-8505,https://order.carlsjr.com/location/-ca-19125-goldenwest-st/menu,33.68483,-118.00653
1100656,13902 SEAL BEACH BLVD,SEAL BEACH,CA,90740,(562) 430-2739,https://order.carlsjr.com/location/-ca-13902-seal-beach-blvd/menu,33.76133,-118.07813
1100088,19512 BEACH BLVD,HUNTINGTON BEACH,CA,92648,(714) 968-7374,https://order.carlsjr.com/location/-ca-19512-beach-blvd/menu,33.679138,-117.98817
1100027,2119 S HARBOR BLVD,ANAHEIM,CA,92802,(714) 971-5641,https://order.carlsjr.com/location/-ca-anaheim-2119-s-harbor-blvd/menu,33.79535,-117.91543
1100245,3325 S HARBOR,SANTA ANA,CA,92704,(714) 979-1572,https://order.carlsjr.com/location/-ca-santa-ana-3325-s-harbor/menu,33.70286,-117.91911
1100213,11509 LAUREL CANYON BLVD,SAN FERNANDO,CA,91340,(818) 365-5587,https://order.carlsjr.com/location/-ca-san-fernando-11509-laurel-canyon-blvd/menu,34.27902,-118.45406
1100510,8875 GLEN OAKS BLVD,SUN VALLEY,CA,91352,(818) 768-9227,https://order.carlsjr.com/location/-ca-sun-valley-8875-glen-oaks-blvd/menu,34.23005,-118.36718
1100311,8401 LAUREL CANYON BLVD,SUN VALLEY,CA,91352,(818) 504-9167,https://order.carlsjr.com/location/-ca-sun-valley-8401-laurel-canyon-blvd/menu,34.22319,-118.39678
1100314,9505 SEPULVEDA BLVD,SEPULVEDA,CA,91343,(818) 894-4341,https://order.carlsjr.com/location/-ca-sepulveda-9505-sepulveda-blvd/menu,34.24324,-118.46802
1100042,14344 ROSCOE BLVD,PANORAMA CITY,CA,91402,(818) 892-2712,https://order.carlsjr.com/location/-ca-panorama-city-14344-roscoe-blvd/menu,34.22142,-118.44632
1100487,20425 NEWHALL AVE,NEWHALL,CA,91321,(661) 259-9286,https://order.carlsjr.com/location/-ca-20425-newhall-ave/menu,34.366062,-118.50576
1100153,16815 DEVONSHIRE ST,GRANADA HILLS,CA,91344,(818) 368-5177,https://order.carlsjr.com/location/-ca-granada-hills-16815-devonshire-st/menu,34.25783,-118.49867
1100160,18950 SOLEDAD CANYON RD,CANYON COUNTRY,CA,91351,(661) 252-4114,https://order.carlsjr.com/location/-ca-18950-soledad-canyon-rd/menu,34.41543,-118.46664
1100511,12653 SHERMAN WAY,NORTH HOLLYWOOD,CA,91605,(818) 764-5888,https://order.carlsjr.com/location/-ca-north-hollywood-12653-sherman-way/menu,34.20156,-118.40919
1100517,7649 VAN NUYS BLVD,VAN NUYS,CA,91405,(818) 988-2312,https://order.carlsjr.com/location/-ca-van-nuys-7649-van-nuys-blvd/menu,34.20995,-118.44917
1100303,18090 W CHATSWORTH ST,GRANADA HILLS,CA,91344,(818) 360-6125,https://order.carlsjr.com/location/-ca-granada-hills-18090-w-chatsworth-st/menu,34.26449,-118.52534
1101927,6601 LANKERSHIM BLVD,NORTH HOLLYWOOD,CA,91606,(818) 759-4708,https://order.carlsjr.com/location/-ca-north-hollywood-6601-lankershim-blvd/menu,34.19054,-118.38808
1100079,6202 LAUREL CANYON BLVD,NORTH HOLLYWOOD,CA,91606,(818) 762-3927,https://order.carlsjr.com/location/-ca-n-hollywood-6202-laurel-canyon-blvd/menu,34.18325,-118.39624
1100172,1320 N. SAN FERNANDO ROAD,BURBANK,CA,91504,(818) 845-4390,https://order.carlsjr.com/location/-ca-burbank-1320-n-san-fernando-road/menu,34.1901,-118.32064
1100113,23320 LYONS AVENUE,NEWHALL,CA,91321,(661) 255-6979,https://order.carlsjr.com/location/-ca-23320-lyons-avenue/menu,34.379327,-118.54117
1100229,6457 SEPULVEDA BLVD,VAN NUYS,CA,91411,(818) 781-6101,https://order.carlsjr.com/location/-ca-van-nuys-6457-sepulveda-blvd/menu,34.18834,-118.46666
1100127,5575 WOODMAN AVE,VAN NUYS,CA,91401,(818) 994-2056,https://order.carlsjr.com/location/-ca-van-nuys-5575-woodman-ave/menu,34.17201,-118.43154
1100641,5166 VINELAND AVE,NORTH HOLLYWOOD,CA,91601,(818) 763-5240,https://order.carlsjr.com/location/-ca-north-hollywood-5166-vineland-ave/menu,34.16465,-118.36981
1100429,24715 PICO CANYON RD,STEVENSON RANCH,CA,91381,(661) 259-9098,https://order.carlsjr.com/location/-ca-24715-pico-canyon-rd/menu,34.379656,-118.56722
1100058,18756 SHERMAN WAY,RESEDA,CA,91335,(818) 881-8775,,34.20072,-118.54242
1101018,1530 KIRKER PASS ROAD,CLAYTON,CA,94517,(925) 672-9324,https://order.carlsjr.com/location/-ca-clayton-1530-kirker-pass-road/menu,37.95299,-121.95565
1100521,4595 CENTURY BLVD,PITTSBURG,CA,94565,(925) 754-5423,https://order.carlsjr.com/location/-ca-pittsburg-4595-century-blvd/menu,38.006508,-121.83667
1101150,915 MAIN ST,OAKLEY,CA,94561,(925) 778-5472,https://order.carlsjr.com/location/-ca-oakley-915-main-st/menu,38.004647,-121.75216
1101148,550-D MORELLO AVE,MARTINEZ,CA,94553,(925) 313-9420,https://order.carlsjr.com/location/-ca-martinez-550-d-morello-ave/menu,37.99302,-122.10007
1101100,5990 E. 2ND STREET,BENICIA,CA,94510,(707) 955-1030,https://order.carlsjr.com/location/-ca-benicia-5990-e-2nd-street/menu,38.08582,-122.11356
1101568,6291 LONE TREE WAY,BRENTWOOD,CA,94513,(925) 308-7010,https://order.carlsjr.com/location/-ca-brentwood-6291-lone-tree-way/menu,37.961103,-121.73594
1101017,3131 CROW CANYON PL,SAN RAMON,CA,94583,(925) 866-1156,https://order.carlsjr.com/location/-ca-san-ramon-3131-crow-canyon-pl/menu,37.77901,-121.96921
1100416,4400 CENTRAL PL,FAIRFIELD,CA,94534,(707) 864-2122,https://order.carlsjr.com/location/-ca-fairfield-4400-central-pl/menu,38.22262,-122.1262
1100249,2380 N TEXAS ST,FAIRFIELD,CA,94533,(707) 425-6993,https://order.carlsjr.com/location/-ca-fairfield-2380-n-texas-st/menu,38.27214,-122.0336
1100887,3897 SONOMA BLVD,VALLEJO,CA,94589,(707) 642-9066,https://order.carlsjr.com/location/-ca-vallejo-3897-sonoma-blvd/menu,38.12736,-122.25612
1101029,1550 FITZGERALD DRIVE,PINOLE,CA,94564,(510) 223-2562,https://order.carlsjr.com/location/-ca-pinole-1550-fitzgerald-drive/menu,37.99111,-122.30143
1102575,10770 MACARTHUR BLVD.,OAKLAND,CA,94605,(510) 383-8910,https://order.carlsjr.com/location/-ca-oakland-10770-macarthur-blvd/menu,37.74206,-122.15036
1100720,3770 TELEGRAPH AVENUE,OAKLAND,CA,94609,(510) 658-4491,https://order.carlsjr.com/location/-ca-oakland-3770-telegraph-avenue/menu,37.826793,-122.2647
1101729,2860 KITTY HAWK RD,LIVERMORE,CA,94551,(925) 449-1876,https://order.carlsjr.com/location/-ca-livermore-2860-kitty-hawk-rd/menu,37.70034,-121.81604
1100671,289 ORANGE DRIVE,VACAVILLE,CA,95687,(707) 452-1499,https://order.carlsjr.com/location/-ca-vacaville-289-orange-drive/menu,38.36908,-121.95619
1101075,875 E. STANLEY BLVD,LIVERMORE,CA,94550,(925) 443-1565,https://order.carlsjr.com/location/-ca-livermore-875-e-stanley-blvd/menu,37.67797,-121.78598
1101081,20550 MISSION BLVD,HAYWARD,CA,94541,(510) 317-0328,https://order.carlsjr.com/location/-ca-hayward-20550-mission-blvd/menu,37.685583,-122.10001
1100824,871 MARINA VILLAGE PARKWAY,ALAMEDA,CA,94501,(510) 523-1464,https://order.carlsjr.com/location/-ca-alameda-871-marina-village-parkway/menu,37.783036,-122.27253
1100783,1631 IMOLA AVE,NAPA,CA,94559,(707) 224-4750,https://order.carlsjr.com/location/-ca-napa-1631-imola-ave/menu,38.28145,-122.29223
1101080,27467 HESPERIAN BLVD,HAYWARD,CA,94545,(510) 786-3440,https://order.carlsjr.com/location/-ca-hayward-27467-hesperian-blvd/menu,37.629923,-122.09656
1101133,11224 S WESTERN AVE,LOS ANGELES,CA,90047,(323) 242-0011,https://order.carlsjr.com/location/-ca-los-angeles-11224-s-western-ave/menu,33.931877,-118.30851
1100532,3300 W CENTURY BLVD,INGLEWOOD,CA,90303,(310) 672-2742,https://order.carlsjr.com/location/-ca-3300-w-century-blvd/menu,33.945161,-118.32878
1100440,1439 E GAGE AVE,LOS ANGELES,CA,90001,(323) 588-5324,https://order.carlsjr.com/location/-ca-los-angeles-1439-e-gage-ave/menu,33.98244,-118.24806
1100558,2401  E FLORENCE AVENUE,HUNTINGTON PARK,CA,90255,(323) 588-4718,https://order.carlsjr.com/location/-ca-huntington-park-2401-e-florence-avenue/menu,33.97502,-118.22997
1100804,1001 W MARTIN LUTHER KING JR,LOS ANGELES,CA,90037,(323) 766-8290,https://order.carlsjr.com/location/-ca-los-angeles-1001-w-martin-luther-king-jr/menu,34.011153,-118.29191
1100114,344 W MANCHESTER,INGLEWOOD,CA,90301,(310) 671-1686,https://order.carlsjr.com/location/-ca-inglewood-344-w-manchester/menu,33.96132,-118.36134
1100144,14208 HAWTHORNE BLVD,HAWTHORNE,CA,90250,(310) 675-2129,https://order.carlsjr.com/location/-ca-14208-hawthorne-blvd/menu,33.902664,-118.35202
1100066,2210 W REDONDO BEACH BLVD,TORRANCE,CA,90504,(310) 323-1472,https://order.carlsjr.com/location/-ca-2210-w-redondo-beach-blvd/menu,33.885355,-118.31822
1100321,2912 S FIGUEROA,LOS ANGELES,CA,90007,(213) 747-5801,https://order.carlsjr.com/location/-ca-los-angeles-2912-s-figueroa/menu,34.02532,-118.27747
1100408,5625 W CENTURY BLVD,LOS ANGELES,CA,90045,(310) 216-9306,https://order.carlsjr.com/location/-ca-los-angeles-5625-w-century-blvd/menu,33.94585,-118.37982
1100364,3621 E IMPERIAL HIGHWAY,LYNWOOD,CA,90262,(310) 631-4833,https://order.carlsjr.com/location/-ca-lynwood-3621-e-imperial-highway/menu,33.93156,-118.20382
1100544,1401 W. ARTESIA BLVD,GARDENA,CA,90248,(310) 324-4562,https://order.carlsjr.com/location/-ca-1401-w-artesia-blvd/menu,33.873373,-118.29942
1100362,17450  AVALON  BLVD,CARSON,CA,90746,(310) 323-6855,https://order.carlsjr.com/location/-ca-17450-avalon-blvd/menu,33.872338,-118.2655
1100599,5315 ROSECRANS,HAWTHORNE,CA,90250,(310) 643-6330,https://order.carlsjr.com/location/-ca-5315-reosecrans/menu,33.902155,-118.37251
1100049,1400 E ROSECRANS AVE,COMPTON,CA,90221,(310) 632-6359,http://carlsjr.olo.com/menu/ca-compton-1400-e-rosecrans-ave,33.90308,-118.20803
1100370,1931 W ARTESIA BLVD,COMPTON,CA,90220,(310) 632-5103,https://order.carlsjr.com/location/-ca-compton-1931-w-artesia-blvd/menu,33.87432,-118.24838
1100212,1751 S SOTO ST,LOS ANGELES,CA,90023,(323) 264-4232,https://order.carlsjr.com/location/-ca-los-angeles-1751-s-soto-st/menu,34.01708,-118.22036
1102047,"TERMINAL 8, SP 8E, LAX, 1 WORLD WAY",LOS ANGELES,CA,90045,(310) 890-3363,,33.95334,-118.40028
1100431,3971 ARTESIA BLVD,TORRANCE,CA,90504,(310) 214-9288,https://order.carlsjr.com/location/-ca-3971-artesia-blvd/menu,33.873108,-118.34349
1100012,1611 S WESTERN AVE,LOS ANGELES,CA,90006,(323) 731-0384,https://order.carlsjr.com/location/-ca-los-angeles-1611-s-western-ave/menu,34.04314,-118.30936
1100182,3370 LA SIERRA AVE,RIVERSIDE,CA,92503,(951) 785-5169,https://order.carlsjr.com/location/-ca-riverside-3370-la-sierra-ave/menu,33.8963,-117.47114
1103042,2940 VAN BUREN BLVD STE 100,RIVERSIDE,CA,92503,(909) 973-9041,https://order.carlsjr.com/location/ca-riverside-van-burden-blvd/menu,33.908,-117.43684
1100106,10010 MAGNOLIA,RIVERSIDE,CA,92503,(951) 688-9300,https://order.carlsjr.com/location/-ca-10010-magnolia/menu,33.914386,-117.45609
1100424,4240 RIVERWALK PKWY,RIVERSIDE,CA,92505,(951) 351-9706,https://order.carlsjr.com/location/-ca-4240-riverwalk-pkwy/menu,33.903543,-117.49423
1100194,6061 VAN BUREN BLVD,RIVERSIDE,CA,92503,(951) 688-0770,https://order.carlsjr.com/location/-ca-riverside-6061-van-buren-blvd/menu,33.94322,-117.45341
1100810,2199 SAMPSON,CORONA,CA,92879,(951) 279-7072,https://order.carlsjr.com/location/-ca-corona-21990-sampson/menu,33.885,-117.51732
1100530,3483 MADISON STREET,RIVERSIDE,CA,92504,(951) 351-8792,https://order.carlsjr.com/location/-ca-3483-madison-street/menu,33.936638,-117.40473
1100644,6079 MAGNOLIA AVE,RIVERSIDE,CA,92506,(951) 369-3114,https://order.carlsjr.com/location/-ca-6079-magnolia-ave/menu,33.959797,-117.39285
1101097,8919 LIMONITE AVE,RIVERSIDE,CA,92509,(951) 681-3970,https://order.carlsjr.com/location/-ca-riverside-8919-limonite-ave/menu,33.97594,-117.47816
1101173,1120 HAMNER AVE,NORCO,CA,92860,(951) 280-9926,https://order.carlsjr.com/location/-ca-norco-1120-hamner-ave/menu,33.89906,-117.56322
1100702,2896 HAMNER,NORCO,CA,92860,(951) 735-9610,https://order.carlsjr.com/location/-ca-norco-2896-hamner/menu,33.9239,-117.55958
1100170,19360 VAN BUREN BLVD,RIVERSIDE,CA,92508,(951) 780-6727,https://order.carlsjr.com/location/-ca-riverside-19360-van-buren-blvd/menu,33.88861,-117.32549
1100202,4282 MARKET ST,RIVERSIDE,CA,92501,(951) 784-0521,https://order.carlsjr.com/location/-ca-riverside-4282-market-st/menu,33.97791,-117.37826
1101334,230 W FOOTHILL PKWY,CORONA,CA,92882,(951) 738-0809,https://order.carlsjr.com/location/-ca-corona-230-w-foothill-pkwy/menu,33.84461,-117.57399
1100268,6221 PATS RANCH RD,MIRA LOMA,CA,91752,(951) 739-0916,https://order.carlsjr.com/location/-ca-6221-pats-ranch-rd/menu,33.973952,-117.54426
1100307,5225 CANYON CREST DR,RIVERSIDE,CA,92507,(951) 684-1311,https://order.carlsjr.com/location/-ca-riverside-5225-canyon-crest-dr/menu,33.955075,-117.33171
1100893,23740 TEMESCAL CANYON RD,CORONA,CA,92883,(951) 277-2619,https://order.carlsjr.com/location/-ca-corona-23740-temescal-canyon-rd/menu,33.77526,-117.48758
1100105,1250 UNIVERSITY AVE,RIVERSIDE,CA,92507,(951) 686-3745,https://order.carlsjr.com/location/-ca-1250-university-ave/menu,33.97523,-117.33882
1100700,1865 W 6TH,CORONA,CA,92882,(951) 734-2880,https://order.carlsjr.com/location/-ca-corona-1865-w-6th/menu,33.87968,-117.60237
1100541,10100 BEN NEVIS BLVD,RIVERSIDE,CA,92509,(951) 360-1249,https://order.carlsjr.com/location/-ca-10100-ben-nevis-blvd/menu,34.017929,-117.50463
1102518,2301 FM 523,ANGLETON,TX,77515,(979) 849-5936,,29.196469,-95.456736
1102092,6709 US HWY 90,SEALY,TX,77474,(979) 732-2986,,29.742653,-96.330407
1102518,2301 FM 523,ANGLETON,TX,77515,(979) 849-5936,,29.196469,-95.456736
1102092,6709 US HWY 90,SEALY,TX,77474,(979) 732-2986,,29.742653,-96.330407
1102518,2301 FM 523,ANGLETON,TX,77515,(979) 849-5936,,29.196469,-95.456736
1102092,6709 US HWY 90,SEALY,TX,77474,(979) 732-2986,,29.742653,-96.330407
1100549,16101 HARBOR BLVD,FOUNTAIN VALLEY,CA,92708,(714) 839-8506,https://order.carlsjr.com/location/-ca-16101-harbor-blvd/menu,33.730781,-117.92047
1100245,3325 S HARBOR,SANTA ANA,CA,92704,(714) 979-1572,https://order.carlsjr.com/location/-ca-santa-ana-3325-s-harbor/menu,33.70286,-117.91911
1100077,2511 S BRISTOL,SANTA ANA,CA,92704,(714) 557-2812,https://order.carlsjr.com/location/-ca-santa-ana-2511-s-bristol/menu,33.71323,-117.88502
1100036,17085 BROOKHURST ST,FOUNTAIN VALLEY,CA,92708,(714) 965-0293,https://order.carlsjr.com/location/-ca-17085-brookhurst-st/menu,33.714463,-117.95492
1100628,1830 N BRISTOL ST BLDG 18,SANTA ANA,CA,92706,(714) 836-1686,https://order.carlsjr.com/location/-ca-santa-ana-1830-n-bristol-st-bldg-18/menu,33.76169,-117.88556
1100040,1550 ADAMS BLVD,COSTA MESA,CA,92626,(714) 545-4194,https://order.carlsjr.com/location/-ca-1550-adams-blvd/menu,33.673566,-117.92178
1100132,1720 E DYER RD,SANTA ANA,CA,92705,(949) 250-8960,https://order.carlsjr.com/location/-ca-1720-e-dyer-rd/menu,33.708113,-117.84937
1100536,13011 HARBOR BOULEVARD,GARDEN GROVE,CA,92843,(714) 537-8455,https://order.carlsjr.com/location/-ca-garden-grove-13011-harbor-boulevard/menu,33.77411,-117.92082
1100005,10012 WESTMINSTER AVE,GARDEN GROVE,CA,92843,(714) 534-1412,https://order.carlsjr.com/location/-ca-10012-westminster-ave/menu,33.759258,-117.95441
1100123,1809 E EDINGER AVE,SANTA ANA,CA,92705,(714) 972-0458,https://order.carlsjr.com/location/-ca-santa-ana-1809-e-edinger-ave/menu,33.72721,-117.84186
1100103,17971 MACARTHUR BLVD,IRVINE,CA,92614,(949) 250-0210,https://order.carlsjr.com/location/-ca-17971-macarthur-blvd/menu,33.686053,-117.85559
1101986,"18601 AIRPORT WAY, SPACE 2061",SANTA ANA,CA,92707,(949) 724-9144,https://order.carlsjr.com/location/-ca-santa-ana-18601-airport-way/menu,33.676887,-117.86325
1100004,450 THE CITY DRIVE S,ORANGE,CA,92868,(714) 939-8560,https://order.carlsjr.com/location/-ca-orange-450-the-city-drive-s/menu,33.78153,-117.88932
1100465,8271 WARNER AVE,HUNTINGTON BEACH,CA,92647,(714) 848-1206,https://order.carlsjr.com/location/-ca-8271-warner-ave/menu,33.716152,-117.98417
1100639,4880 CAMPUS DR,NEWPORT BEACH,CA,92660,(949) 252-8736,https://order.carlsjr.com/location/-ca-4880-campus-dr/menu,33.669599,-117.85989
1100068,2092 SE BRISTOL,NEWPORT BEACH,CA,92660,(949) 756-8844,https://order.carlsjr.com/location/-ca-2092-se-bristol/menu,33.660913,-117.87468
1100392,402 S MAIN ST,ORANGE,CA,92868,(714) 939-6674,https://order.carlsjr.com/location/-ca-orange-402-s-main-st/menu,33.78208,-117.86774
1100277,1943 E 17TH ST,SANTA ANA,CA,92705,(714) 564-9348,https://order.carlsjr.com/location/-ca-1943-e-17th-st/menu,33.7603,-117.83724
1100617,14041 NEWPORT BLVD,TUSTIN,CA,92780,(714) 544-9982,https://order.carlsjr.com/location/-ca-14041-newport-blvd/menu,33.736719,-117.82428
1100125,9022 ADAMS,HUNTINGTON BEACH,CA,92646,(714) 968-1934,https://order.carlsjr.com/location/-ca-9022-adams/menu,33.671608,-117.97072
1100652,614 DENNERY ROAD,SAN DIEGO,CA,92154,(619) 662-1447,https://order.carlsjr.com/location/ca-san-diego-614-dennery-road/menu,32.582682,-117.03301
1102588,"4463 CAMINO DE LA PLAZA, SUITE 101",SAN YSIDRO,CA,92173,(619) 428-3638,https://order.carlsjr.com/location/ca-san-ysidro-4463-camino-de-la-plaza-suite-101/menu,32.542839,-117.03712
1100632,2365 ROLL DRIVE,SAN DIEGO,CA,92154,(619) 661-6213,https://order.carlsjr.com/location/ca-san-diego-2635-roll-drive/menu,32.555313,-116.93703
1100197,805 W. SAN YSIDRO BLVD,SAN YSIDRO,CA,92173,(619) 428-4980,https://order.carlsjr.com/location/ca-w-san-ysidro-blvd/menu,32.558591,-117.05946
1100281,2097 OLYMPIC PKWY,CHULA VISTA,CA,91915,(619) 421-9257,https://order.carlsjr.com/location/ca-chula-vista-2097-olympic-pkwy/menu,32.629824,-116.96671
1100575,1487 E H ST,CHULA VISTA,CA,91910,(619) 482-2210,https://order.carlsjr.com/location/ca-chula-vista-1487-e-h-st/menu,32.644694,-117.00035
1100083,996 THIRD AVE,CHULA VISTA,CA,91911,(619) 426-6786,https://order.carlsjr.com/location/-ca-chula-vista-996-third-ave/menu,32.617297,-117.07086
1100546,1100 BROADWAY,CHULA VISTA,CA,91911,(619) 426-1609,https://order.carlsjr.com/location/ca-chula-vista-1100-broadway/menu,32.609934,-117.08168
1100585,700 13TH STREET,IMPERIAL BEACH,CA,91932,(619) 423-5025,https://order.carlsjr.com/location/ca-imperial-beach-700-13th-street/menu,32.583463,-117.10599
1100409,695 H ST,CHULA VISTA,CA,91910,(619) 476-4420,https://order.carlsjr.com/location/ca-chula-vista-695-h-st/menu,32.630065,-117.09373
1100261,1502 SWEETWATER,NATIONAL CITY,CA,91950,(619) 474-4382,https://order.carlsjr.com/location/ca-national-city-1502-sweetwater/menu,32.660718,-117.08382
1100120,1280 PLAZA BLVD,NATIONAL CITY,CA,91950,(619) 477-2068,https://order.carlsjr.com/location/-ca-national-city-1280-plaza-blvd/menu,32.67688,-117.09391
1100418,2935 JAMACHA RD,SAN DIEGO,CA,92019,(619) 660-7548,https://order.carlsjr.com/location/ca-san-diego-2935-jamacha-rd/menu,32.739668,-116.94009
1100118,3722 KENORA,SPRING VALLEY,CA,91977,(619) 460-6963,https://order.carlsjr.com/location/-ca-spring-valley-3722-kenora/menu,32.746961,-116.98883
1101043,7162 BROADWAY,LEMON GROVE,CA,91945,(619) 464-0474,https://order.carlsjr.com/location/ca-lemon-grove-7162-broadway/menu,32.742889,-117.04381
1100613,5901 UNIVERSITY AVE,SAN DIEGO,CA,92115,(619) 583-4361,https://order.carlsjr.com/location/ca-san-diego-5901-university-ave/menu,32.749906,-117.07057
1100284,8110 PARKWAY DR,LA MESA,CA,91942,(619) 698-2920,https://order.carlsjr.com/location/ca-la-mesa-8110-parkway-dr/menu,32.776011,-117.02261
1100168,3008 EL CAJON BLVD,SAN DIEGO,CA,92104,(619) 283-7653,https://order.carlsjr.com/location/-ca-san-diego-3008-el-cajon-blvd/menu,32.755771,-117.12995
1100483,520 N SECOND STREET,EL CAJON,CA,92021,(619) 579-7083,https://order.carlsjr.com/location/ca-el-cajon-520-n-second-street/menu,32.800754,-116.9362
1100089,624 FLETCHER PKWY,EL CAJON,CA,92020,(619) 447-5452,,32.80818,-116.96977
1100030,794 N BROOKHURST ST,ANAHEIM,CA,92801,(714) 490-0991,https://order.carlsjr.com/location/-ca-anaheim-794-n-brookhurst-st/menu,33.84082,-117.95868
1100500,8361 LA PALMA,BUENA PARK,CA,90620,(714) 521-1865,https://order.carlsjr.com/location/-ca-8361-la-palma/menu,33.847103,-117.98829
1100444,9917 CHAPMAN AVE,GARDEN GROVE,CA,92841,(714) 636-8456,https://order.carlsjr.com/location/-ca-9917-chapman-ave/menu,33.788987,-117.95995
1100006,11051 EUCLID AVE,GARDEN GROVE,CA,92840,(714) 636-6100,https://order.carlsjr.com/location/-ca-garden-grove-11051-euclid-ave/menu,33.80236,-117.94187
1100357,8991 KNOTT AVE,BUENA PARK,CA,90620,(714) 827-7210,https://order.carlsjr.com/location/-ca-8991-knott-ave/menu,33.83223,-118.01131
1100580,11961 BEACH BLVD,STANTON,CA,90680,(714) 895-5114,https://order.carlsjr.com/location/-ca-11961-beach-blvd/menu,33.788664,-117.99346
1100454,6947 KATELLA AVE,CYPRESS,CA,90630,(714) 220-4977,https://order.carlsjr.com/location/-ca-6947-katella-ave/menu,33.803386,-118.01143
1100576,5930 CERRITOS AVENUE,CYPRESS,CA,90630,(714) 527-7443,https://order.carlsjr.com/location/-ca-5930-cerritos-avenue/menu,33.809464,-118.02938
1100001,275 S HARBOR BLVD,ANAHEIM,CA,92805,(714) 635-1480,https://order.carlsjr.com/location/-ca-275-s-harbor-blvd/menu,33.832174,-117.91921
1100317,13425 BEACH BLVD,WESTMINSTER,CA,92683,(714) 901-5513,https://order.carlsjr.com/location/-ca-13425-beach-blvd/menu,33.767666,-117.99108
1100604,6022 CHAPMAN AVE,GARDEN GROVE,CA,92845,(714) 891-2773,https://order.carlsjr.com/location/-ca-6022-chapman-ave/menu,33.788175,-118.02808
1100512,1200 N HARBOR BLVD,ANAHEIM,CA,92801,(714) 776-8054,https://order.carlsjr.com/location/-ca-anaheim-1200-n-harbor-blvd/menu,33.85121,-117.92368
1100027,2119 S HARBOR BLVD,ANAHEIM,CA,92802,(714) 971-5641,https://order.carlsjr.com/location/-ca-anaheim-2119-s-harbor-blvd/menu,33.79535,-117.91543
1100034,6002 BEACH BLVD,BUENA PARK,CA,90621,(714) 523-7240,https://order.carlsjr.com/location/-ca-6002-beach-blvd/menu,33.873275,-117.99793
1100344,222 N EUCLID,FULLERTON,CA,92832,(714) 870-7432,https://order.carlsjr.com/location/-ca-222-n-euclid/menu,33.871889,-117.94173
1100005,10012 WESTMINSTER AVE,GARDEN GROVE,CA,92843,(714) 534-1412,https://order.carlsjr.com/location/-ca-10012-westminster-ave/menu,33.759258,-117.95441
1100536,13011 HARBOR BOULEVARD,GARDEN GROVE,CA,92843,(714) 537-8455,https://order.carlsjr.com/location/-ca-garden-grove-13011-harbor-boulevard/menu,33.77411,-117.92082
1100050,5012 LA PALMA,LA PALMA,CA,90623,(562) 924-0988,https://order.carlsjr.com/location/-ca-la-palma-5012-la-palma/menu,33.84589,-118.04553
1100638,6751 WESTMINSTER BLVD,WESTMINSTER,CA,92683,(714) 892-8214,https://order.carlsjr.com/location/-ce-6751-westminster-blvd/menu,33.759474,-118.00937
1100124,1189 SO STATE COLLEGE BLVD,ANAHEIM,CA,92806,(714) 533-3310,https://order.carlsjr.com/location/-ca-1189-so-state-college-blvd/menu,33.818881,-117.88961
1100295,3901 AUBURN AVENUE,BAKERSFIELD,CA,93306,(661) 871-5152,https://order.carlsjr.com/location/-ca-bakersfield-3901-auburn-ave/menu,35.39733,-118.94922
1100697,101 S UNION AVE,BAKERSFIELD,CA,93307,(661) 863-0273,https://order.carlsjr.com/location/-ca-bakersfield-101-s-union-ave/menu,35.35358,-119.0035
1100611,2400 WHITE LANE,BAKERSFIELD,CA,93304,(661) 836-3181,https://order.carlsjr.com/location/-ca-bakersfield-2400-white-lane/menu,35.31797,-119.02962
1100339,3501 PANAMA LN,BAKERSFIELD,CA,93313,(661) 833-8414,https://order.carlsjr.com/location/-ca-bakersfield-3501-panama-ln/menu,35.29548,-119.0412
1100217,2412 MING AVE,BAKERSFIELD,CA,93304,(661) 834-8646,https://order.carlsjr.com/location/-ca-bakersfield-2412-ming-ave/menu,35.33979,-119.02977
1100419,4800 WHITE LANE,BAKERSFIELD,CA,93309,(661) 398-9510,https://order.carlsjr.com/location/-ca-bakersfield-4800-white-lane/menu,35.31854,-119.05616
1100276,2930 F STREET,BAKERSFIELD,CA,93301,(661) 322-8751,https://order.carlsjr.com/location/-ca-bakersfield-2930-f-street/menu,35.38635,-119.02303
1100187,815 REAL ROAD,BAKERSFIELD,CA,93309,(661) 323-0296,https://order.carlsjr.com/location/-ca-bakersfield-815-real-road/menu,35.36565,-119.04381
1100503,3520 ROSEDALE HIGHWAY,BAKERSFIELD,CA,93308,(661) 323-2641,https://order.carlsjr.com/location/-ca-bakersfield-3520-rosedale-hwy/menu,35.38361,-119.04651
1100471,5555 GOSFORD RD,BAKERSFIELD,CA,93309,(661) 665-1709,https://order.carlsjr.com/location/-ca-bakersfield-5555-gosford-rd/menu,35.30488,-119.09267
1100224,9000 MING AVE STE Q,BAKERSFIELD,CA,93311,(661) 665-2396,https://order.carlsjr.com/location/-ca-bakersfield-9000-ming-ave/menu,35.34016,-119.10457
1100298,9500 BRIMHALL RD STE A,BAKERSFIELD,CA,93312,(661) 587-4859,https://order.carlsjr.com/location/-ca-bakersfield-9500-brimhall-rd/menu,35.37,-119.10959
1100302,4520 COFFEE ROAD,BAKERSFIELD,CA,93308,(661) 587-9085,https://order.carlsjr.com/location/-ca-bakersfield-4520-coffee-rd/menu,35.40063,-119.09174
1100480,5631 LAVAL RD,ARVIN,CA,93203,(661) 858-1162,https://order.carlsjr.com/location/-ca-arvin-5631-laval-rd/menu,34.98891,-118.9404
1100490,20640 TRACY AVE,BUTTONWILLOW,CA,93206,(661) 764-6302,https://order.carlsjr.com/location/-ca-buttonwillow-20640-tracy-ave/menu,35.403332,-119.40154
1100660,49669 GORMAN POST RD,GORMAN,CA,93243,(661) 248-6738,https://order.carlsjr.com/location/-ca-gorman-49669-gorman-post-rd/menu,34.79569,-118.85041
1100463,1308 HIGHWAY 46,WASCO,CA,93280,(661) 758-4557,https://order.carlsjr.com/location/-ca-wasco-1308-highway-46/menu,35.601854,-119.34226
1102029,612 CECIL AVE,DELANO,CA,93215,(661) 721-2106,https://order.carlsjr.com/location/-ca-delano-612-cecil-ave/menu,35.775588,-119.25144
1100176,15900 SIERRA HIGHWAY,MOJAVE,CA,93501,(661) 824-2858,https://order.carlsjr.com/location/-ca-mojave-159000-sierra-highway/menu,35.052785,-118.17328
1100225,21937 HIGHWAY 46,LOST HILLS,CA,93249,(661) 797-2066,https://order.carlsjr.com/location/-ca-lost-hills-21937-highway-46/menu,35.615676,-119.66002
1100083,996 THIRD AVE,CHULA VISTA,CA,91911,(619) 426-6786,https://order.carlsjr.com/location/-ca-chula-vista-996-third-ave/menu,32.617297,-117.07086
1100652,614 DENNERY ROAD,SAN DIEGO,CA,92154,(619) 662-1447,https://order.carlsjr.com/location/ca-san-diego-614-dennery-road/menu,32.582682,-117.03301
1100546,1100 BROADWAY,CHULA VISTA,CA,91911,(619) 426-1609,https://order.carlsjr.com/location/ca-chula-vista-1100-broadway/menu,32.609934,-117.08168
1100409,695 H ST,CHULA VISTA,CA,91910,(619) 476-4420,https://order.carlsjr.com/location/ca-chula-vista-695-h-st/menu,32.630065,-117.09373
1100197,805 W. SAN YSIDRO BLVD,SAN YSIDRO,CA,92173,(619) 428-4980,https://order.carlsjr.com/location/ca-w-san-ysidro-blvd/menu,32.558591,-117.05946
1100575,1487 E H ST,CHULA VISTA,CA,91910,(619) 482-2210,https://order.carlsjr.com/location/ca-chula-vista-1487-e-h-st/menu,32.644694,-117.00035
1100585,700 13TH STREET,IMPERIAL BEACH,CA,91932,(619) 423-5025,https://order.carlsjr.com/location/ca-imperial-beach-700-13th-street/menu,32.583463,-117.10599
1100261,1502 SWEETWATER,NATIONAL CITY,CA,91950,(619) 474-4382,https://order.carlsjr.com/location/ca-national-city-1502-sweetwater/menu,32.660718,-117.08382
1102588,"4463 CAMINO DE LA PLAZA, SUITE 101",SAN YSIDRO,CA,92173,(619) 428-3638,https://order.carlsjr.com/location/ca-san-ysidro-4463-camino-de-la-plaza-suite-101/menu,32.542839,-117.03712
1100281,2097 OLYMPIC PKWY,CHULA VISTA,CA,91915,(619) 421-9257,https://order.carlsjr.com/location/ca-chula-vista-2097-olympic-pkwy/menu,32.629824,-116.96671
1100120,1280 PLAZA BLVD,NATIONAL CITY,CA,91950,(619) 477-2068,https://order.carlsjr.com/location/-ca-national-city-1280-plaza-blvd/menu,32.67688,-117.09391
1100632,2365 ROLL DRIVE,SAN DIEGO,CA,92154,(619) 661-6213,https://order.carlsjr.com/location/ca-san-diego-2635-roll-drive/menu,32.555313,-116.93703
1101043,7162 BROADWAY,LEMON GROVE,CA,91945,(619) 464-0474,https://order.carlsjr.com/location/ca-lemon-grove-7162-broadway/menu,32.742889,-117.04381
1100613,5901 UNIVERSITY AVE,SAN DIEGO,CA,92115,(619) 583-4361,https://order.carlsjr.com/location/ca-san-diego-5901-university-ave/menu,32.749906,-117.07057
1100118,3722 KENORA,SPRING VALLEY,CA,91977,(619) 460-6963,https://order.carlsjr.com/location/-ca-spring-valley-3722-kenora/menu,32.746961,-116.98883
1100418,2935 JAMACHA RD,SAN DIEGO,CA,92019,(619) 660-7548,https://order.carlsjr.com/location/ca-san-diego-2935-jamacha-rd/menu,32.739668,-116.94009
1100168,3008 EL CAJON BLVD,SAN DIEGO,CA,92104,(619) 283-7653,https://order.carlsjr.com/location/-ca-san-diego-3008-el-cajon-blvd/menu,32.755771,-117.12995
1100284,8110 PARKWAY DR,LA MESA,CA,91942,(619) 698-2920,https://order.carlsjr.com/location/ca-la-mesa-8110-parkway-dr/menu,32.776011,-117.02261
1100157,6566 MISSION GORGE ROAD,SAN DIEGO,CA,92120,(619) 281-9813,https://order.carlsjr.com/location/-ca-san-diego-6566-mission-george-road/menu,32.792595,-117.098
1100332,3381 ROSECRANS ST,SAN DIEGO,CA,92110,(619) 226-0070,https://order.carlsjr.com/location/ca-san-diego-3381-rosecrans-st/menu,32.748476,-117.20481
1101028,1901 FREEDOM BLVD,FREEDOM,CA,95019,(831) 722-6920,https://order.carlsjr.com/location/-ca-freedom-1901-freedom-blvd/menu,36.935116,-121.77399
1101393,5880 MONTEREY RD,GILROY,CA,95020,(408) 848-5295,https://order.carlsjr.com/location/-ca-gilroy-5880-monterey-rd/menu,36.983397,-121.5574
1101026,16995 CONDIT RD,MORGAN HILL,CA,95037,(408) 779-6411,https://order.carlsjr.com/location/-ca-morgan-hill-16995-condit-rd/menu,37.13197,-121.63076
1102116,5620 SCOTTS VALLEY DR,SCOTTS VALLEY,CA,95066,(831) 430-9080,https://order.carlsjr.com/location/-ca-scotts-valley-5620-scotts-valley-dr/menu,37.061889,-122.00638
1100748,1061 NORTH DAVIS ROAD,SALINAS,CA,93907,(831) 424-4665,https://order.carlsjr.com/location/-ca-salinas-1061-north-davis-rd/menu,36.6964,-121.66931
1101053,172 BERNAL RD,SAN JOSE,CA,95119,(408) 225-5300,https://order.carlsjr.com/location/-ca-san-jose-172-bernal-rd/menu,37.22727,-121.77579
1101478,400 E MARKET ST,SALINAS,CA,93901,(831) 770-1660,https://order.carlsjr.com/location/-ca-salinas-400-e-market-st/menu,36.67762,-121.64242
1100749,950 ABBOTT STREET,SALINAS,CA,93901,(831) 754-4416,https://order.carlsjr.com/location/-ca-salinas-950-abbott-street/menu,36.65691,-121.63649
1101054,1101 BRANHAM LN,SAN JOSE,CA,95118,(408) 978-3562,https://order.carlsjr.com/location/-ca-san-jose-1101-branham-ln/menu,37.26313,-121.87716
1101051,1999 CAMDEN AVENUE,SAN JOSE,CA,95124,(408) 377-5951,https://order.carlsjr.com/location/-ca-san-jose-1999-camden-avenue/menu,37.26204,-121.93116
1100747,902 LIGHTHOUSE AVENUE,MONTEREY,CA,93940,(831) 375-4264,https://order.carlsjr.com/location/-ca-monterey-902-lighthouse-ave/menu,36.61723,-121.9044
1100803,1142 FREMONT BLVD,SEASIDE,CA,93955,(831) 899-9328,https://order.carlsjr.com/location/-ca-seaside-1142-fremont-blvd/menu,36.60106,-121.84911
1101046,1690 TULLY RD,SAN JOSE,CA,95122,(408) 238-3611,,37.321092,-121.82685
1101048,2802 S WHITE RD,SAN JOSE,CA,95148,(408) 238-3821,,37.324399,-121.79632
1101035,1346 SARATOGA AVENUE,SAN JOSE,CA,95129,(408) 246-6966,,37.299876,-121.98221
1101694,655 COLEMAN AVE,SAN JOSE,CA,95110,(408) 292-5240,,37.341248,-121.91001
1100090,18741 VIA PRINCESSA,SANTA CLARITA,CA,91387,(661) 251-4787,,37.329383,-121.96536
1101034,270 SARATOGA AVE,SANTA CLARA,CA,95050,(408) 243-1234,,37.329389,-121.96536
1101170,1095 OLD OAKLAND ROAD,SAN JOSE,CA,95112,(408) 239-4435,https://order.carlsjr.com/location/-ca-san-jose-1095-old-oakland-rd/menu,37.3641,-121.89204
1101095,2495 LAFAYETTE ST,SANTA CLARA,CA,95050,(408) 496-1187,,37.365788,-121.94981
1101161,2434 JUNIPERO SERRA BLVD,DALY CITY,CA,94015,(650) 994-9009,https://order.carlsjr.com/location/-ca-daly-city-2434-junipero-serra-blvd/menu,37.692315,-122.47136
1101110,110 HICKEY BLVD,SOUTH SAN FRANCISCO,CA,94080,(650) 755-1591,https://order.carlsjr.com/location/-ca-south-san-francisco-110-hickey-blvd/menu,37.666793,-122.45194
1100763,1 HALLIDIE PLAZA,SAN FRANCISCO,CA,94102,(415) 391-5799,https://order.carlsjr.com/location/-ca-san-francisco-1-hallidie-plaza/menu,37.784273,-122.40885
1100716,899 CHERRY AVENUE,SAN BRUNO,CA,94066,(650) 583-6467,https://order.carlsjr.com/location/-ca-san-bruno-899-cherry-avenue/menu,37.627121,-122.42563
1100824,871 MARINA VILLAGE PARKWAY,ALAMEDA,CA,94501,(510) 523-1464,https://order.carlsjr.com/location/-ca-alameda-871-marina-village-parkway/menu,37.783036,-122.27253
1100720,3770 TELEGRAPH AVENUE,OAKLAND,CA,94609,(510) 658-4491,https://order.carlsjr.com/location/-ca-oakland-3770-telegraph-avenue/menu,37.826793,-122.2647
1100705,1140 TRITON DRIVE,FOSTER CITY,CA,94404,(650) 349-1221,https://order.carlsjr.com/location/-ca-foster-city-1140-triton-drive/menu,37.563477,-122.27057
1102575,10770 MACARTHUR BLVD.,OAKLAND,CA,94605,(510) 383-8910,https://order.carlsjr.com/location/-ca-oakland-10770-macarthur-blvd/menu,37.74206,-122.15036
1101081,20550 MISSION BLVD,HAYWARD,CA,94541,(510) 317-0328,https://order.carlsjr.com/location/-ca-hayward-20550-mission-blvd/menu,37.685583,-122.10001
1100723,1800 EL CAMINO REAL,SAN CARLOS,CA,94070,(650) 593-3062,,37.493499,-122.24466
1100706,1001 VETERANS BOULEVARD,REDWOOD CITY,CA,94063,(650) 361-1230,https://order.carlsjr.com/location/-ca-redwood-city-1001-veterans-boulevard/menu,37.49042,-122.22625
1101080,27467 HESPERIAN BLVD,HAYWARD,CA,94545,(510) 786-3440,https://order.carlsjr.com/location/-ca-hayward-27467-hesperian-blvd/menu,37.629923,-122.09656
1101029,1550 FITZGERALD DRIVE,PINOLE,CA,94564,(510) 223-2562,https://order.carlsjr.com/location/-ca-pinole-1550-fitzgerald-drive/menu,37.99111,-122.30143
1101064,5670 THORNTON AVE,NEWARK,CA,94560,(510) 493-2352,https://order.carlsjr.com/location/-ca-newark-5670-thornton-ave/menu,37.54114,-122.02655
1101061,37000 FREMONT,FREMONT,CA,94536,(510) 493-2359,https://order.carlsjr.com/location/-ca-fremont-37000-fremont/menu,37.56077,-122.01119
1101017,3131 CROW CANYON PL,SAN RAMON,CA,94583,(925) 866-1156,https://order.carlsjr.com/location/-ca-san-ramon-3131-crow-canyon-pl/menu,37.77901,-121.96921
1101148,550-D MORELLO AVE,MARTINEZ,CA,94553,(925) 313-9420,https://order.carlsjr.com/location/-ca-martinez-550-d-morello-ave/menu,37.99302,-122.10007
1101062,39901 BALENTINE ROAD,NEWARK,CA,94560,(510) 493-2342,https://order.carlsjr.com/location/-ca-newark-39901-balentine-rd/menu,37.52134,-121.99213
1101040,5000 EL CAMINO REAL,LOS ALTOS,CA,94022,(650) 965-9002,,37.396837,-122.10548
1100887,3897 SONOMA BLVD,VALLEJO,CA,94589,(707) 642-9066,https://order.carlsjr.com/location/-ca-vallejo-3897-sonoma-blvd/menu,38.12736,-122.25612
1100216,210 S HACIENDA BLVD,CITY OF INDUSTRY,CA,91745,(626) 330-7118,https://order.carlsjr.com/location/-ca-city-of-industry-210-s-hacienda-blvd/menu,34.0204,-117.9575
1100102,2400 S AZUSA,WEST COVINA,CA,91792,(626) 965-4455,https://order.carlsjr.com/location/-ca-west-covina-2400-s-azusa/menu,34.03258,-117.91379
1100062,14080 FRANCISQUITO,BALDWIN PARK,CA,91706,(626) 962-2911,https://order.carlsjr.com/location/-ca-baldwin-park-14080-francisquito/menu,34.06433,-117.96892
1100075,18237 COLIMA RD,ROWLAND HEIGHTS,CA,91748,(626) 964-4441,https://order.carlsjr.com/location/-ca-rowland-heights-18237-colima-rd/menu,33.98899,-117.90662
1100479,19782 EAST WALNUT NORTH,CITY OF INDUSTRY,CA,91789,(909) 345-0034,https://order.carlsjr.com/location/-ca-city-of-industry-19782-east-walnut-north/menu,33.99701,-117.87089
1100526,13151 CROSSROADS PKWY S,CITY OF INDUSTRY,CA,91746,(562) 695-2510,https://order.carlsjr.com/location/-ca-city-of-industry-13151-crossroads-pkwy-s/menu,34.02838,-118.01452
1100350,2980 E. WORKMAN AVENUE,WEST COVINA,CA,91791,(626) 331-3705,https://order.carlsjr.com/location/-ca-west-covina-2980-e-workman-ave/menu,34.07525,-117.88167
1100374,573 N AZUSA AVE,COVINA,CA,91722,(626) 331-2064,https://order.carlsjr.com/location/-ca-covina-573-n-azusa-ave/menu,34.09096,-117.90818
1100292,3832 PECK ROAD,EL MONTE,CA,91732,(626) 350-1642,https://order.carlsjr.com/location/-ca-el-monte-3832-peck-road/menu,34.07535,-118.02182
1100017,1625 SANTA ANITA AVE,S EL MONTE,CA,91733,(626) 452-0587,https://order.carlsjr.com/location/-ca-s-el-monte-1625-santa-anita-ave/menu,34.04747,-118.04275
1100669,15360 WHITTIER BLVD,WHITTIER,CA,90603,(562) 902-1974,https://order.carlsjr.com/location/-ca-whittier-15360-whittier-blvd/menu,33.94623,-117.99899
1101104,3801 W TEMPLE AVE BLDG 97,POMONA,CA,91768,(909) 869-5269,,34.053983,-117.82149
1100598,1190 WEST FOOTHILL BLVD,AZUSA,CA,91702,(626) 334-5340,https://order.carlsjr.com/location/-ca-azusa-1190-west-foothill-blvd/menu,34.13325,-117.92467
1100135,141 S DIAMOND BAR BLVD,DIAMOND BAR,CA,91765,(909) 861-7136,https://order.carlsjr.com/location/-ca-diamond-bar-141-s-diamond-bar-blvd/menu,34.02199,-117.81143
1100588,3395 POMONA BLVD,POMONA,CA,91768,(909) 598-9865,https://order.carlsjr.com/location/-ca-3395-pomona-blvd/menu,34.048051,-117.81006
1100074,701 S BEACH BLVD,LA HABRA,CA,90631,(562) 694-2808,https://order.carlsjr.com/location/-ca-701-s-beach-blvd/menu,33.924221,-117.96834
1100085,810 S GRAND,GLENDORA,CA,91740,(626) 963-4010,https://order.carlsjr.com/location/-ca-glendora-810-s-grand/menu,34.12477,-117.87227
1100573,4010 N HARBOR BLVD,FULLERTON,CA,92835,(714) 441-0701,https://order.carlsjr.com/location/-ca-4010-n-harbor-blvd/menu,33.91807,-117.93272
1100175,12358 WASHINGTON BLVD.,WHITTIER,CA,90606,(562) 789-8045,https://order.carlsjr.com/location/-ca-whittier-12358-washington-blvd/menu,33.96708,-118.04925
1100256,10409 WHITTIER BLVD.,WHITTIER,CA,90606,(562) 692-3114,https://order.carlsjr.com/location/-ca-whittier-10409-whittier-blvd/menu,33.99295,-118.06768
1101757,1315 E WHITESTONE BLVD,CEDAR PARK,TX,78613,(512) 259-5159,https://order.carlsjr.com/location/-tx-cedar-park-1315-e-whitestone-blvd/menu,30.52627,-97.81495
1101854,1039 W UNIVERSITY AVE,GEORGETOWN,TX,78628,(512) 868-0200,https://order.carlsjr.com/location/-tx-georgetown-1039-w-university-ave/menu,30.63243,-97.69847
1101350,11361 IH 35 S,VON ORMY,TX,78073,(210) 623-5516,,29.310961,-98.617748
1100104,3255 SAVIERS RD,OXNARD,CA,93033,(805) 486-0328,https://order.carlsjr.com/location/-ca-oxnard-3255-saviers-rd/menu,34.16997,-119.17815
1100475,480 N ROSE AVE,OXNARD,CA,93030,(805) 278-0454,https://order.carlsjr.com/location/-ca-oxnard-480-n-rose-ave/menu,34.2061,-119.15926
1100143,717 CHANNEL ISLANDS BLVD,PORT HUENEME,CA,93041,(805) 985-4842,https://order.carlsjr.com/location/-ca-port-hueneme-717-channel-islands-blvd/menu,34.17647,-119.21893
1100297,2301 N OXNARD BLVD,OXNARD,CA,93036,(805) 485-0202,https://order.carlsjr.com/location/-ca-oxnard-2301-n-oxnard-blvd/menu,34.22676,-119.17801
1100008,401 LAS POSAS RD,CAMARILLO,CA,93010,(805) 484-4588,https://order.carlsjr.com/location/-ca-camarillo-401-las-posas-rd/menu,34.22149,-119.07034
1100506,3015 JOHNSON DRIVE,VENTURA,CA,93003,(805) 676-9185,https://order.carlsjr.com/location/-ca-3015-johnson-drive/menu,34.24636,-119.19481
1100363,1745 S VICTORIA AVE,VENTURA,CA,93003,(805) 339-9281,https://order.carlsjr.com/location/-ca-1745-s-victoria-ave/menu,34.257942,-119.2114
1100183,2427 E THOMPSON BLVD,VENTURA,CA,93003,(805) 641-0401,https://order.carlsjr.com/location/-ca-ventura-2427-e-thompson-blvd/menu,34.27345,-119.26452
1100246,411 SOUTH REINO ROAD,NEWBURY PARK,CA,91320,(805) 499-0014,https://order.carlsjr.com/location/-ca-411-south-reino-road/menu,34.171475,-118.95525
1100523,230 E HARVARD BLVD,SANTA PAULA,CA,93060,(805) 525-9666,https://order.carlsjr.com/location/-ca-230-e-harvard-blvd/menu,34.34699,-119.0691
1100069,1384 MOORPARK ROAD,THOUSAND OAKS,CA,91360,(805) 495-7779,https://order.carlsjr.com/location/-ca-1384-moorpark-road/menu,34.197686,-118.86934
1100662,401 W LOS ANGELES AVENUE,MOORPARK,CA,93021,(805) 523-7034,https://order.carlsjr.com/location/-ca-401-w-los-angeles-avenue/menu,34.279403,-118.88631
1100145,887 WESTLAKE BLVD,WESTLAKE VILLAGE,CA,91361,(805) 495-4222,https://order.carlsjr.com/location/-ca-westlake-village-887-westlake-blvd/menu,34.15473,-118.82786
1100356,754 W VENTURA ST,FILLMORE,CA,93015,(805) 524-3988,https://order.carlsjr.com/location/-ca-754-w-ventura-st/menu,34.39561,-118.91963
1100156,1208 MADERA RD,SIMI VALLEY,CA,93065,(805) 522-8627,https://order.carlsjr.com/location/-ca-1208-madera-rd/menu,34.260943,-118.79579
1100287,5709 KANAN RD,AGOURA,CA,91301,(818) 991-8403,https://order.carlsjr.com/location/-ca-5709-kanan-rd/menu,34.15511,-118.75714
1100110,2402 N ERRINGER RD,SIMI VALLEY,CA,93065,(805) 526-6915,https://order.carlsjr.com/location/-ca-2402-n-erringer-rd/menu,34.279418,-118.7609
1100397,2619 TAPO CANYON ROAD,SIMI VALLEY,CA,93063,(805) 306-0103,https://order.carlsjr.com/location/-ca-2619-tapo-canyon-road/menu,34.282582,-118.71826
1100377,5786 E LOS ANGELES AVENUE,SIMI VALLEY,CA,93063,(805) 581-1162,https://order.carlsjr.com/location/-ca-5786-e-los-angeles-avenue/menu,34.271346,-118.67928
1100688,4610 CARPINTERIA AVE,CARPINTERIA,CA,93013,(805) 684-4079,https://order.carlsjr.com/location/-ca-carpinteria-4610-carpinteria-ave/menu,34.402505,-119.52486
1101566,2500 S INTERSTATE HIGHWAY 45 RD,HUTCHINS,TX,75141,(972) 225-3560,,32.624054,-96.693883
1101351,8800 S POLK ST,DALLAS,TX,75232,(972) 228-1840,,32.640968,-96.839305
1101360,1990 E I30,ROCKWALL,TX,75087,(972) 722-3068,,32.918212,-96.419268
1102389,1021 DALE EVANS DR,ITALY,TX,76651,(972) 483-1657,,32.194254,-96.898694
1101380,715 S CENTRAL EXPY,ANNA,TX,75409,(972) 924-3934,,33.345164,-96.584189
1101219,1221 S OAK,VAN,TX,75790,(903) 963-3306,,32.508312,-95.642494
1102662,1201 S HILLCREST,SULPHUR SPRINGS,TX,75482,(903) 438-1803,,33.117431,-95.636768
1101646,1306 MEMORIAL DR,MARIETTA,OK,73448,(580) 276-4979,,33.941009,-97.131978
1101645,1305 W MAIN ST,DURANT,OK,74701,(580) 924-7340,,33.99405,-96.390725
1102531,16242 US HWY 271 SUITE # 300,TYLER,TX,75708,(903) 877-3756,,32.439474,-95.134878
1100458,7069 SCHAEFER AVE,CHINO,CA,91710,(909) 364-8013,https://order.carlsjr.com/location/-ca-7069-schaefer-ave/menu,34.003365,-117.65131
1100109,12005 CENTRAL AVE,CHINO,CA,91710,(909) 628-2787,https://order.carlsjr.com/location/-ca-chino-12005-central-ave/menu,34.03526,-117.68916
1100646,3880 GRAND AVE,CHINO,CA,91710,(909) 591-5393,https://order.carlsjr.com/location/-ca-3880-grand-ave/menu,33.999851,-117.71985
1100603,4200 CHINO HILLS PKWY #220,CHINO HILLS,CA,91709,(909) 393-7820,https://order.carlsjr.com/location/-ca-4200-chino-hills-pkwy/menu,33.98307,-117.71122
1100304,2556 S EUCLID AVE,ONTARIO,CA,91762,(909) 984-1871,https://order.carlsjr.com/location/-ca-2556-s-euclid-ave/menu,34.026859,-117.65146
1100342,5295 HOLT BLVD,MONTCLAIR,CA,91763,(909) 621-1895,https://order.carlsjr.com/location/-ca-5295-holt-blvd/menu,34.062897,-117.69011
1100501,2421 SO VINEYARD AVE.,ONTARIO,CA,91761,(909) 947-2594,https://order.carlsjr.com/location/-ca-2421-so-vineyard-ave/menu,34.02966,-117.61049
1100472,801 RIO RANCHO RD,POMONA,CA,91766,(909) 629-6075,https://order.carlsjr.com/location/-ca-801-rio-rancho-rd/menu,34.03314,-117.75707
1100080,1755 INDIAN HILL BLVD.,POMONA,CA,91767,(909) 626-2122,https://order.carlsjr.com/location/-ca-1755-n-indian-hill-blvd/menu,34.076833,-117.71959
1100101,1445 N MOUNTAIN AVE,ONTARIO,CA,91762,(909) 983-3818,https://order.carlsjr.com/location/-ca-1445-n-mountain-ave/menu,34.08451,-117.67066
1100137,8972 CENTRAL AVE.,MONTCLAIR,CA,91763,(909) 482-0592,https://order.carlsjr.com/location/-ca-8972-central-ave/menu,34.091386,-117.69009
1102832,3440 E ONTARIO RANCH ROAD,ONTARIO,CA,91761,(909) 781-5981,https://order.carlsjr.com/location/-ca-3440-e-ontario-ranch-road/menu,34.000117,-117.57771
1100204,1625 E 4TH ST,ONTARIO,CA,91764,(909) 984-0949,https://order.carlsjr.com/location/-ca-1625-e-4th-st/menu,34.07812,-117.61953
1100070,7028 ARCHIBALD ST,EASTVALE,CA,92880,(951) 278-3476,https://order.carlsjr.com/location/-ca-corona-7028-archibald-st/menu,33.96046,-117.59186
1100270,1610 W FOOTHILL BLVD,UPLAND,CA,91786,(909) 949-3089,https://order.carlsjr.com/location/-ca-1610-w-foothill-blvd/menu,34.106529,-117.68118
1100134,688 E FOOTHILL BLVD,UPLAND,CA,91786,(909) 920-6641,https://order.carlsjr.com/location/-ca-688-e-foothill-blvd/menu,34.106519,-117.64287
1100135,141 S DIAMOND BAR BLVD,DIAMOND BAR,CA,91765,(909) 861-7136,https://order.carlsjr.com/location/-ca-diamond-bar-141-s-diamond-bar-blvd/menu,34.02199,-117.81143
1100588,3395 POMONA BLVD,POMONA,CA,91768,(909) 598-9865,https://order.carlsjr.com/location/-ca-3395-pomona-blvd/menu,34.048051,-117.81006
1100387,140 E FOOTHILL BLVD,POMONA,CA,91767,(909) 392-7343,https://order.carlsjr.com/location/-ca-pomona-140-e-foothill-blvd/menu,34.10714,-117.74776
1100668,4555 E JURUPA ST,ONTARIO,CA,91761,(909) 605-0506,https://order.carlsjr.com/location/-ca-ontario-4555-e-jurupa-st/menu,34.04847,-117.55374
1102092,6709 US HWY 90,SEALY,TX,77474,(979) 732-2986,,29.742653,-96.330407
1102518,2301 FM 523,ANGLETON,TX,77515,(979) 849-5936,,29.196469,-95.456736
1102092,6709 US HWY 90,SEALY,TX,77474,(979) 732-2986,,29.742653,-96.330407
1102518,2301 FM 523,ANGLETON,TX,77515,(979) 849-5936,,29.196469,-95.456736
1101350,11361 IH 35 S,VON ORMY,TX,78073,(210) 623-5516,,29.310961,-98.617748
1101757,1315 E WHITESTONE BLVD,CEDAR PARK,TX,78613,(512) 259-5159,https://order.carlsjr.com/location/-tx-cedar-park-1315-e-whitestone-blvd/menu,30.52627,-97.81495
1101854,1039 W UNIVERSITY AVE,GEORGETOWN,TX,78628,(512) 868-0200,https://order.carlsjr.com/location/-tx-georgetown-1039-w-university-ave/menu,30.63243,-97.69847
1100283,620 W FOOTHILL BLVD,RIALTO,CA,92376,(909) 875-2650,https://order.carlsjr.com/location/-ca-620-w-foothill-blvd/menu,34.107246,-117.38188
1100582,2022 N RIVERSIDE AVE,RIALTO,CA,92377,(909) 873-4766,https://order.carlsjr.com/location/-ca-2022-n-riverside-ave/menu,34.138128,-117.37138
1100428,1334 S RIVERSIDE AVE,RIALTO,CA,92376,(909) 562-0113,https://order.carlsjr.com/location/-ca-1334-s-riverside-ave/menu,34.07674,-117.3708
1100248,8924 SIERRA AVE,FONTANA,CA,92335,(909) 823-7200,https://order.carlsjr.com/location/-ca-fontana-8924-sierra-ave/menu,34.09173,-117.43621
1100226,16565 SIERRA LAKES PKWY,FONTANA,CA,92336,(909) 428-2704,https://order.carlsjr.com/location/-ca-16565-sierra-lakes-pkwy/menu,34.138468,-117.44215
1100653,4424 UNIVERSITY PARKWAY,SAN BERNARDINO,CA,92407,(909) 473-1066,https://order.carlsjr.com/location/-ca-san-bernardino-4424-university-parkway/menu,34.16912,-117.33324
1100081,524 INLAND CENTER DR,SAN BERNARDINO,CA,92408,(909) 884-5514,https://order.carlsjr.com/location/-ca-524-inland-center-dr/menu,34.091518,-117.29512
1101412,3610 S RIVERSIDE AVE,BLOOMINGTON,CA,92316,(951) 824-5199,https://order.carlsjr.com/location/-ca-bloomington-3610-s-riverside-ave/menu,34.037272,-117.36736
1100369,1180 S MOUNT VERNON AVE,COLTON,CA,92324,(909) 824-8003,https://order.carlsjr.com/location/-ca-colton-1180-s-mount-vernon-ave/menu,34.04929,-117.30871
1100499,192 E REDLANDS BLVD,SAN BERNARDINO,CA,92408,(909) 824-5966,https://order.carlsjr.com/location/-ca-san-bernardino-192-e-redlands-blvd/menu,34.06336,-117.28302
1102773,293 E 40TH ST,SAN BERNARDINO,CA,92404,(909) 881-1775,https://order.carlsjr.com/location/-ca-san-bernardino-293-e-40th-st/menu,34.16466,-117.27951
1100048,14454 VALLEY BLVD,FONTANA,CA,92335,(909) 429-2226,https://order.carlsjr.com/location/-ca-fontana-14454-valley-blvd/menu,34.07051,-117.48999
1100025,1505 E HIGHLAND AVE,SAN BERNARDINO,CA,92404,(909) 882-0536,https://order.carlsjr.com/location/-ca-san-bernardino-1505-e-highland-ave/menu,34.13552,-117.25447
1100206,25536 BARTON RD,LOMA LINDA,CA,92354,(909) 478-9834,https://order.carlsjr.com/location/-ca-loma-linda-25536-barton-rd/menu,34.04887,-117.24709
1100202,4282 MARKET ST,RIVERSIDE,CA,92501,(951) 784-0521,https://order.carlsjr.com/location/-ca-riverside-4282-market-st/menu,33.97791,-117.37826
1100105,1250 UNIVERSITY AVE,RIVERSIDE,CA,92507,(951) 686-3745,https://order.carlsjr.com/location/-ca-1250-university-ave/menu,33.97523,-117.33882
1100541,10100 BEN NEVIS BLVD,RIVERSIDE,CA,92509,(951) 360-1249,https://order.carlsjr.com/location/-ca-10100-ben-nevis-blvd/menu,34.017929,-117.50463
1100200,11738 FOOTHILL BLVD,RANCHO CUCAMONGA,CA,91730,(909) 941-0041,https://order.carlsjr.com/location/-ca-11738-foothill-blvd/menu,34.10687,-117.54932
1100643,7359 MILLIKEN AVE,RANCHO CUCAMONGA,CA,91730,(909) 941-3795,https://order.carlsjr.com/location/-ca-7359-milliken-ave/menu,34.120316,-117.55808
1100390,4453 MILLS CIRCLE,ONTARIO,CA,91764,(909) 476-0053,https://order.carlsjr.com/location/-ca-4453-mills-circle/menu,34.076798,-117.55483
1100386,15669 MAIN ST,HESPERIA,CA,92345,(760) 956-5652,https://order.carlsjr.com/location/-ca-hesperia-15669-main-st/menu,34.42393,-117.32083
1100543,17110 BEAR VALLEY RD,VICTORVILLE,CA,92395,(760) 951-1904,https://order.carlsjr.com/location/-ca-victorville-17110-bear-valley-rd/menu,34.47151,-117.28909
1100561,14717 BEAR VALLEY RD,HESPERIA,CA,92345,(760) 949-0128,https://order.carlsjr.com/location/-ca-hesperia-14717-bear-valley-rd/menu,34.47005,-117.34244
1100165,12271 APPLE VALLEY RD,APPLE VALLEY,CA,92308,(760) 240-4169,https://order.carlsjr.com/location/-ca-12271-apple-valley-rd/menu,34.474618,-117.24171
1100142,14503 7TH ST,VICTORVILLE,CA,92395,(760) 245-4755,https://order.carlsjr.com/location/-ca-victorville-14503-7th-st/menu,34.51467,-117.31456
1100149,15277 HOOK BLVD,VICTORVILLE,CA,92394,(760) 951-2318,https://order.carlsjr.com/location/-ca-15277-hook-blvd/menu,34.520994,-117.3308
1100039,14292 US HIGHWAY 395,ADELANTO,CA,92301,(760) 246-4559,http://carlsjr.olo.com/menu/ca-adelanto-14292-us-highway-395,34.51017,-117.40005
1100218,20302 US HIGHWAY 18,APPLE VALLEY,CA,92307,(760) 961-0915,https://order.carlsjr.com/location/-ca-apple-valley-20302-us-highway-18/menu,34.52546,-117.2186
1100653,4424 UNIVERSITY PARKWAY,SAN BERNARDINO,CA,92407,(909) 473-1066,https://order.carlsjr.com/location/-ca-san-bernardino-4424-university-parkway/menu,34.16912,-117.33324
1102773,293 E 40TH ST,SAN BERNARDINO,CA,92404,(909) 881-1775,https://order.carlsjr.com/location/-ca-san-bernardino-293-e-40th-st/menu,34.16466,-117.27951
1100582,2022 N RIVERSIDE AVE,RIALTO,CA,92377,(909) 873-4766,https://order.carlsjr.com/location/-ca-2022-n-riverside-ave/menu,34.138128,-117.37138
1100025,1505 E HIGHLAND AVE,SAN BERNARDINO,CA,92404,(909) 882-0536,https://order.carlsjr.com/location/-ca-san-bernardino-1505-e-highland-ave/menu,34.13552,-117.25447
1100226,16565 SIERRA LAKES PKWY,FONTANA,CA,92336,(909) 428-2704,https://order.carlsjr.com/location/-ca-16565-sierra-lakes-pkwy/menu,34.138468,-117.44215
1100623,7261 BOULDER AVE,HIGHLAND,CA,92346,(909) 864-0894,https://order.carlsjr.com/location/-ca-highland-7261-boulder-ave/menu,34.12327,-117.19493
1100283,620 W FOOTHILL BLVD,RIALTO,CA,92376,(909) 875-2650,https://order.carlsjr.com/location/-ca-620-w-foothill-blvd/menu,34.107246,-117.38188
1100081,524 INLAND CENTER DR,SAN BERNARDINO,CA,92408,(909) 884-5514,https://order.carlsjr.com/location/-ca-524-inland-center-dr/menu,34.091518,-117.29512
1100428,1334 S RIVERSIDE AVE,RIALTO,CA,92376,(909) 562-0113,https://order.carlsjr.com/location/-ca-1334-s-riverside-ave/menu,34.07674,-117.3708
1100248,8924 SIERRA AVE,FONTANA,CA,92335,(909) 823-7200,https://order.carlsjr.com/location/-ca-fontana-8924-sierra-ave/menu,34.09173,-117.43621
1100499,192 E REDLANDS BLVD,SAN BERNARDINO,CA,92408,(909) 824-5966,https://order.carlsjr.com/location/-ca-san-bernardino-192-e-redlands-blvd/menu,34.06336,-117.28302
1100173,1205 W COLTON AVE,REDLANDS,CA,92374,(909) 793-1058,https://order.carlsjr.com/location/-ca-1205-w-colton-ave/menu,34.062497,-117.20061
1101350,11361 IH 35 S,VON ORMY,TX,78073,(210) 623-5516,,29.310961,-98.617748
1101757,1315 E WHITESTONE BLVD,CEDAR PARK,TX,78613,(512) 259-5159,,30.52627,-97.81495
1100259,5275 W SHAW AVE,FRESNO,CA,93722,(559) 275-6526,https://order.carlsjr.com/location/-ca-fresno-5275-w-shaw-ave/menu,36.807683,-119.88458
1101462,6003 N FIGARDEN DR,FRESNO,CA,93722,(559) 276-3754,https://order.carlsjr.com/location/-ca-fresno-6003-n-figarden-dr/menu,36.822659,-119.87098
1100563,3092 WEST SHAW AVENUE,FRESNO,CA,93711,(559) 276-0196,https://order.carlsjr.com/location/-ca-fresno-3092-west-shaw-avenue/menu,36.808601,-119.84639
1102741,3015 W CLINTON AVE,FRESNO,CA,93722,(559) 275-1024,,36.771692,-119.84471
1100196,3983 N BLACKSTONE,FRESNO,CA,93726,(559) 225-2428,https://order.carlsjr.com/location/-ca-fresno-3983-n-blackstone/menu,36.79011,-119.79092
1100640,1611 N. BLACKSTONE AVE.,FRESNO,CA,93703,(559) 266-0386,https://order.carlsjr.com/location/-ca-fresno-1611-n-blackstone-ave/menu,36.765397,-119.79096
1100664,7646 N BLACKSTONE AVE,FRESNO,CA,93720,(559) 261-2760,https://order.carlsjr.com/location/-ca-fresno-7646-n-blackstone-ave/menu,36.845783,-119.79022
1100657,1052 E SHAW,FRESNO,CA,93710,(559) 221-8990,https://order.carlsjr.com/location/-ca-fresno-1052-e-shaw/menu,36.808972,-119.77135
1100257,217 N ABBY,FRESNO,CA,93701,(559) 268-0069,https://order.carlsjr.com/location/-ca-fresno-217-n-abby/menu,36.74537,-119.78971
1100306,6767 N FIRST STREET,FRESNO,CA,93710,(559) 432-1477,https://order.carlsjr.com/location/-ca-fresno-6767-n-first-street/menu,36.83688,-119.77268
1100266,1588 N FIRST STREET,FRESNO,CA,93703,(559) 485-1705,https://order.carlsjr.com/location/-ca-fresno-1588-n-first-street/menu,36.764386,-119.77221
1100437,3820 N CEDAR AVE,FRESNO,CA,93726,(559) 225-0288,https://order.carlsjr.com/location/-ca-fresno-3820-n-cedar-ave/menu,36.787176,-119.75394
1100631,818 W. SHAW AVENUE,CLOVIS,CA,93612,(559) 348-0446,https://order.carlsjr.com/location/-ca-clovis-818-w-shaw-avenue/menu,36.808123,-119.72761
1100320,5007 E. MCKINLEY,FRESNO,CA,93727,(559) 251-4500,https://order.carlsjr.com/location/-ca-fresno-5007-e-mckinley/menu,36.765591,-119.72745
1100520,2590 SOUTH EAST AVENUE,FRESNO,CA,93706,(559) 237-8113,https://order.carlsjr.com/location/-ca-fresno-2590-south-east-avenue/menu,36.707162,-119.77207
1101425,8873 N CHESTNUT AVE,FRESNO,CA,93720,(559) 324-8740,https://order.carlsjr.com/location/-ca-fresno-8873-n-chestnut-ave/menu,36.86477,-119.73931
1100467,1930 CLOVIS AVE,CLOVIS,CA,93612,(559) 298-7200,http://carlsjr.olo.com/menu/ca-clovis-1930-clovis-ave,36.809266,-119.70069
1100150,1125 HERNDON AVE,CLOVIS,CA,93612,(559) 325-1368,https://order.carlsjr.com/location/-ca-clovis-1125-herndon-ave/menu,36.837795,-119.69713
1100583,5625 E. KINGS CANYON ROAD,FRESNO,CA,93727,(559) 454-8379,https://order.carlsjr.com/location/-ca-fresno-5625-e-kings-canyon-road/menu,36.7362,-119.69854
1101727,15005 W WHITESBRIDGE AVE,KERMAN,CA,93630,(559) 842-5112,https://order.carlsjr.com/location/-ca-kerman-15005-w-whitesbridge-ave/menu,36.734649,-120.06062
1101097,8919 LIMONITE AVE,RIVERSIDE,CA,92509,(951) 681-3970,https://order.carlsjr.com/location/-ca-riverside-8919-limonite-ave/menu,33.97594,-117.47816
1100541,10100 BEN NEVIS BLVD,RIVERSIDE,CA,92509,(951) 360-1249,https://order.carlsjr.com/location/-ca-10100-ben-nevis-blvd/menu,34.017929,-117.50463
1100194,6061 VAN BUREN BLVD,RIVERSIDE,CA,92503,(951) 688-0770,https://order.carlsjr.com/location/-ca-riverside-6061-van-buren-blvd/menu,33.94322,-117.45341
1100202,4282 MARKET ST,RIVERSIDE,CA,92501,(951) 784-0521,https://order.carlsjr.com/location/-ca-riverside-4282-market-st/menu,33.97791,-117.37826
1100644,6079 MAGNOLIA AVE,RIVERSIDE,CA,92506,(951) 369-3114,https://order.carlsjr.com/location/-ca-6079-magnolia-ave/menu,33.959797,-117.39285
1101412,3610 S RIVERSIDE AVE,BLOOMINGTON,CA,92316,(951) 824-5199,https://order.carlsjr.com/location/-ca-bloomington-3610-s-riverside-ave/menu,34.037272,-117.36736
1100530,3483 MADISON STREET,RIVERSIDE,CA,92504,(951) 351-8792,https://order.carlsjr.com/location/-ca-3483-madison-street/menu,33.936638,-117.40473
1100048,14454 VALLEY BLVD,FONTANA,CA,92335,(909) 429-2226,https://order.carlsjr.com/location/-ca-fontana-14454-valley-blvd/menu,34.07051,-117.48999
1100268,6221 PATS RANCH RD,MIRA LOMA,CA,91752,(951) 739-0916,https://order.carlsjr.com/location/-ca-6221-pats-ranch-rd/menu,33.973952,-117.54426
1100248,8924 SIERRA AVE,FONTANA,CA,92335,(909) 823-7200,https://order.carlsjr.com/location/-ca-fontana-8924-sierra-ave/menu,34.09173,-117.43621
1100106,10010 MAGNOLIA,RIVERSIDE,CA,92503,(951) 688-9300,https://order.carlsjr.com/location/-ca-10010-magnolia/menu,33.914386,-117.45609
1100105,1250 UNIVERSITY AVE,RIVERSIDE,CA,92507,(951) 686-3745,https://order.carlsjr.com/location/-ca-1250-university-ave/menu,33.97523,-117.33882
1103042,2940 VAN BUREN BLVD STE 100,RIVERSIDE,CA,92503,(909) 973-9041,https://order.carlsjr.com/location/ca-riverside-van-burden-blvd/menu,33.908,-117.43684
1100428,1334 S RIVERSIDE AVE,RIALTO,CA,92376,(909) 562-0113,https://order.carlsjr.com/location/-ca-1334-s-riverside-ave/menu,34.07674,-117.3708
1100668,4555 E JURUPA ST,ONTARIO,CA,91761,(909) 605-0506,https://order.carlsjr.com/location/-ca-ontario-4555-e-jurupa-st/menu,34.04847,-117.55374
1100307,5225 CANYON CREST DR,RIVERSIDE,CA,92507,(951) 684-1311,https://order.carlsjr.com/location/-ca-riverside-5225-canyon-crest-dr/menu,33.955075,-117.33171
1100424,4240 RIVERWALK PKWY,RIVERSIDE,CA,92505,(951) 351-9706,https://order.carlsjr.com/location/-ca-4240-riverwalk-pkwy/menu,33.903543,-117.49423
1100182,3370 LA SIERRA AVE,RIVERSIDE,CA,92503,(951) 785-5169,https://order.carlsjr.com/location/-ca-riverside-3370-la-sierra-ave/menu,33.8963,-117.47114
1102832,3440 E ONTARIO RANCH ROAD,ONTARIO,CA,91761,(909) 781-5981,https://order.carlsjr.com/location/-ca-3440-e-ontario-ranch-road/menu,34.000117,-117.57771
1100283,620 W FOOTHILL BLVD,RIALTO,CA,92376,(909) 875-2650,https://order.carlsjr.com/location/-ca-620-w-foothill-blvd/menu,34.107246,-117.38188
1100070,7028 ARCHIBALD ST,EASTVALE,CA,92880,(951) 278-3476,https://order.carlsjr.com/location/-ca-corona-7028-archibald-st/menu,33.96046,-117.59186
1100702,2896 HAMNER,NORCO,CA,92860,(951) 735-9610,https://order.carlsjr.com/location/-ca-norco-2896-hamner/menu,33.9239,-117.55958
1100700,1865 W 6TH,CORONA,CA,92882,(951) 734-2880,https://order.carlsjr.com/location/-ca-corona-1865-w-6th/menu,33.87968,-117.60237
1101173,1120 HAMNER AVE,NORCO,CA,92860,(951) 280-9926,https://order.carlsjr.com/location/-ca-norco-1120-hamner-ave/menu,33.89906,-117.56322
1100268,6221 PATS RANCH RD,MIRA LOMA,CA,91752,(951) 739-0916,https://order.carlsjr.com/location/-ca-6221-pats-ranch-rd/menu,33.973952,-117.54426
1102832,3440 E ONTARIO RANCH ROAD,ONTARIO,CA,91761,(909) 781-5981,https://order.carlsjr.com/location/-ca-3440-e-ontario-ranch-road/menu,34.000117,-117.57771
1100458,7069 SCHAEFER AVE,CHINO,CA,91710,(909) 364-8013,https://order.carlsjr.com/location/-ca-7069-schaefer-ave/menu,34.003365,-117.65131
1101334,230 W FOOTHILL PKWY,CORONA,CA,92882,(951) 738-0809,https://order.carlsjr.com/location/-ca-corona-230-w-foothill-pkwy/menu,33.84461,-117.57399
1100810,2199 SAMPSON,CORONA,CA,92879,(951) 279-7072,https://order.carlsjr.com/location/-ca-corona-21990-sampson/menu,33.885,-117.51732
1100424,4240 RIVERWALK PKWY,RIVERSIDE,CA,92505,(951) 351-9706,https://order.carlsjr.com/location/-ca-4240-riverwalk-pkwy/menu,33.903543,-117.49423
1100603,4200 CHINO HILLS PKWY #220,CHINO HILLS,CA,91709,(909) 393-7820,https://order.carlsjr.com/location/-ca-4200-chino-hills-pkwy/menu,33.98307,-117.71122
1100501,2421 SO VINEYARD AVE.,ONTARIO,CA,91761,(909) 947-2594,https://order.carlsjr.com/location/-ca-2421-so-vineyard-ave/menu,34.02966,-117.61049
1100304,2556 S EUCLID AVE,ONTARIO,CA,91762,(909) 984-1871,https://order.carlsjr.com/location/-ca-2556-s-euclid-ave/menu,34.026859,-117.65146
1100646,3880 GRAND AVE,CHINO,CA,91710,(909) 591-5393,https://order.carlsjr.com/location/-ca-3880-grand-ave/menu,33.999851,-117.71985
1100182,3370 LA SIERRA AVE,RIVERSIDE,CA,92503,(951) 785-5169,https://order.carlsjr.com/location/-ca-riverside-3370-la-sierra-ave/menu,33.8963,-117.47114
1101097,8919 LIMONITE AVE,RIVERSIDE,CA,92509,(951) 681-3970,https://order.carlsjr.com/location/-ca-riverside-8919-limonite-ave/menu,33.97594,-117.47816
1100809,8225 SANTA ANA CANYON RD,ANAHEIM,CA,92808,(714) 637-1014,https://order.carlsjr.com/location/-ca-anaheim-8225-santa-ana-canyon-rd/menu,33.86766,-117.74575
1100541,10100 BEN NEVIS BLVD,RIVERSIDE,CA,92509,(951) 360-1249,https://order.carlsjr.com/location/-ca-10100-ben-nevis-blvd/menu,34.017929,-117.50463
1100109,12005 CENTRAL AVE,CHINO,CA,91710,(909) 628-2787,https://order.carlsjr.com/location/-ca-chino-12005-central-ave/menu,34.03526,-117.68916
1100106,10010 MAGNOLIA,RIVERSIDE,CA,92503,(951) 688-9300,https://order.carlsjr.com/location/-ca-10010-magnolia/menu,33.914386,-117.45609
1101032,1890 MCCANDLESS DR,MILPITAS,CA,95035,(408) 837-5071,https://order.carlsjr.com/location/-ca-milpitas-1890-mccandless-dr/menu,37.40473,-121.89763
1101063,46637 MISSION BLVD,FREMONT,CA,94539,(510) 493-2353,https://order.carlsjr.com/location/-ca-fremont-46637-mission-blvd/menu,37.491,-121.92888
1101170,1095 OLD OAKLAND ROAD,SAN JOSE,CA,95112,(408) 239-4435,https://order.carlsjr.com/location/-ca-san-jose-1095-old-oakland-rd/menu,37.3641,-121.89204
1101095,2495 LAFAYETTE ST,SANTA CLARA,CA,95050,(408) 496-1187,,37.365788,-121.94981
1101694,655 COLEMAN AVE,SAN JOSE,CA,95110,(408) 292-5240,,37.341248,-121.91001
1101046,1690 TULLY RD,SAN JOSE,CA,95122,(408) 238-3611,,37.321092,-121.82685
1101048,2802 S WHITE RD,SAN JOSE,CA,95148,(408) 238-3821,,37.324399,-121.79632
1101036,2900 BOWERS AVE,SANTA CLARA,CA,95051,(408) 727-6660,,37.374525,-121.97837
1101062,39901 BALENTINE ROAD,NEWARK,CA,94560,(510) 493-2342,https://order.carlsjr.com/location/-ca-newark-39901-balentine-rd/menu,37.52134,-121.99213
1101034,270 SARATOGA AVE,SANTA CLARA,CA,95050,(408) 243-1234,,37.329389,-121.96536
1100090,18741 VIA PRINCESSA,SANTA CLARITA,CA,91387,(661) 251-4787,,37.329383,-121.96536
1101038,1051 E EL CAMINO REAL,SUNNYVALE,CA,94087,(408) 296-7756,https://order.carlsjr.com/location/-ca-sunnyvale-1051-e-el-camino-real/menu,37.352679,-122.00475
1101064,5670 THORNTON AVE,NEWARK,CA,94560,(510) 493-2352,https://order.carlsjr.com/location/-ca-newark-5670-thornton-ave/menu,37.54114,-122.02655
1101061,37000 FREMONT,FREMONT,CA,94536,(510) 493-2359,https://order.carlsjr.com/location/-ca-fremont-37000-fremont/menu,37.56077,-122.01119
1101035,1346 SARATOGA AVENUE,SAN JOSE,CA,95129,(408) 246-6966,,37.299876,-121.98221
1101054,1101 BRANHAM LN,SAN JOSE,CA,95118,(408) 978-3562,https://order.carlsjr.com/location/-ca-san-jose-1101-branham-ln/menu,37.26313,-121.87716
1101051,1999 CAMDEN AVENUE,SAN JOSE,CA,95124,(408) 377-5951,https://order.carlsjr.com/location/-ca-san-jose-1999-camden-avenue/menu,37.26204,-121.93116
1101040,5000 EL CAMINO REAL,LOS ALTOS,CA,94022,(650) 965-9002,,37.396837,-122.10548
1101053,172 BERNAL RD,SAN JOSE,CA,95119,(408) 225-5300,https://order.carlsjr.com/location/-ca-san-jose-172-bernal-rd/menu,37.22727,-121.77579
1101075,875 E. STANLEY BLVD,LIVERMORE,CA,94550,(925) 443-1565,https://order.carlsjr.com/location/-ca-livermore-875-e-stanley-blvd/menu,37.67797,-121.78598
1100083,996 THIRD AVE,CHULA VISTA,CA,91911,(619) 426-6786,https://order.carlsjr.com/location/-ca-chula-vista-996-third-ave/menu,32.617297,-117.07086
1100261,1502 SWEETWATER,NATIONAL CITY,CA,91950,(619) 474-4382,https://order.carlsjr.com/location/ca-national-city-1502-sweetwater/menu,32.660718,-117.08382
1100409,695 H ST,CHULA VISTA,CA,91910,(619) 476-4420,https://order.carlsjr.com/location/ca-chula-vista-695-h-st/menu,32.630065,-117.09373
1100546,1100 BROADWAY,CHULA VISTA,CA,91911,(619) 426-1609,https://order.carlsjr.com/location/ca-chula-vista-1100-broadway/menu,32.609934,-117.08168
1100575,1487 E H ST,CHULA VISTA,CA,91910,(619) 482-2210,https://order.carlsjr.com/location/ca-chula-vista-1487-e-h-st/menu,32.644694,-117.00035
1100120,1280 PLAZA BLVD,NATIONAL CITY,CA,91950,(619) 477-2068,https://order.carlsjr.com/location/-ca-national-city-1280-plaza-blvd/menu,32.67688,-117.09391
1100652,614 DENNERY ROAD,SAN DIEGO,CA,92154,(619) 662-1447,https://order.carlsjr.com/location/ca-san-diego-614-dennery-road/menu,32.582682,-117.03301
1100585,700 13TH STREET,IMPERIAL BEACH,CA,91932,(619) 423-5025,https://order.carlsjr.com/location/ca-imperial-beach-700-13th-street/menu,32.583463,-117.10599
1100281,2097 OLYMPIC PKWY,CHULA VISTA,CA,91915,(619) 421-9257,https://order.carlsjr.com/location/ca-chula-vista-2097-olympic-pkwy/menu,32.629824,-116.96671
1100197,805 W. SAN YSIDRO BLVD,SAN YSIDRO,CA,92173,(619) 428-4980,https://order.carlsjr.com/location/ca-w-san-ysidro-blvd/menu,32.558591,-117.05946
1102588,"4463 CAMINO DE LA PLAZA, SUITE 101",SAN YSIDRO,CA,92173,(619) 428-3638,https://order.carlsjr.com/location/ca-san-ysidro-4463-camino-de-la-plaza-suite-101/menu,32.542839,-117.03712
1101043,7162 BROADWAY,LEMON GROVE,CA,91945,(619) 464-0474,https://order.carlsjr.com/location/ca-lemon-grove-7162-broadway/menu,32.742889,-117.04381
1100613,5901 UNIVERSITY AVE,SAN DIEGO,CA,92115,(619) 583-4361,https://order.carlsjr.com/location/ca-san-diego-5901-university-ave/menu,32.749906,-117.07057
1100118,3722 KENORA,SPRING VALLEY,CA,91977,(619) 460-6963,https://order.carlsjr.com/location/-ca-spring-valley-3722-kenora/menu,32.746961,-116.98883
1100632,2365 ROLL DRIVE,SAN DIEGO,CA,92154,(619) 661-6213,https://order.carlsjr.com/location/ca-san-diego-2635-roll-drive/menu,32.555313,-116.93703
1100168,3008 EL CAJON BLVD,SAN DIEGO,CA,92104,(619) 283-7653,https://order.carlsjr.com/location/-ca-san-diego-3008-el-cajon-blvd/menu,32.755771,-117.12995
1100284,8110 PARKWAY DR,LA MESA,CA,91942,(619) 698-2920,https://order.carlsjr.com/location/ca-la-mesa-8110-parkway-dr/menu,32.776011,-117.02261
1100418,2935 JAMACHA RD,SAN DIEGO,CA,92019,(619) 660-7548,https://order.carlsjr.com/location/ca-san-diego-2935-jamacha-rd/menu,32.739668,-116.94009
1100157,6566 MISSION GORGE ROAD,SAN DIEGO,CA,92120,(619) 281-9813,https://order.carlsjr.com/location/-ca-san-diego-6566-mission-george-road/menu,32.792595,-117.098
1100332,3381 ROSECRANS ST,SAN DIEGO,CA,92110,(619) 226-0070,https://order.carlsjr.com/location/ca-san-diego-3381-rosecrans-st/menu,32.748476,-117.20481
1100603,4200 CHINO HILLS PKWY #220,CHINO HILLS,CA,91709,(909) 393-7820,https://order.carlsjr.com/location/-ca-4200-chino-hills-pkwy/menu,33.98307,-117.71122
1100646,3880 GRAND AVE,CHINO,CA,91710,(909) 591-5393,https://order.carlsjr.com/location/-ca-3880-grand-ave/menu,33.999851,-117.71985
1100458,7069 SCHAEFER AVE,CHINO,CA,91710,(909) 364-8013,https://order.carlsjr.com/location/-ca-7069-schaefer-ave/menu,34.003365,-117.65131
1100809,8225 SANTA ANA CANYON RD,ANAHEIM,CA,92808,(714) 637-1014,https://order.carlsjr.com/location/-ca-anaheim-8225-santa-ana-canyon-rd/menu,33.86766,-117.74575
1100472,801 RIO RANCHO RD,POMONA,CA,91766,(909) 629-6075,https://order.carlsjr.com/location/-ca-801-rio-rancho-rd/menu,34.03314,-117.75707
