[
    {
        "index":0,
        "id":"1820",
        "timezone":"America\/Anchorage",
        "name":"Safeway",
        "url":"https:\/\/local.safeway.com\/safeway\/ak\/juneau\/3033-vintage-blvd.html",
        "address":"3033 Vintage Blvd",
        "city":"Juneau",
        "state":"AK",
        "zip":"99801",
        "latitude":"58.37095802639047",
        "longitude":"-134.59489055078734"
    },
    {
        "index":1,
        "id":"2754",
        "timezone":"America\/Anchorage",
        "name":"Safeway",
        "url":"https:\/\/local.safeway.com\/safeway\/ak\/fairbanks\/3627-airport-way.html",
        "address":"3627 Airport Way",
        "city":"Fairbanks",
        "state":"AK",
        "zip":"99709",
        "latitude":"64.8356859",
        "longitude":"-147.8084422"
    },
    {
        "index":2,
        "id":"3410",
        "timezone":"America\/Anchorage",
        "name":"Safeway",
        "url":"https:\/\/local.safeway.com\/safeway\/ak\/fairbanks\/30-college-rd.html",
        "address":"30 College Rd",
        "city":"Fairbanks",
        "state":"AK",
        "zip":"99701",
        "latitude":"64.8514782",
        "longitude":"-147.7005299"
    },
    {
        "index":3,
        "id":"1821",
        "timezone":"America\/Anchorage",
        "name":"Safeway",
        "url":"https:\/\/local.safeway.com\/safeway\/ak\/north-pole\/301-n-santa-claus-ln.html",
        "address":"301 N Santa Claus Ln",
        "city":"North Pole",
        "state":"AK",
        "zip":"99705",
        "latitude":"64.7576671",
        "longitude":"-147.3538528"
    },
    {
        "index":4,
        "id":"548",
        "timezone":"America\/Anchorage",
        "name":"Safeway",
        "url":"https:\/\/local.safeway.com\/safeway\/ak\/soldotna\/44428-sterling-hwy.html",
        "address":"44428 Sterling Hwy",
        "city":"Soldotna",
        "state":"AK",
        "zip":"99669",
        "latitude":"60.48408568725479",
        "longitude":"-151.07114034889491"
    },
    {
        "index":5,
        "id":"1808",
        "timezone":"America\/Anchorage",
        "name":"Safeway",
        "url":"https:\/\/local.safeway.com\/safeway\/ak\/kenai\/10576-kenai-spur-hwy.html",
        "address":"10576 Kenai Spur Hwy",
        "city":"Kenai",
        "state":"AK",
        "zip":"99611",
        "latitude":"60.560186913240265",
        "longitude":"-151.240808480426"
    },
    {
        "index":6,
        "id":"1832",
        "timezone":"America\/Anchorage",
        "name":"Safeway",
        "url":"https:\/\/local.safeway.com\/safeway\/ak\/homer\/90-sterling-hwy.html",
        "address":"90 Sterling Hwy",
        "city":"Homer",
        "state":"AK",
        "zip":"99603",
        "latitude":"59.643345475824084",
        "longitude":"-151.53417670978695"
    },
    {
        "index":7,
        "id":"307",
        "timezone":"America\/Los_Angeles",
        "name":"Safeway",
        "url":"https:\/\/local.safeway.com\/safeway\/wa\/walla-walla\/215-e-rose-st.html",
        "address":"215 E Rose St",
        "city":"Walla Walla",
        "state":"WA",
        "zip":"99362",
        "latitude":"46.070287113041466",
        "longitude":"-118.33773942324115"
    },
    {
        "index":8,
        "id":"1160",
        "timezone":"America\/Los_Angeles",
        "name":"Safeway",
        "url":"https:\/\/local.safeway.com\/safeway\/wa\/walla-walla\/1600-plaza-way.html",
        "address":"1600 Plaza Way",
        "city":"Walla Walla",
        "state":"WA",
        "zip":"99362",
        "latitude":"46.048721",
        "longitude":"-118.3480009"
    },
    {
        "index":9,
        "id":"1590",
        "timezone":"America\/Los_Angeles",
        "name":"Safeway",
        "url":"https:\/\/local.safeway.com\/safeway\/or\/milton-freewater\/455-n-columbia-st.html",
        "address":"455 N Columbia St",
        "city":"Milton Freewater",
        "state":"OR",
        "zip":"97862",
        "latitude":"45.9405942",
        "longitude":"-118.3879116"
    },
    {
        "index":10,
        "id":"333",
        "timezone":"America\/Los_Angeles",
        "name":"Safeway",
        "url":"https:\/\/local.safeway.com\/safeway\/wa\/richland\/1803-george-washington-way.html",
        "address":"1803 George Washington Way",
        "city":"Richland",
        "state":"WA",
        "zip":"99354",
        "latitude":"46.29955299271049",
        "longitude":"-119.27592145040074"
    },
    {
        "index":11,
        "id":"252",
        "timezone":"America\/Los_Angeles",
        "name":"Safeway",
        "url":"https:\/\/local.safeway.com\/safeway\/wa\/richland\/690-gage-blvd.html",
        "address":"690 Gage Blvd",
        "city":"Richland",
        "state":"WA",
        "zip":"99352",
        "latitude":"46.22799808843104",
        "longitude":"-119.26731830740967"
    },
    {
        "index":12,
        "id":"3253",
        "timezone":"America\/Los_Angeles",
        "name":"Safeway",
        "url":"https:\/\/local.safeway.com\/safeway\/wa\/kennewick\/5204-w-clearwater-ave.html",
        "address":"5204 W Clearwater Ave",
        "city":"Kennewick",
        "state":"WA",
        "zip":"99336",
        "latitude":"46.21385421628509",
        "longitude":"-119.1927753465825"
    },
    {
        "index":13,
        "id":"1593",
        "timezone":"America\/Los_Angeles",
        "name":"Safeway",
        "url":"https:\/\/local.safeway.com\/safeway\/wa\/grandview\/610-e-wine-country-rd.html",
        "address":"610 E Wine Country Rd",
        "city":"Grandview",
        "state":"WA",
        "zip":"98930",
        "latitude":"46.25548308161202",
        "longitude":"-119.89214247168884"
    },
    {
        "index":14,
        "id":"563",
        "timezone":"America\/Los_Angeles",
        "name":"Safeway",
        "url":"https:\/\/local.safeway.com\/safeway\/wa\/sunnyside\/613-s-6th-st.html",
        "address":"613 S 6th St",
        "city":"Sunnyside",
        "state":"WA",
        "zip":"98944",
        "latitude":"46.3219754",
        "longitude":"-120.014042"
    },
    {
        "index":15,
        "id":"444",
        "timezone":"America\/Los_Angeles",
        "name":"Safeway",
        "url":"https:\/\/local.safeway.com\/safeway\/or\/hermiston\/990-hwy-395-s.html",
        "address":"990 Hwy 395 S",
        "city":"Hermiston",
        "state":"OR",
        "zip":"97838",
        "latitude":"45.83266069793966",
        "longitude":"-119.28592859508171"
    },
    {
        "index":16,
        "id":"1494",
        "timezone":"America\/Los_Angeles",
        "name":"Safeway",
        "url":"https:\/\/local.safeway.com\/safeway\/wa\/spokane\/2507-w-wellesley-ave.html",
        "address":"2507 W Wellesley Ave",
        "city":"Spokane",
        "state":"WA",
        "zip":"99205",
        "latitude":"47.69896785491462",
        "longitude":"-117.448361829247"
    },
    {
        "index":17,
        "id":"342",
        "timezone":"America\/Los_Angeles",
        "name":"Safeway",
        "url":"https:\/\/local.safeway.com\/safeway\/wa\/spokane\/1616-w-northwest-blvd.html",
        "address":"1616 W Northwest Blvd",
        "city":"Spokane",
        "state":"WA",
        "zip":"99205",
        "latitude":"47.6806221",
        "longitude":"-117.4361099"
    },
    {
        "index":18,
        "id":"206",
        "timezone":"America\/Los_Angeles",
        "name":"Safeway",
        "url":"https:\/\/local.safeway.com\/safeway\/wa\/spokane\/9001-n-indian-trail-rd.html",
        "address":"9001 N Indian Trail Rd",
        "city":"Spokane",
        "state":"WA",
        "zip":"99208",
        "latitude":"47.73966397062781",
        "longitude":"-117.48853059145404"
    },
    {
        "index":19,
        "id":"3248",
        "timezone":"America\/Los_Angeles",
        "name":"Safeway",
        "url":"https:\/\/local.safeway.com\/safeway\/wa\/spokane\/902-w-francis-ave.html",
        "address":"902 W Francis Ave",
        "city":"Spokane",
        "state":"WA",
        "zip":"99205",
        "latitude":"47.71614661248905",
        "longitude":"-117.42445796728134"
    },
    {
        "index":20,
        "id":"3255",
        "timezone":"America\/Los_Angeles",
        "name":"Safeway",
        "url":"https:\/\/local.safeway.com\/safeway\/wa\/spokane\/933-e-mission-ave.html",
        "address":"933 E Mission Ave",
        "city":"Spokane",
        "state":"WA",
        "zip":"99202",
        "latitude":"47.6722942",
        "longitude":"-117.3947643"
    },
    {
        "index":21,
        "id":"1799",
        "timezone":"America\/Los_Angeles",
        "name":"Safeway",
        "url":"https:\/\/local.safeway.com\/safeway\/wa\/spokane\/3919-n-market-st.html",
        "address":"3919 N Market St",
        "city":"Spokane",
        "state":"WA",
        "zip":"99207",
        "latitude":"47.69415070726751",
        "longitude":"-117.36733333809815"
    },
    {
        "index":22,
        "id":"1242",
        "timezone":"America\/Los_Angeles",
        "name":"Safeway",
        "url":"https:\/\/local.safeway.com\/safeway\/wa\/spokane\/2509-e-29th-ave.html",
        "address":"2509 E 29th Ave",
        "city":"Spokane",
        "state":"WA",
        "zip":"99223",
        "latitude":"47.629507103699034",
        "longitude":"-117.37470772513123"
    },
    {
        "index":23,
        "id":"1299",
        "timezone":"America\/Los_Angeles",
        "name":"Safeway",
        "url":"https:\/\/local.safeway.com\/safeway\/wa\/spokane\/10100-n-newport-hwy.html",
        "address":"10100 N Newport Hwy",
        "city":"Spokane",
        "state":"WA",
        "zip":"99218",
        "latitude":"47.7504597",
        "longitude":"-117.3972307"
    },
    {
        "index":24,
        "id":"1268",
        "timezone":"America\/Los_Angeles",
        "name":"Safeway",
        "url":"https:\/\/local.safeway.com\/safeway\/wa\/spokane\/3010-e-57th-ave.html",
        "address":"3010 E 57th Ave",
        "city":"Spokane",
        "state":"WA",
        "zip":"99223",
        "latitude":"47.60085329179939",
        "longitude":"-117.36723303794861"
    },
    {
        "index":25,
        "id":"1740",
        "timezone":"America\/Los_Angeles",
        "name":"Safeway",
        "url":"https:\/\/local.safeway.com\/safeway\/wa\/cheney\/2710-1st-st.html",
        "address":"2710 1st St",
        "city":"Cheney",
        "state":"WA",
        "zip":"99004",
        "latitude":"47.50593026814812",
        "longitude":"-117.56740093231201"
    },
    {
        "index":26,
        "id":"246",
        "timezone":"America\/Los_Angeles",
        "name":"Safeway",
        "url":"https:\/\/local.safeway.com\/safeway\/wa\/spokane\/8851-e-trent-ave.html",
        "address":"8851 E Trent Ave",
        "city":"Spokane",
        "state":"WA",
        "zip":"99212",
        "latitude":"47.681806289271655",
        "longitude":"-117.28571995177845"
    },
    {
        "index":27,
        "id":"1473",
        "timezone":"America\/Los_Angeles",
        "name":"Safeway",
        "url":"https:\/\/local.safeway.com\/safeway\/wa\/spokane\/14020-e-sprague-ave.html",
        "address":"14020 E Sprague Ave",
        "city":"Spokane",
        "state":"WA",
        "zip":"99216",
        "latitude":"47.65576369046822",
        "longitude":"-117.21613080831958"
    },
    {
        "index":28,
        "id":"258",
        "timezone":"America\/Los_Angeles",
        "name":"Safeway",
        "url":"https:\/\/local.safeway.com\/safeway\/wa\/spokane\/13606-e-32nd-ave.html",
        "address":"13606 E 32nd Ave",
        "city":"Spokane",
        "state":"WA",
        "zip":"99216",
        "latitude":"47.62596679611382",
        "longitude":"-117.22264421534422"
    },
    {
        "index":29,
        "id":"2248",
        "timezone":"America\/Los_Angeles",
        "name":"Safeway",
        "url":"https:\/\/local.safeway.com\/safeway\/wa\/liberty-lake\/1304-n-liberty-lake-rd.html",
        "address":"1304 N Liberty Lake Rd",
        "city":"Liberty Lake",
        "state":"WA",
        "zip":"99019",
        "latitude":"47.6694942",
        "longitude":"-117.1034096"
    },
    {
        "index":30,
        "id":"243",
        "timezone":"America\/Los_Angeles",
        "name":"Safeway",
        "url":"https:\/\/local.safeway.com\/safeway\/id\/coeur-d-alene\/220-ironwood-dr.html",
        "address":"220 Ironwood Dr",
        "city":"Coeur d'Alene",
        "state":"ID",
        "zip":"83814",
        "latitude":"47.69364016976588",
        "longitude":"-116.78984775396728"
    },
    {
        "index":31,
        "id":"1470",
        "timezone":"America\/Los_Angeles",
        "name":"Safeway",
        "url":"https:\/\/local.safeway.com\/safeway\/id\/coeur-d-alene\/121-w-neider-ave.html",
        "address":"121 W Neider Ave",
        "city":"Coeur d'Alene",
        "state":"ID",
        "zip":"83815",
        "latitude":"47.70878475651545",
        "longitude":"-116.7878515042297"
    },
    {
        "index":32,
        "id":"3295",
        "timezone":"America\/Los_Angeles",
        "name":"Safeway",
        "url":"https:\/\/local.safeway.com\/safeway\/id\/coeur-d-alene\/1001-n-4th-st.html",
        "address":"1001 N 4th St",
        "city":"Coeur D'Alene",
        "state":"ID",
        "zip":"83814",
        "latitude":"47.6831962",
        "longitude":"-116.7817444"
    },
    {
        "index":33,
        "id":"2639",
        "timezone":"America\/Los_Angeles",
        "name":"Safeway",
        "url":"https:\/\/local.safeway.com\/safeway\/wa\/pullman\/430-se-bishop-blvd.html",
        "address":"430 SE Bishop Blvd",
        "city":"Pullman",
        "state":"WA",
        "zip":"99163",
        "latitude":"46.71607902669087",
        "longitude":"-117.17777387060778"
    },
    {
        "index":34,
        "id":"383",
        "timezone":"America\/Los_Angeles",
        "name":"Safeway",
        "url":"https:\/\/local.safeway.com\/safeway\/id\/moscow\/1320-s-blaine-st.html",
        "address":"1320 S Blaine St",
        "city":"Moscow",
        "state":"ID",
        "zip":"83843",
        "latitude":"46.7223411",
        "longitude":"-116.9828314"
    },
    {
        "index":35,
        "id":"1159",
        "timezone":"America\/Los_Angeles",
        "name":"Safeway",
        "url":"https:\/\/local.safeway.com\/safeway\/wa\/newport\/121-w-walnut-st.html",
        "address":"121 W Walnut St",
        "city":"Newport",
        "state":"WA",
        "zip":"99156",
        "latitude":"48.183339210818666",
        "longitude":"-117.04057024232787"
    },
    {
        "index":36,
        "id":"385",
        "timezone":"America\/Los_Angeles",
        "name":"Safeway",
        "url":"https:\/\/local.safeway.com\/safeway\/wa\/colville\/391-n-main-st.html",
        "address":"391 N Main St",
        "city":"Colville",
        "state":"WA",
        "zip":"99114",
        "latitude":"48.5472298",
        "longitude":"-117.9064062"
    },
    {
        "index":37,
        "id":"584",
        "timezone":"America\/Los_Angeles",
        "name":"Safeway",
        "url":"https:\/\/local.safeway.com\/safeway\/wa\/toppenish\/711-w-1st-ave.html",
        "address":"711 W 1st Ave",
        "city":"Toppenish",
        "state":"WA",
        "zip":"98948",
        "latitude":"46.376331380021796",
        "longitude":"-120.3215968803566"
    },
    {
        "index":38,
        "id":"1660",
        "timezone":"America\/Los_Angeles",
        "name":"Safeway",
        "url":"https:\/\/local.safeway.com\/safeway\/wa\/yakima\/905-e-meade-ave.html",
        "address":"905 E Meade Ave",
        "city":"Yakima",
        "state":"WA",
        "zip":"98903",
        "latitude":"46.57833971749925",
        "longitude":"-120.48879938332824"
    },
    {
        "index":39,
        "id":"462",
        "timezone":"America\/Los_Angeles",
        "name":"Safeway",
        "url":"https:\/\/local.safeway.com\/safeway\/wa\/yakima\/205-n-5th-ave.html",
        "address":"205 N 5th Ave",
        "city":"Yakima",
        "state":"WA",
        "zip":"98902",
        "latitude":"46.60328974085561",
        "longitude":"-120.51604150608215"
    },
    {
        "index":40,
        "id":"1235",
        "timezone":"America\/Los_Angeles",
        "name":"Safeway",
        "url":"https:\/\/local.safeway.com\/safeway\/wa\/yakima\/2204a-w-nob-hill-blvd.html",
        "address":"2204A W Nob Hill Blvd",
        "city":"Yakima",
        "state":"WA",
        "zip":"98902",
        "latitude":"46.583904091167035",
        "longitude":"-120.53917185233325"
    },
    {
        "index":41,
        "id":"149",
        "timezone":"America\/Los_Angeles",
        "name":"Safeway",
        "url":"https:\/\/local.safeway.com\/safeway\/wa\/yakima\/1610-w-lincoln-ave.html",
        "address":"1610 W Lincoln Ave",
        "city":"Yakima",
        "state":"WA",
        "zip":"98902",
        "latitude":"46.602507761209374",
        "longitude":"-120.53237681401674"
    },
    {
        "index":42,
        "id":"502",
        "timezone":"America\/Los_Angeles",
        "name":"Safeway",
        "url":"https:\/\/local.safeway.com\/safeway\/wa\/yakima\/5702-summitview-ave.html",
        "address":"5702 Summitview Ave",
        "city":"Yakima",
        "state":"WA",
        "zip":"98908",
        "latitude":"46.598852262355095",
        "longitude":"-120.58501406572759"
    },
    {
        "index":43,
        "id":"1630",
        "timezone":"America\/Los_Angeles",
        "name":"Safeway",
        "url":"https:\/\/local.safeway.com\/safeway\/wa\/ellensburg\/400-n-ruby-st.html",
        "address":"400 N Ruby St",
        "city":"Ellensburg",
        "state":"WA",
        "zip":"98926",
        "latitude":"46.99614337176971",
        "longitude":"-120.54294893148835"
    },
    {
        "index":44,
        "id":"1135",
        "timezone":"America\/Los_Angeles",
        "name":"Safeway",
        "url":"https:\/\/local.safeway.com\/safeway\/wa\/cle-elum\/804-w-1st-st.html",
        "address":"804 W 1st St",
        "city":"Cle Elum",
        "state":"WA",
        "zip":"98922",
        "latitude":"47.19562244131276",
        "longitude":"-120.95365427724607"
    },
    {
        "index":45,
        "id":"1544",
        "timezone":"America\/Los_Angeles",
        "name":"Safeway",
        "url":"https:\/\/local.safeway.com\/safeway\/wa\/ephrata\/1150-basin-st-sw.html",
        "address":"1150 Basin St SW",
        "city":"Ephrata",
        "state":"WA",
        "zip":"98823",
        "latitude":"47.30953254815424",
        "longitude":"-119.55852459695893"
    },
    {
        "index":46,
        "id":"1194",
        "timezone":"America\/Los_Angeles",
        "name":"Safeway",
        "url":"https:\/\/local.safeway.com\/safeway\/wa\/omak\/607-omache-dr.html",
        "address":"607 Omache Dr",
        "city":"Omak",
        "state":"WA",
        "zip":"98841",
        "latitude":"48.41812920265319",
        "longitude":"-119.51058626174927"
    },
    {
        "index":47,
        "id":"3252",
        "timezone":"America\/Los_Angeles",
        "name":"Safeway",
        "url":"https:\/\/local.safeway.com\/safeway\/wa\/moses-lake\/601-s-pioneer-way.html",
        "address":"601 S Pioneer Way",
        "city":"Moses Lake",
        "state":"WA",
        "zip":"98837",
        "latitude":"47.1303889784404",
        "longitude":"-119.26832111195836"
    },
    {
        "index":48,
        "id":"3265",
        "timezone":"America\/Los_Angeles",
        "name":"Safeway",
        "url":"https:\/\/local.safeway.com\/safeway\/wa\/chelan\/106-w-manson-rd.html",
        "address":"106 W Manson Rd",
        "city":"Chelan",
        "state":"WA",
        "zip":"98816",
        "latitude":"47.842286",
        "longitude":"-120.0197539"
    },
    {
        "index":49,
        "id":"1449",
        "timezone":"America\/Los_Angeles",
        "name":"Safeway",
        "url":"https:\/\/local.safeway.com\/safeway\/wa\/wenatchee\/501-n-miller-st.html",
        "address":"501 N Miller St",
        "city":"Wenatchee",
        "state":"WA",
        "zip":"98801",
        "latitude":"47.431090934593456",
        "longitude":"-120.3240427"
    },
    {
        "index":50,
        "id":"1589",
        "timezone":"America\/Los_Angeles",
        "name":"Safeway",
        "url":"https:\/\/local.safeway.com\/safeway\/wa\/leavenworth\/116-riverbend-dr.html",
        "address":"116 Riverbend Dr",
        "city":"Leavenworth",
        "state":"WA",
        "zip":"98826",
        "latitude":"47.59719947896811",
        "longitude":"-120.64515290793457"
    },
    {
        "index":51,
        "id":"3521",
        "timezone":"America\/Los_Angeles",
        "name":"Safeway",
        "url":"https:\/\/local.safeway.com\/safeway\/wa\/east-wenatchee\/510-grant-rd.html",
        "address":"510 Grant Rd",
        "city":"East Wenatchee",
        "state":"WA",
        "zip":"98802",
        "latitude":"47.404505",
        "longitude":"-120.2810635"
    },
    {
        "index":52,
        "id":"1842",
        "timezone":"America\/Los_Angeles",
        "name":"Safeway",
        "url":"https:\/\/local.safeway.com\/safeway\/wa\/vancouver\/13023-ne-hwy-99-suite-1.html",
        "address":"13023 NE Hwy 99 Suite 1",
        "city":"Vancouver",
        "state":"WA",
        "zip":"98686",
        "latitude":"45.71543904118934",
        "longitude":"-122.64971160635628"
    },
    {
        "index":53,
        "id":"580",
        "timezone":"America\/Los_Angeles",
        "name":"Safeway",
        "url":"https:\/\/local.safeway.com\/safeway\/wa\/vancouver\/14300-ne-20th-ave.html",
        "address":"14300 NE 20th Ave",
        "city":"Vancouver",
        "state":"WA",
        "zip":"98686",
        "latitude":"45.724501",
        "longitude":"-122.6532305"
    },
    {
        "index":54,
        "id":"4405",
        "timezone":"America\/Los_Angeles",
        "name":"Safeway",
        "url":"https:\/\/local.safeway.com\/safeway\/wa\/vancouver\/408-ne-81st-st.html",
        "address":"408 NE 81st St",
        "city":"Vancouver",
        "state":"WA",
        "zip":"98665",
        "latitude":"45.6817079",
        "longitude":"-122.668011"
    },
    {
        "index":55,
        "id":"1611",
        "timezone":"America\/Los_Angeles",
        "name":"Safeway",
        "url":"https:\/\/local.safeway.com\/safeway\/wa\/vancouver\/6711-ne-63rd-st.html",
        "address":"6711 NE 63rd St",
        "city":"Vancouver",
        "state":"WA",
        "zip":"98661",
        "latitude":"45.6665149",
        "longitude":"-122.603505"
    },
    {
        "index":56,
        "id":"400",
        "timezone":"America\/Los_Angeles",
        "name":"Safeway",
        "url":"https:\/\/local.safeway.com\/safeway\/wa\/vancouver\/3707-n-main-st.html",
        "address":"3707 N Main St",
        "city":"Vancouver",
        "state":"WA",
        "zip":"98663",
        "latitude":"45.6485737",
        "longitude":"-122.6669292"
    },
    {
        "index":57,
        "id":"4313",
        "timezone":"America\/Los_Angeles",
        "name":"Safeway",
        "url":"https:\/\/local.safeway.com\/safeway\/wa\/battle-ground\/904-w-main-st.html",
        "address":"904 W Main St",
        "city":"Battle Ground",
        "state":"WA",
        "zip":"98604",
        "latitude":"45.7817373",
        "longitude":"-122.5466005"
    },
    {
        "index":58,
        "id":"1653",
        "timezone":"America\/Los_Angeles",
        "name":"Safeway",
        "url":"https:\/\/local.safeway.com\/safeway\/wa\/vancouver\/2615-ne-112th-ave.html",
        "address":"2615 NE 112th Ave",
        "city":"Vancouver",
        "state":"WA",
        "zip":"98684",
        "latitude":"45.6412317",
        "longitude":"-122.5571137"
    },
    {
        "index":59,
        "id":"1704",
        "timezone":"America\/Los_Angeles",
        "name":"Safeway",
        "url":"https:\/\/local.safeway.com\/safeway\/wa\/vancouver\/6700-ne-162nd-ave-suite-500.html",
        "address":"6700 NE 162nd Ave Suite 500",
        "city":"Vancouver",
        "state":"WA",
        "zip":"98682",
        "latitude":"45.67075874687174",
        "longitude":"-122.50793822203354"
    },
    {
        "index":60,
        "id":"1103",
        "timezone":"America\/Los_Angeles",
        "name":"Safeway",
        "url":"https:\/\/local.safeway.com\/safeway\/wa\/vancouver\/6701-e-mill-plain-blvd.html",
        "address":"6701 E Mill Plain Blvd",
        "city":"Vancouver",
        "state":"WA",
        "zip":"98661",
        "latitude":"45.62608380711882",
        "longitude":"-122.60295466349817"
    },
    {
        "index":61,
        "id":"1519",
        "timezone":"America\/Los_Angeles",
        "name":"Safeway",
        "url":"https:\/\/local.safeway.com\/safeway\/wa\/vancouver\/13719-se-mill-plain-blvd.html",
        "address":"13719 SE Mill Plain Blvd",
        "city":"Vancouver",
        "state":"WA",
        "zip":"98684",
        "latitude":"45.616750292980804",
        "longitude":"-122.5311398506164"
    },
    {
        "index":62,
        "id":"509",
        "timezone":"America\/Los_Angeles",
        "name":"Safeway",
        "url":"https:\/\/local.safeway.com\/safeway\/or\/portland\/5920-ne-martin-luther-king-blvd.html",
        "address":"5920 NE Martin Luther King Blvd",
        "city":"Portland",
        "state":"OR",
        "zip":"97211",
        "latitude":"45.565951896405245",
        "longitude":"-122.66010449097848"
    },
    {
        "index":63,
        "id":"1951",
        "timezone":"America\/Los_Angeles",
        "name":"Safeway",
        "url":"https:\/\/local.safeway.com\/safeway\/or\/portland\/8330-n-ivanhoe-st.html",
        "address":"8330 N Ivanhoe St",
        "city":"Portland",
        "state":"OR",
        "zip":"97203",
        "latitude":"45.5877247",
        "longitude":"-122.7530193"
    },
    {
        "index":64,
        "id":"1447",
        "timezone":"America\/Los_Angeles",
        "name":"Safeway",
        "url":"https:\/\/local.safeway.com\/safeway\/or\/portland\/6901-ne-sandy-blvd.html",
        "address":"6901 NE Sandy Blvd",
        "city":"Portland",
        "state":"OR",
        "zip":"97213",
        "latitude":"45.5476025",
        "longitude":"-122.5927272"
    },
    {
        "index":65,
        "id":"1612",
        "timezone":"America\/Los_Angeles",
        "name":"Safeway",
        "url":"https:\/\/local.safeway.com\/safeway\/or\/portland\/1100-ne-broadway.html",
        "address":"1100 NE Broadway",
        "city":"Portland",
        "state":"OR",
        "zip":"97232",
        "latitude":"45.53470205197193",
        "longitude":"-122.65416474672747"
    },
    {
        "index":66,
        "id":"2790",
        "timezone":"America\/Los_Angeles",
        "name":"Safeway",
        "url":"https:\/\/local.safeway.com\/safeway\/or\/portland\/1303-nw-lovejoy-st.html",
        "address":"1303 NW Lovejoy St",
        "city":"Portland",
        "state":"OR",
        "zip":"97209",
        "latitude":"45.5302653",
        "longitude":"-122.6846569"
    },
    {
        "index":67,
        "id":"424",
        "timezone":"America\/Los_Angeles",
        "name":"Safeway",
        "url":"https:\/\/local.safeway.com\/safeway\/or\/saint-helens\/795-lower-columbia-river-hwy.html",
        "address":"795 Lower Columbia River Hwy",
        "city":"Saint Helens",
        "state":"OR",
        "zip":"97051",
        "latitude":"45.849713174164535",
        "longitude":"-122.83233852716876"
    },
    {
        "index":68,
        "id":"1287",
        "timezone":"America\/Los_Angeles",
        "name":"Safeway",
        "url":"https:\/\/local.safeway.com\/safeway\/wa\/camas\/800-ne-3rd-ave.html",
        "address":"800 NE 3rd Ave",
        "city":"Camas",
        "state":"WA",
        "zip":"98607",
        "latitude":"45.586934233901864",
        "longitude":"-122.39949475634461"
    },
    {
        "index":69,
        "id":"3134",
        "timezone":"America\/Los_Angeles",
        "name":"Safeway",
        "url":"https:\/\/local.safeway.com\/safeway\/or\/portland\/2800-se-hawthorne-blvd.html",
        "address":"2800 SE Hawthorne Blvd",
        "city":"Portland",
        "state":"OR",
        "zip":"97214",
        "latitude":"45.5118255",
        "longitude":"-122.6374664"
    },
    {
        "index":70,
        "id":"2448",
        "timezone":"America\/Los_Angeles",
        "name":"Safeway",
        "url":"https:\/\/local.safeway.com\/safeway\/or\/portland\/1030-sw-jefferson-st.html",
        "address":"1030 SW Jefferson St",
        "city":"Portland",
        "state":"OR",
        "zip":"97201",
        "latitude":"45.5159939",
        "longitude":"-122.6851605"
    },
    {
        "index":71,
        "id":"596",
        "timezone":"America\/Los_Angeles",
        "name":"Safeway",
        "url":"https:\/\/local.safeway.com\/safeway\/or\/portland\/18425-nw-west-union-rd.html",
        "address":"18425 NW West Union Rd",
        "city":"Portland",
        "state":"OR",
        "zip":"97229",
        "latitude":"45.5589934",
        "longitude":"-122.8664484"
    },
    {
        "index":72,
        "id":"382",
        "timezone":"America\/Los_Angeles",
        "name":"Safeway",
        "url":"https:\/\/local.safeway.com\/safeway\/or\/portland\/3527-se-122nd-ave.html",
        "address":"3527 SE 122nd Ave",
        "city":"Portland",
        "state":"OR",
        "zip":"97236",
        "latitude":"45.4962789",
        "longitude":"-122.5392749"
    },
    {
        "index":73,
        "id":"536",
        "timezone":"America\/Los_Angeles",
        "name":"Safeway",
        "url":"https:\/\/local.safeway.com\/safeway\/or\/troutdale\/25691-se-stark.html",
        "address":"25691 SE Stark",
        "city":"Troutdale",
        "state":"OR",
        "zip":"97060",
        "latitude":"45.52024798695067",
        "longitude":"-122.40019440650934"
    },
    {
        "index":74,
        "id":"1687",
        "timezone":"America\/Los_Angeles",
        "name":"Safeway",
        "url":"https:\/\/local.safeway.com\/safeway\/wa\/washougal\/3307-evergreen-way-bldg-5.html",
        "address":"3307 Evergreen Way Bldg 5",
        "city":"Washougal",
        "state":"WA",
        "zip":"98671",
        "latitude":"45.578900717121584",
        "longitude":"-122.33471827976228"
    },
    {
        "index":75,
        "id":"1070",
        "timezone":"America\/Los_Angeles",
        "name":"Safeway",
        "url":"https:\/\/local.safeway.com\/safeway\/or\/gresham\/1001-sw-highland-dr.html",
        "address":"1001 SW Highland Dr",
        "city":"Gresham",
        "state":"OR",
        "zip":"97080",
        "latitude":"45.4892190602371",
        "longitude":"-122.47677259391787"
    },
    {
        "index":76,
        "id":"430",
        "timezone":"America\/Los_Angeles",
        "name":"Safeway",
        "url":"https:\/\/local.safeway.com\/safeway\/or\/gresham\/1455-ne-division-st.html",
        "address":"1455 NE Division St",
        "city":"Gresham",
        "state":"OR",
        "zip":"97030",
        "latitude":"45.5058941",
        "longitude":"-122.41697"
    },
    {
        "index":77,
        "id":"1627",
        "timezone":"America\/Los_Angeles",
        "name":"Safeway",
        "url":"https:\/\/local.safeway.com\/safeway\/or\/portland\/3930-se-powell-blvd.html",
        "address":"3930 SE Powell Blvd",
        "city":"Portland",
        "state":"OR",
        "zip":"97202",
        "latitude":"45.496947250359554",
        "longitude":"-122.62199968099594"
    },
    {
        "index":78,
        "id":"1762",
        "timezone":"America\/Los_Angeles",
        "name":"Safeway",
        "url":"https:\/\/local.safeway.com\/safeway\/wa\/woodland\/1725-pacific-ave.html",
        "address":"1725 Pacific Ave",
        "city":"Woodland",
        "state":"WA",
        "zip":"98674",
        "latitude":"45.91257990912126",
        "longitude":"-122.7483263764043"
    },
    {
        "index":79,
        "id":"2637",
        "timezone":"America\/Los_Angeles",
        "name":"Safeway",
        "url":"https:\/\/local.safeway.com\/safeway\/wa\/kelso\/411-three-rivers-dr.html",
        "address":"411 Three Rivers Dr",
        "city":"Kelso",
        "state":"WA",
        "zip":"98626",
        "latitude":"46.1411574",
        "longitude":"-122.9021259"
    },
    {
        "index":80,
        "id":"91",
        "timezone":"America\/Los_Angeles",
        "name":"Safeway",
        "url":"https:\/\/local.safeway.com\/safeway\/wa\/longview\/1227-15th-ave.html",
        "address":"1227 15th Ave",
        "city":"Longview",
        "state":"WA",
        "zip":"98632",
        "latitude":"46.1367721",
        "longitude":"-122.9385472"
    },
    {
        "index":81,
        "id":"1078",
        "timezone":"America\/Los_Angeles",
        "name":"Safeway",
        "url":"https:\/\/local.safeway.com\/safeway\/wa\/longview\/2930-ocean-beach-hwy.html",
        "address":"2930 Ocean Beach Hwy",
        "city":"Longview",
        "state":"WA",
        "zip":"98632",
        "latitude":"46.1484185",
        "longitude":"-122.961106"
    },
    {
        "index":82,
        "id":"782",
        "timezone":"America\/Los_Angeles",
        "name":"Safeway",
        "url":"https:\/\/local.safeway.com\/safeway\/or\/sandy\/37601-hwy-26.html",
        "address":"37601 Hwy 26",
        "city":"Sandy",
        "state":"OR",
        "zip":"97055",
        "latitude":"45.4012293",
        "longitude":"-122.2768953"
    },
    {
        "index":83,
        "id":"521",
        "timezone":"America\/Los_Angeles",
        "name":"Safeway",
        "url":"https:\/\/local.safeway.com\/safeway\/or\/boring\/20151-se-hwy-212.html",
        "address":"20151 SE Hwy 212",
        "city":"Boring",
        "state":"OR",
        "zip":"97089",
        "latitude":"45.4185082",
        "longitude":"-122.4559535"
    },
    {
        "index":84,
        "id":"1231",
        "timezone":"America\/Los_Angeles",
        "name":"Safeway",
        "url":"https:\/\/local.safeway.com\/safeway\/or\/clackamas\/12032-se-sunnyside-rd.html",
        "address":"12032 SE Sunnyside Rd",
        "city":"Clackamas",
        "state":"OR",
        "zip":"97015",
        "latitude":"45.428135",
        "longitude":"-122.5401987"
    },
    {
        "index":85,
        "id":"1525",
        "timezone":"America\/Los_Angeles",
        "name":"Safeway",
        "url":"https:\/\/local.safeway.com\/safeway\/or\/portland\/13485-nw-cornell-rd.html",
        "address":"13485 NW Cornell Rd",
        "city":"Portland",
        "state":"OR",
        "zip":"97229",
        "latitude":"45.527960419831835",
        "longitude":"-122.81448574396563"
    },
    {
        "index":86,
        "id":"1230",
        "timezone":"America\/Los_Angeles",
        "name":"Safeway",
        "url":"https:\/\/local.safeway.com\/safeway\/or\/hillsboro\/2177-nw-185th-ave.html",
        "address":"2177 NW 185th Ave",
        "city":"Hillsboro",
        "state":"OR",
        "zip":"97124",
        "latitude":"45.53609208860344",
        "longitude":"-122.86984920501709"
    },
    {
        "index":87,
        "id":"4318",
        "timezone":"America\/Los_Angeles",
        "name":"Safeway",
        "url":"https:\/\/local.safeway.com\/safeway\/or\/clatskanie\/401-w-columbia-river-hwy.html",
        "address":"401 W Columbia River Hwy",
        "city":"Clatskanie",
        "state":"OR",
        "zip":"97016",
        "latitude":"46.1059696",
        "longitude":"-123.2075623"
    },
    {
        "index":88,
        "id":"1619",
        "timezone":"America\/Los_Angeles",
        "name":"Safeway",
        "url":"https:\/\/local.safeway.com\/safeway\/wa\/yelm\/1109-yelm-ave-e.html",
        "address":"1109 Yelm Ave E",
        "city":"Yelm",
        "state":"WA",
        "zip":"98597",
        "latitude":"46.93363939039954",
        "longitude":"-122.59397018465576"
    },
    {
        "index":89,
        "id":"3525",
        "timezone":"America\/Los_Angeles",
        "name":"Safeway",
        "url":"https:\/\/local.safeway.com\/safeway\/wa\/chehalis\/1100-s-market-blvd.html",
        "address":"1100 S Market Blvd",
        "city":"Chehalis",
        "state":"WA",
        "zip":"98532",
        "latitude":"46.654951147782064",
        "longitude":"-122.9540911306885"
    },
    {
        "index":90,
        "id":"1495",
        "timezone":"America\/Los_Angeles",
        "name":"Safeway",
        "url":"https:\/\/local.safeway.com\/safeway\/wa\/centralia\/1129-harrison-ave.html",
        "address":"1129 Harrison Ave",
        "city":"Centralia",
        "state":"WA",
        "zip":"98531",
        "latitude":"46.72783",
        "longitude":"-122.9810218"
    },
    {
        "index":91,
        "id":"543",
        "timezone":"America\/Los_Angeles",
        "name":"Safeway",
        "url":"https:\/\/local.safeway.com\/safeway\/wa\/lacey\/4700-yelm-hwy-se.html",
        "address":"4700 Yelm Hwy SE",
        "city":"Lacey",
        "state":"WA",
        "zip":"98503",
        "latitude":"46.99789187813001",
        "longitude":"-122.82219707965851"
    },
    {
        "index":92,
        "id":"1407",
        "timezone":"America\/Los_Angeles",
        "name":"Safeway",
        "url":"https:\/\/local.safeway.com\/safeway\/wa\/tumwater\/705-trosper-rd-sw.html",
        "address":"705 Trosper Rd SW",
        "city":"Tumwater",
        "state":"WA",
        "zip":"98512",
        "latitude":"46.99843349344597",
        "longitude":"-122.91756436989999"
    },
    {
        "index":93,
        "id":"1503",
        "timezone":"America\/Los_Angeles",
        "name":"Safeway",
        "url":"https:\/\/local.safeway.com\/safeway\/wa\/tumwater\/520-cleveland-ave-se.html",
        "address":"520 Cleveland Ave SE",
        "city":"Tumwater",
        "state":"WA",
        "zip":"98501",
        "latitude":"47.01907320460485",
        "longitude":"-122.89786824232787"
    },
    {
        "index":94,
        "id":"1977",
        "timezone":"America\/Los_Angeles",
        "name":"Safeway",
        "url":"https:\/\/local.safeway.com\/safeway\/wa\/lacey\/6200-pacific-ave-se.html",
        "address":"6200 Pacific Ave SE",
        "city":"Lacey",
        "state":"WA",
        "zip":"98503",
        "latitude":"47.03927191160907",
        "longitude":"-122.79994363558197"
    },
    {
        "index":95,
        "id":"1952",
        "timezone":"America\/Los_Angeles",
        "name":"Safeway",
        "url":"https:\/\/local.safeway.com\/safeway\/wa\/olympia\/4280-martin-way-e.html",
        "address":"4280 Martin Way E",
        "city":"Olympia",
        "state":"WA",
        "zip":"98516",
        "latitude":"47.049956873617816",
        "longitude":"-122.82927220793457"
    },
    {
        "index":96,
        "id":"1464",
        "timezone":"America\/Los_Angeles",
        "name":"Safeway",
        "url":"https:\/\/local.safeway.com\/safeway\/wa\/olympia\/3215-harrison-ave-nw.html",
        "address":"3215 Harrison Ave NW",
        "city":"Olympia",
        "state":"WA",
        "zip":"98502",
        "latitude":"47.0454275",
        "longitude":"-122.9421357"
    },
    {
        "index":97,
        "id":"1173",
        "timezone":"America\/Los_Angeles",
        "name":"Safeway",
        "url":"https:\/\/local.safeway.com\/safeway\/wa\/lacey\/1243-marvin-rd-ne.html",
        "address":"1243 Marvin Rd NE",
        "city":"Lacey",
        "state":"WA",
        "zip":"98516",
        "latitude":"47.05936006434643",
        "longitude":"-122.76655302645874"
    },
    {
        "index":98,
        "id":"585",
        "timezone":"America\/Los_Angeles",
        "name":"Safeway",
        "url":"https:\/\/local.safeway.com\/safeway\/wa\/shelton\/600-franklin-st.html",
        "address":"600 Franklin St",
        "city":"Shelton",
        "state":"WA",
        "zip":"98584",
        "latitude":"47.214658008430284",
        "longitude":"-123.10649247499896"
    },
    {
        "index":99,
        "id":"547",
        "timezone":"America\/Los_Angeles",
        "name":"Safeway",
        "url":"https:\/\/local.safeway.com\/safeway\/wa\/graham\/10105-224th-st-e.html",
        "address":"10105 224th St E",
        "city":"Graham",
        "state":"WA",
        "zip":"98338",
        "latitude":"47.05432833219798",
        "longitude":"-122.29668776322939"
    },
    {
        "index":100,
        "id":"3228",
        "timezone":"America\/Los_Angeles",
        "name":"Safeway",
        "url":"https:\/\/local.safeway.com\/safeway\/wa\/puyallup\/5616-176th-st-e.html",
        "address":"5616 176th St E",
        "city":"Puyallup",
        "state":"WA",
        "zip":"98375",
        "latitude":"47.09509237997794",
        "longitude":"-122.35302689021302"
    },
    {
        "index":101,
        "id":"3305",
        "timezone":"America\/Los_Angeles",
        "name":"Safeway",
        "url":"https:\/\/local.safeway.com\/safeway\/wa\/tacoma\/15805-pacific-ave-s.html",
        "address":"15805 Pacific Ave S",
        "city":"Tacoma",
        "state":"WA",
        "zip":"98444",
        "latitude":"47.11305",
        "longitude":"-122.4322881"
    },
    {
        "index":102,
        "id":"1798",
        "timezone":"America\/Los_Angeles",
        "name":"Safeway",
        "url":"https:\/\/local.safeway.com\/safeway\/wa\/puyallup\/11501-canyon-rd-e.html",
        "address":"11501 Canyon Rd E",
        "city":"Puyallup",
        "state":"WA",
        "zip":"98373",
        "latitude":"47.15185120377339",
        "longitude":"-122.35525135819702"
    },
    {
        "index":103,
        "id":"2640",
        "timezone":"America\/Los_Angeles",
        "name":"Safeway",
        "url":"https:\/\/local.safeway.com\/safeway\/wa\/puyallup\/13308-meridian-e.html",
        "address":"13308 Meridian E",
        "city":"Puyallup",
        "state":"WA",
        "zip":"98373",
        "latitude":"47.1352475",
        "longitude":"-122.2950287"
    },
    {
        "index":104,
        "id":"1645",
        "timezone":"America\/Los_Angeles",
        "name":"Safeway",
        "url":"https:\/\/local.safeway.com\/safeway\/wa\/lakewood\/10223-gravelly-lake-dr-sw.html",
        "address":"10223 Gravelly Lake Dr SW",
        "city":"Lakewood",
        "state":"WA",
        "zip":"98499",
        "latitude":"47.1642791",
        "longitude":"-122.5184065"
    },
    {
        "index":105,
        "id":"1844",
        "timezone":"America\/Los_Angeles",
        "name":"Safeway",
        "url":"https:\/\/local.safeway.com\/safeway\/wa\/orting\/215-whitsell-st-nw.html",
        "address":"215 Whitsell St NW",
        "city":"Orting",
        "state":"WA",
        "zip":"98360",
        "latitude":"47.09874254712358",
        "longitude":"-122.20957250925494"
    },
    {
        "index":106,
        "id":"3411",
        "timezone":"America\/Los_Angeles",
        "name":"Safeway",
        "url":"https:\/\/local.safeway.com\/safeway\/wa\/tacoma\/8611-steilacoom-blvd-sw.html",
        "address":"8611 Steilacoom Blvd SW",
        "city":"Tacoma",
        "state":"WA",
        "zip":"98498",
        "latitude":"47.18038089272093",
        "longitude":"-122.5521064669342"
    },
    {
        "index":107,
        "id":"1436",
        "timezone":"America\/Los_Angeles",
        "name":"Safeway",
        "url":"https:\/\/local.safeway.com\/safeway\/wa\/tacoma\/1624-72nd-st-e.html",
        "address":"1624 72nd St E",
        "city":"Tacoma",
        "state":"WA",
        "zip":"98404",
        "latitude":"47.19005821583907",
        "longitude":"-122.40710704232787"
    },
    {
        "index":108,
        "id":"1594",
        "timezone":"America\/Los_Angeles",
        "name":"Safeway",
        "url":"https:\/\/local.safeway.com\/safeway\/wa\/tacoma\/707-s-56th-st.html",
        "address":"707 S 56th St",
        "city":"Tacoma",
        "state":"WA",
        "zip":"98408",
        "latitude":"47.206909022671894",
        "longitude":"-122.44072480608216"
    },
    {
        "index":109,
        "id":"422",
        "timezone":"America\/Los_Angeles",
        "name":"Safeway",
        "url":"https:\/\/local.safeway.com\/safeway\/wa\/puyallup\/611-s-meridian.html",
        "address":"611 S Meridian",
        "city":"Puyallup",
        "state":"WA",
        "zip":"98371",
        "latitude":"47.1870073",
        "longitude":"-122.2930657"
    },
    {
        "index":110,
        "id":"2729",
        "timezone":"America\/Los_Angeles",
        "name":"Safeway",
        "url":"https:\/\/local.safeway.com\/safeway\/wa\/puyallup\/708-shaw-rd-e.html",
        "address":"708 Shaw Rd E",
        "city":"Puyallup",
        "state":"WA",
        "zip":"98372",
        "latitude":"47.18499081663024",
        "longitude":"-122.25922416693419"
    },
    {
        "index":111,
        "id":"1437",
        "timezone":"America\/Los_Angeles",
        "name":"Safeway",
        "url":"https:\/\/local.safeway.com\/safeway\/wa\/tacoma\/1302-s-38th-st.html",
        "address":"1302 S 38th St",
        "city":"Tacoma",
        "state":"WA",
        "zip":"98418",
        "latitude":"47.22223885557227",
        "longitude":"-122.45146402883606"
    },
    {
        "index":112,
        "id":"1546",
        "timezone":"America\/Los_Angeles",
        "name":"Safeway",
        "url":"https:\/\/local.safeway.com\/safeway\/wa\/aberdeen\/221-w-heron-st.html",
        "address":"221 W Heron St",
        "city":"Aberdeen",
        "state":"WA",
        "zip":"98520",
        "latitude":"46.97202798352183",
        "longitude":"-123.81839662142639"
    },
    {
        "index":113,
        "id":"1571",
        "timezone":"America\/Los_Angeles",
        "name":"Safeway",
        "url":"https:\/\/local.safeway.com\/safeway\/wa\/belfair\/23961-ne-state-route-3.html",
        "address":"23961 NE State Route 3",
        "city":"Belfair",
        "state":"WA",
        "zip":"98528",
        "latitude":"47.4539743",
        "longitude":"-122.8226694"
    },
    {
        "index":114,
        "id":"419",
        "timezone":"America\/Los_Angeles",
        "name":"Safeway",
        "url":"https:\/\/local.safeway.com\/safeway\/wa\/port-orchard\/370-sw-sedgwick-rd.html",
        "address":"370 SW Sedgwick Rd",
        "city":"Port Orchard",
        "state":"WA",
        "zip":"98367",
        "latitude":"47.49617578692049",
        "longitude":"-122.65214139629516"
    },
    {
        "index":115,
        "id":"3317",
        "timezone":"America\/Los_Angeles",
        "name":"Safeway",
        "url":"https:\/\/local.safeway.com\/safeway\/wa\/port-orchard\/3355-bethel-rd-se.html",
        "address":"3355 Bethel Rd SE",
        "city":"Port Orchard",
        "state":"WA",
        "zip":"98366",
        "latitude":"47.51812843516262",
        "longitude":"-122.63030381533099"
    },
    {
        "index":116,
        "id":"1467",
        "timezone":"America\/Los_Angeles",
        "name":"Safeway",
        "url":"https:\/\/local.safeway.com\/safeway\/wa\/bremerton\/900-n-callow-ave.html",
        "address":"900 N Callow Ave",
        "city":"Bremerton",
        "state":"WA",
        "zip":"98312",
        "latitude":"47.56966054870909",
        "longitude":"-122.6527109894414"
    },
    {
        "index":117,
        "id":"1680",
        "timezone":"America\/Los_Angeles",
        "name":"Safeway",
        "url":"https:\/\/local.safeway.com\/safeway\/wa\/silverdale\/2890-nw-bucklin-hill-rd.html",
        "address":"2890 NW Bucklin Hill Rd",
        "city":"Silverdale",
        "state":"WA",
        "zip":"98383",
        "latitude":"47.6526667",
        "longitude":"-122.6881157"
    },
    {
        "index":118,
        "id":"1524",
        "timezone":"America\/Los_Angeles",
        "name":"Safeway",
        "url":"https:\/\/local.safeway.com\/safeway\/wa\/bremerton\/1401-ne-mcwilliams-rd.html",
        "address":"1401 NE McWilliams Rd",
        "city":"Bremerton",
        "state":"WA",
        "zip":"98311",
        "latitude":"47.62056826327232",
        "longitude":"-122.63080350740967"
    },
    {
        "index":119,
        "id":"3321",
        "timezone":"America\/Los_Angeles",
        "name":"Safeway",
        "url":"https:\/\/local.safeway.com\/safeway\/wa\/gig-harbor\/4831-point-fosdick-dr-nw.html",
        "address":"4831 Point Fosdick Dr NW",
        "city":"Gig Harbor",
        "state":"WA",
        "zip":"98335",
        "latitude":"47.3023058",
        "longitude":"-122.5758672"
    },
    {
        "index":120,
        "id":"486",
        "timezone":"America\/Los_Angeles",
        "name":"Safeway",
        "url":"https:\/\/local.safeway.com\/safeway\/wa\/tacoma\/3842-bridgeport-way.html",
        "address":"3842 Bridgeport Way",
        "city":"Tacoma",
        "state":"WA",
        "zip":"98466",
        "latitude":"47.2216712",
        "longitude":"-122.5393458"
    },
    {
        "index":121,
        "id":"1978",
        "timezone":"America\/Los_Angeles",
        "name":"Safeway",
        "url":"https:\/\/local.safeway.com\/safeway\/wa\/tacoma\/2637-n-pearl-st.html",
        "address":"2637 N Pearl St",
        "city":"Tacoma",
        "state":"WA",
        "zip":"98407",
        "latitude":"47.27279937067019",
        "longitude":"-122.51373501154376"
    },
    {
        "index":122,
        "id":"3424",
        "timezone":"America\/Los_Angeles",
        "name":"Safeway",
        "url":"https:\/\/local.safeway.com\/safeway\/wa\/tacoma\/2411-n-proctor-st.html",
        "address":"2411 N Proctor St",
        "city":"Tacoma",
        "state":"WA",
        "zip":"98406",
        "latitude":"47.2695434",
        "longitude":"-122.4881592"
    },
    {
        "index":123,
        "id":"329",
        "timezone":"America\/Los_Angeles",
        "name":"Safeway",
        "url":"https:\/\/local.safeway.com\/safeway\/wa\/tacoma\/1112-s-m-st.html",
        "address":"1112 S M St",
        "city":"Tacoma",
        "state":"WA",
        "zip":"98405",
        "latitude":"47.2512023",
        "longitude":"-122.4552832"
    },
    {
        "index":124,
        "id":"3545",
        "timezone":"America\/Los_Angeles",
        "name":"Safeway",
        "url":"https:\/\/local.safeway.com\/safeway\/wa\/milton\/900-e-meridian-ave-suite-12.html",
        "address":"900 E Meridian Ave Suite 12",
        "city":"Milton",
        "state":"WA",
        "zip":"98354",
        "latitude":"47.248900643087254",
        "longitude":"-122.29589278538896"
    },
    {
        "index":125,
        "id":"3501",
        "timezone":"America\/Los_Angeles",
        "name":"Safeway",
        "url":"https:\/\/local.safeway.com\/safeway\/wa\/federal-way\/2109-sw-336th-st.html",
        "address":"2109 SW 336th St",
        "city":"Federal Way",
        "state":"WA",
        "zip":"98023",
        "latitude":"47.2996937",
        "longitude":"-122.3618854"
    },
    {
        "index":126,
        "id":"1555",
        "timezone":"America\/Los_Angeles",
        "name":"Safeway",
        "url":"https:\/\/local.safeway.com\/safeway\/wa\/federal-way\/1207-s-320th-st.html",
        "address":"1207 S 320th St",
        "city":"Federal Way",
        "state":"WA",
        "zip":"98003",
        "latitude":"47.3136405",
        "longitude":"-122.3179706"
    },
    {
        "index":127,
        "id":"477",
        "timezone":"America\/Los_Angeles",
        "name":"Safeway",
        "url":"https:\/\/local.safeway.com\/safeway\/wa\/federal-way\/28810-military-rd-s.html",
        "address":"28810 Military Rd S",
        "city":"Federal Way",
        "state":"WA",
        "zip":"98003",
        "latitude":"47.3425128",
        "longitude":"-122.3000461"
    },
    {
        "index":128,
        "id":"4483",
        "timezone":"America\/Los_Angeles",
        "name":"Safeway",
        "url":"https:\/\/local.safeway.com\/safeway\/wa\/auburn\/4010-a-st.html",
        "address":"4010 A St",
        "city":"Auburn",
        "state":"WA",
        "zip":"98002",
        "latitude":"47.2728838",
        "longitude":"-122.2271082"
    },
    {
        "index":129,
        "id":"531",
        "timezone":"America\/Los_Angeles",
        "name":"Safeway",
        "url":"https:\/\/local.safeway.com\/safeway\/wa\/auburn\/101-auburn-way-s.html",
        "address":"101 Auburn Way S",
        "city":"Auburn",
        "state":"WA",
        "zip":"98002",
        "latitude":"47.306318775064305",
        "longitude":"-122.22744284180298"
    },
    {
        "index":130,
        "id":"1186",
        "timezone":"America\/Los_Angeles",
        "name":"Safeway",
        "url":"https:\/\/local.safeway.com\/safeway\/wa\/des-moines\/27035-pacific-hwy-s.html",
        "address":"27035 Pacific Hwy S",
        "city":"Des Moines",
        "state":"WA",
        "zip":"98198",
        "latitude":"47.359341",
        "longitude":"-122.3106631"
    },
    {
        "index":131,
        "id":"1294",
        "timezone":"America\/Los_Angeles",
        "name":"Safeway",
        "url":"https:\/\/local.safeway.com\/safeway\/wa\/kent\/210-washington-ave-s.html",
        "address":"210 Washington Ave S",
        "city":"Kent",
        "state":"WA",
        "zip":"98032",
        "latitude":"47.38048319316379",
        "longitude":"-122.2465768785736"
    },
    {
        "index":132,
        "id":"544",
        "timezone":"America\/Los_Angeles",
        "name":"Safeway",
        "url":"https:\/\/local.safeway.com\/safeway\/wa\/bonney-lake\/21301-hwy-410.html",
        "address":"21301 Hwy 410",
        "city":"Bonney Lake",
        "state":"WA",
        "zip":"98391",
        "latitude":"47.1661242",
        "longitude":"-122.1448631"
    },
    {
        "index":133,
        "id":"494",
        "timezone":"America\/Los_Angeles",
        "name":"Safeway",
        "url":"https:\/\/local.safeway.com\/safeway\/wa\/enumclaw\/152-roosevelt-ave-e.html",
        "address":"152 Roosevelt Ave E",
        "city":"Enumclaw",
        "state":"WA",
        "zip":"98022",
        "latitude":"47.1982382",
        "longitude":"-121.9797307"
    },
    {
        "index":134,
        "id":"1966",
        "timezone":"America\/Los_Angeles",
        "name":"Safeway",
        "url":"https:\/\/local.safeway.com\/safeway\/wa\/kent\/13101-se-kent-kangley-rd.html",
        "address":"13101 SE Kent-Kangley Rd",
        "city":"Kent",
        "state":"WA",
        "zip":"98030",
        "latitude":"47.3566626",
        "longitude":"-122.1666924"
    },
    {
        "index":135,
        "id":"792",
        "timezone":"America\/Los_Angeles",
        "name":"Safeway",
        "url":"https:\/\/local.safeway.com\/safeway\/wa\/covington\/17023-se-272nd.html",
        "address":"17023 SE 272nd",
        "city":"Covington",
        "state":"WA",
        "zip":"98042",
        "latitude":"47.35668388654585",
        "longitude":"-122.1150086283111"
    },
    {
        "index":136,
        "id":"3148",
        "timezone":"America\/Los_Angeles",
        "name":"Safeway",
        "url":"https:\/\/local.safeway.com\/safeway\/wa\/poulsbo\/19245-10th-ave-ne.html",
        "address":"19245 10th Ave NE",
        "city":"Poulsbo",
        "state":"WA",
        "zip":"98370",
        "latitude":"47.738065504101066",
        "longitude":"-122.63680539940566"
    },
    {
        "index":137,
        "id":"1252",
        "timezone":"America\/Los_Angeles",
        "name":"Safeway",
        "url":"https:\/\/local.safeway.com\/safeway\/wa\/bainbridge-island\/253-high-school-rd-ne.html",
        "address":"253 High School Rd NE",
        "city":"Bainbridge Island",
        "state":"WA",
        "zip":"98110",
        "latitude":"47.6350953",
        "longitude":"-122.5197055"
    },
    {
        "index":138,
        "id":"186",
        "timezone":"America\/Los_Angeles",
        "name":"Safeway",
        "url":"https:\/\/local.safeway.com\/safeway\/wa\/kingston\/8196-ne-hwy-104.html",
        "address":"8196 NE Hwy 104",
        "city":"Kingston",
        "state":"WA",
        "zip":"98346",
        "latitude":"47.8115701",
        "longitude":"-122.5406391"
    },
    {
        "index":139,
        "id":"1477",
        "timezone":"America\/Los_Angeles",
        "name":"Safeway",
        "url":"https:\/\/local.safeway.com\/safeway\/wa\/seattle\/1423-nw-market-st.html",
        "address":"1423 NW Market St",
        "city":"Seattle",
        "state":"WA",
        "zip":"98107",
        "latitude":"47.66831804692875",
        "longitude":"-122.37442083298407"
    },
    {
        "index":140,
        "id":"1143",
        "timezone":"America\/Los_Angeles",
        "name":"Safeway",
        "url":"https:\/\/local.safeway.com\/safeway\/wa\/seattle\/8340-15th-ave-nw.html",
        "address":"8340 15th Ave NW",
        "city":"Seattle",
        "state":"WA",
        "zip":"98117",
        "latitude":"47.690075616821204",
        "longitude":"-122.37624031904907"
    },
    {
        "index":141,
        "id":"2932",
        "timezone":"America\/Los_Angeles",
        "name":"Safeway",
        "url":"https:\/\/local.safeway.com\/safeway\/wa\/seattle\/2622-california-ave-sw.html",
        "address":"2622 California Ave SW",
        "city":"Seattle",
        "state":"WA",
        "zip":"98116",
        "latitude":"47.57996947228789",
        "longitude":"-122.38622631415559"
    },
    {
        "index":142,
        "id":"1885",
        "timezone":"America\/Los_Angeles",
        "name":"Safeway",
        "url":"https:\/\/local.safeway.com\/safeway\/wa\/seattle\/516-1st-ave-w.html",
        "address":"516 1st Ave W",
        "city":"Seattle",
        "state":"WA",
        "zip":"98119",
        "latitude":"47.6235999",
        "longitude":"-122.357705"
    },
    {
        "index":143,
        "id":"1062",
        "timezone":"America\/Los_Angeles",
        "name":"Safeway",
        "url":"https:\/\/local.safeway.com\/safeway\/wa\/seattle\/4754-42nd-ave-sw.html",
        "address":"4754 42nd Ave SW",
        "city":"Seattle",
        "state":"WA",
        "zip":"98116",
        "latitude":"47.55965742209878",
        "longitude":"-122.38520488904214"
    },
    {
        "index":144,
        "id":"3213",
        "timezone":"America\/Los_Angeles",
        "name":"Safeway",
        "url":"https:\/\/local.safeway.com\/safeway\/wa\/shoreline\/15332-aurora-ave-n.html",
        "address":"15332 Aurora Ave N",
        "city":"Shoreline",
        "state":"WA",
        "zip":"98133",
        "latitude":"47.7409711",
        "longitude":"-122.3436026"
    },
    {
        "index":145,
        "id":"1550",
        "timezone":"America\/Los_Angeles",
        "name":"Safeway",
        "url":"https:\/\/local.safeway.com\/safeway\/wa\/seattle\/7300-roosevelt-way-ne.html",
        "address":"7300 Roosevelt Way NE",
        "city":"Seattle",
        "state":"WA",
        "zip":"98115",
        "latitude":"47.68197097039437",
        "longitude":"-122.31700034471942"
    },
    {
        "index":146,
        "id":"2980",
        "timezone":"America\/Los_Angeles",
        "name":"Safeway",
        "url":"https:\/\/local.safeway.com\/safeway\/wa\/seattle\/4732-brooklyn-ave-ne.html",
        "address":"4732 Brooklyn Ave NE",
        "city":"Seattle",
        "state":"WA",
        "zip":"98105",
        "latitude":"47.66423881263178",
        "longitude":"-122.31391172734116"
    },
    {
        "index":147,
        "id":"1551",
        "timezone":"America\/Los_Angeles",
        "name":"Safeway",
        "url":"https:\/\/local.safeway.com\/safeway\/wa\/seattle\/1410-e-john-st.html",
        "address":"1410 E John St",
        "city":"Seattle",
        "state":"WA",
        "zip":"98112",
        "latitude":"47.62042",
        "longitude":"-122.3130222"
    },
    {
        "index":148,
        "id":"1448",
        "timezone":"America\/Los_Angeles",
        "name":"Safeway",
        "url":"https:\/\/local.safeway.com\/safeway\/wa\/sequim\/680f-w-washington-st.html",
        "address":"680F W Washington St",
        "city":"Sequim",
        "state":"WA",
        "zip":"98382",
        "latitude":"48.0809763",
        "longitude":"-123.1172171"
    },
    {
        "index":149,
        "id":"1922",
        "timezone":"America\/Los_Angeles",
        "name":"Safeway",
        "url":"https:\/\/local.safeway.com\/safeway\/wa\/port-angeles\/2709-e-hwy-101.html",
        "address":"2709 E Hwy 101",
        "city":"Port Angeles",
        "state":"WA",
        "zip":"98362",
        "latitude":"48.10598742018216",
        "longitude":"-123.3804903111145"
    },
    {
        "index":150,
        "id":"1492",
        "timezone":"America\/Los_Angeles",
        "name":"Safeway",
        "url":"https:\/\/local.safeway.com\/safeway\/wa\/port-angeles\/110-e-3rd-st.html",
        "address":"110 E 3rd St",
        "city":"Port Angeles",
        "state":"WA",
        "zip":"98362",
        "latitude":"48.11598605499776",
        "longitude":"-123.43518310370483"
    },
    {
        "index":151,
        "id":"538",
        "timezone":"America\/Los_Angeles",
        "name":"Safeway",
        "url":"https:\/\/local.safeway.com\/safeway\/wa\/port-townsend\/442-w-sims-way.html",
        "address":"442 W Sims Way",
        "city":"Port Townsend",
        "state":"WA",
        "zip":"98368",
        "latitude":"48.1080976",
        "longitude":"-122.7826349"
    },
    {
        "index":152,
        "id":"1297",
        "timezone":"America\/Los_Angeles",
        "name":"Safeway",
        "url":"https:\/\/local.safeway.com\/safeway\/wa\/edmonds\/23632-hwy-99.html",
        "address":"23632 Hwy 99",
        "city":"Edmonds",
        "state":"WA",
        "zip":"98026",
        "latitude":"47.7845357",
        "longitude":"-122.3439971"
    },
    {
        "index":153,
        "id":"497",
        "timezone":"America\/Los_Angeles",
        "name":"Safeway",
        "url":"https:\/\/local.safeway.com\/safeway\/wa\/shoreline\/17202-15th-ave-ne.html",
        "address":"17202 15th Ave NE",
        "city":"Shoreline",
        "state":"WA",
        "zip":"98155",
        "latitude":"47.7542707",
        "longitude":"-122.312978"
    },
    {
        "index":154,
        "id":"1586",
        "timezone":"America\/Los_Angeles",
        "name":"Safeway",
        "url":"https:\/\/local.safeway.com\/safeway\/wa\/seattle\/12318-15th-ave-ne.html",
        "address":"12318 15th Ave NE",
        "city":"Seattle",
        "state":"WA",
        "zip":"98125",
        "latitude":"47.718022810464774",
        "longitude":"-122.31192722513124"
    },
    {
        "index":155,
        "id":"485",
        "timezone":"America\/Los_Angeles",
        "name":"Safeway",
        "url":"https:\/\/local.safeway.com\/safeway\/wa\/lynnwood\/19500-hwy-99-suite-110.html",
        "address":"19500 Hwy 99 Suite 110",
        "city":"Lynnwood",
        "state":"WA",
        "zip":"98036",
        "latitude":"47.8221315",
        "longitude":"-122.316576"
    },
    {
        "index":156,
        "id":"402",
        "timezone":"America\/Los_Angeles",
        "name":"Safeway",
        "url":"https:\/\/local.safeway.com\/safeway\/wa\/oak-harbor\/1450-sw-erie-st.html",
        "address":"1450 SW Erie St",
        "city":"Oak Harbor",
        "state":"WA",
        "zip":"98277",
        "latitude":"48.28647783903825",
        "longitude":"-122.66154319444274"
    },
    {
        "index":157,
        "id":"1923",
        "timezone":"America\/Los_Angeles",
        "name":"Safeway",
        "url":"https:\/\/local.safeway.com\/safeway\/wa\/seattle\/9620-28th-ave-sw.html",
        "address":"9620 28th Ave SW",
        "city":"Seattle",
        "state":"WA",
        "zip":"98126",
        "latitude":"47.5166889",
        "longitude":"-122.3666833"
    },
    {
        "index":158,
        "id":"1664",
        "timezone":"America\/Los_Angeles",
        "name":"Safeway",
        "url":"https:\/\/local.safeway.com\/safeway\/wa\/burien\/138-sw-148th-st.html",
        "address":"138 SW 148th St",
        "city":"Burien",
        "state":"WA",
        "zip":"98166",
        "latitude":"47.4718113",
        "longitude":"-122.336927"
    },
    {
        "index":159,
        "id":"3120",
        "timezone":"America\/Los_Angeles",
        "name":"Safeway",
        "url":"https:\/\/local.safeway.com\/safeway\/wa\/burien\/12725-1st-ave-s.html",
        "address":"12725 1st Ave S",
        "city":"Burien",
        "state":"WA",
        "zip":"98168",
        "latitude":"47.48917349958429",
        "longitude":"-122.33576230919266"
    },
    {
        "index":160,
        "id":"219",
        "timezone":"America\/Los_Angeles",
        "name":"Safeway",
        "url":"https:\/\/local.safeway.com\/safeway\/wa\/seattle\/3900-s-othello-st.html",
        "address":"3900 S Othello St",
        "city":"Seattle",
        "state":"WA",
        "zip":"98118",
        "latitude":"47.5374346",
        "longitude":"-122.2830543"
    },
    {
        "index":161,
        "id":"1508",
        "timezone":"America\/Los_Angeles",
        "name":"Safeway",
        "url":"https:\/\/local.safeway.com\/safeway\/wa\/seattle\/3820-rainier-ave-s.html",
        "address":"3820 Rainier Ave S",
        "city":"Seattle",
        "state":"WA",
        "zip":"98118",
        "latitude":"47.5692087",
        "longitude":"-122.2881353"
    },
    {
        "index":162,
        "id":"414",
        "timezone":"America\/Los_Angeles",
        "name":"Safeway",
        "url":"https:\/\/local.safeway.com\/safeway\/wa\/mountlake-terrace\/4301-212th-st-sw.html",
        "address":"4301 212th St SW",
        "city":"Mountlake Terrace",
        "state":"WA",
        "zip":"98043",
        "latitude":"47.8076542",
        "longitude":"-122.2904178"
    },
    {
        "index":163,
        "id":"3523",
        "timezone":"America\/Los_Angeles",
        "name":"Safeway",
        "url":"https:\/\/local.safeway.com\/safeway\/wa\/lynnwood\/14826-hwy-99-n.html",
        "address":"14826 Hwy 99 N",
        "city":"Lynnwood",
        "state":"WA",
        "zip":"98087",
        "latitude":"47.86360042463472",
        "longitude":"-122.2844217761963"
    },
    {
        "index":164,
        "id":"469",
        "timezone":"America\/Los_Angeles",
        "name":"Safeway",
        "url":"https:\/\/local.safeway.com\/safeway\/wa\/lynnwood\/12811-beverly-park-rd.html",
        "address":"12811 Beverly Park Rd",
        "city":"Lynnwood",
        "state":"WA",
        "zip":"98087",
        "latitude":"47.8811291",
        "longitude":"-122.2808973"
    },
    {
        "index":165,
        "id":"3500",
        "timezone":"America\/Los_Angeles",
        "name":"Safeway",
        "url":"https:\/\/local.safeway.com\/safeway\/wa\/kenmore\/6850-ne-bothell-way.html",
        "address":"6850 NE Bothell Way",
        "city":"Kenmore",
        "state":"WA",
        "zip":"98028",
        "latitude":"47.75921734832783",
        "longitude":"-122.24764185767211"
    },
    {
        "index":166,
        "id":"1461",
        "timezone":"America\/Los_Angeles",
        "name":"Safeway",
        "url":"https:\/\/local.safeway.com\/safeway\/wa\/everett\/520-128th-st-sw.html",
        "address":"520 128th St SW",
        "city":"Everett",
        "state":"WA",
        "zip":"98204",
        "latitude":"47.8808041",
        "longitude":"-122.2404267"
    },
    {
        "index":167,
        "id":"1471",
        "timezone":"America\/Los_Angeles",
        "name":"Safeway",
        "url":"https:\/\/local.safeway.com\/safeway\/wa\/maple-valley\/26916-maple-valley-rd.html",
        "address":"26916 Maple Valley Rd",
        "city":"Maple Valley",
        "state":"WA",
        "zip":"98038",
        "latitude":"47.3602762096313",
        "longitude":"-122.0183189288582"
    },
    {
        "index":168,
        "id":"1993",
        "timezone":"America\/Los_Angeles",
        "name":"Safeway",
        "url":"https:\/\/local.safeway.com\/safeway\/wa\/seattle\/2201-e-madison-st.html",
        "address":"2201 E Madison St",
        "city":"Seattle",
        "state":"WA",
        "zip":"98112",
        "latitude":"47.618171063850255",
        "longitude":"-122.30379285648347"
    },
    {
        "index":169,
        "id":"3419",
        "timezone":"America\/Los_Angeles",
        "name":"Safeway",
        "url":"https:\/\/local.safeway.com\/safeway\/wa\/snohomish\/17520-sr-9-se.html",
        "address":"17520 SR 9 SE",
        "city":"Snohomish",
        "state":"WA",
        "zip":"98296",
        "latitude":"47.8388977",
        "longitude":"-122.1253051"
    },
    {
        "index":170,
        "id":"2645",
        "timezone":"America\/Los_Angeles",
        "name":"Safeway",
        "url":"https:\/\/local.safeway.com\/safeway\/wa\/everett\/5802-134th-place-se.html",
        "address":"5802 134th Place SE",
        "city":"Everett",
        "state":"WA",
        "zip":"98208",
        "latitude":"47.87535556269321",
        "longitude":"-122.15362624655762"
    },
    {
        "index":171,
        "id":"533",
        "timezone":"America\/Los_Angeles",
        "name":"Safeway",
        "url":"https:\/\/local.safeway.com\/safeway\/wa\/woodinville\/19150-ne-woodinville-duvall-rd.html",
        "address":"19150 NE Woodinville Duvall Rd",
        "city":"Woodinville",
        "state":"WA",
        "zip":"98077",
        "latitude":"47.75642353655473",
        "longitude":"-122.08068176137697"
    },
    {
        "index":172,
        "id":"1413",
        "timezone":"America\/Los_Angeles",
        "name":"Safeway",
        "url":"https:\/\/local.safeway.com\/safeway\/wa\/mill-creek\/3322-132nd-st-se.html",
        "address":"3322 132nd St SE",
        "city":"Mill Creek",
        "state":"WA",
        "zip":"98012",
        "latitude":"47.8766097",
        "longitude":"-122.1871291"
    },
    {
        "index":173,
        "id":"535",
        "timezone":"America\/Los_Angeles",
        "name":"Safeway",
        "url":"https:\/\/local.safeway.com\/safeway\/wa\/bothell\/20711-bothell-hwy.html",
        "address":"20711 Bothell Hwy",
        "city":"Bothell",
        "state":"WA",
        "zip":"98012",
        "latitude":"47.8101643",
        "longitude":"-122.2055137"
    },
    {
        "index":174,
        "id":"458",
        "timezone":"America\/Los_Angeles",
        "name":"Safeway",
        "url":"https:\/\/local.safeway.com\/safeway\/wa\/mill-creek\/16304-bothell-everett-hwy.html",
        "address":"16304 Bothell Everett Hwy",
        "city":"Mill Creek",
        "state":"WA",
        "zip":"98012",
        "latitude":"47.8507938",
        "longitude":"-122.2200898"
    },
    {
        "index":175,
        "id":"537",
        "timezone":"America\/Los_Angeles",
        "name":"Safeway",
        "url":"https:\/\/local.safeway.com\/safeway\/wa\/monroe\/19651-hwy-2.html",
        "address":"19651 Hwy 2",
        "city":"Monroe",
        "state":"WA",
        "zip":"98272",
        "latitude":"47.8600292",
        "longitude":"-121.9676364"
    },
    {
        "index":176,
        "id":"1076",
        "timezone":"America\/Los_Angeles",
        "name":"Safeway",
        "url":"https:\/\/local.safeway.com\/safeway\/wa\/snohomish\/1119-13th-st.html",
        "address":"1119 13th St",
        "city":"Snohomish",
        "state":"WA",
        "zip":"98290",
        "latitude":"47.9260904",
        "longitude":"-122.0955213"
    },
    {
        "index":177,
        "id":"503",
        "timezone":"America\/Los_Angeles",
        "name":"Safeway",
        "url":"https:\/\/local.safeway.com\/safeway\/wa\/everett\/11031-19th-ave-se.html",
        "address":"11031 19th Ave SE",
        "city":"Everett",
        "state":"WA",
        "zip":"98208",
        "latitude":"47.8972942",
        "longitude":"-122.2051138"
    },
    {
        "index":178,
        "id":"1864",
        "timezone":"America\/Los_Angeles",
        "name":"Safeway",
        "url":"https:\/\/local.safeway.com\/safeway\/wa\/bothell\/24040-bothell-everett-hwy.html",
        "address":"24040 Bothell Everett Hwy",
        "city":"Bothell",
        "state":"WA",
        "zip":"98021",
        "latitude":"47.7788214",
        "longitude":"-122.2207651"
    },
    {
        "index":179,
        "id":"526",
        "timezone":"America\/Los_Angeles",
        "name":"Safeway",
        "url":"https:\/\/local.safeway.com\/safeway\/wa\/kirkland\/14444-124th-ave-ne.html",
        "address":"14444 124th Ave NE",
        "city":"Kirkland",
        "state":"WA",
        "zip":"98034",
        "latitude":"47.73252259785012",
        "longitude":"-122.1740734577179"
    },
    {
        "index":180,
        "id":"1572",
        "timezone":"America\/Los_Angeles",
        "name":"Safeway",
        "url":"https:\/\/local.safeway.com\/safeway\/wa\/duvall\/14020-main-st-ne.html",
        "address":"14020 Main St NE",
        "city":"Duvall",
        "state":"WA",
        "zip":"98019",
        "latitude":"47.726301917608225",
        "longitude":"-121.98469340801239"
    },
    {
        "index":181,
        "id":"3298",
        "timezone":"America\/Los_Angeles",
        "name":"Safeway",
        "url":"https:\/\/local.safeway.com\/safeway\/wa\/everett\/7601-evergreen-way.html",
        "address":"7601 Evergreen Way",
        "city":"Everett",
        "state":"WA",
        "zip":"98203",
        "latitude":"47.92945089999999",
        "longitude":"-122.21885602142639"
    },
    {
        "index":182,
        "id":"2734",
        "timezone":"America\/Los_Angeles",
        "name":"Safeway",
        "url":"https:\/\/local.safeway.com\/safeway\/wa\/kirkland\/10020-ne-137th-st.html",
        "address":"10020 NE 137th St",
        "city":"Kirkland",
        "state":"WA",
        "zip":"98034",
        "latitude":"47.723516291611666",
        "longitude":"-122.20631798650818"
    },
    {
        "index":183,
        "id":"534",
        "timezone":"America\/Los_Angeles",
        "name":"Safeway",
        "url":"https:\/\/local.safeway.com\/safeway\/wa\/arlington\/3532-172nd-st-ne.html",
        "address":"3532 172nd St NE",
        "city":"Arlington",
        "state":"WA",
        "zip":"98223",
        "latitude":"48.15136162759264",
        "longitude":"-122.18119473771367"
    },
    {
        "index":184,
        "id":"1522",
        "timezone":"America\/Los_Angeles",
        "name":"Safeway",
        "url":"https:\/\/local.safeway.com\/safeway\/wa\/arlington\/20500-olympic-pl.html",
        "address":"20500 Olympic Pl",
        "city":"Arlington",
        "state":"WA",
        "zip":"98223",
        "latitude":"48.18235649342193",
        "longitude":"-122.12784423439331"
    },
    {
        "index":185,
        "id":"1485",
        "timezone":"America\/Los_Angeles",
        "name":"Safeway",
        "url":"https:\/\/local.safeway.com\/safeway\/wa\/marysville\/1258-state-st.html",
        "address":"1258 State St",
        "city":"Marysville",
        "state":"WA",
        "zip":"98270",
        "latitude":"48.0626036",
        "longitude":"-122.1745764"
    },
    {
        "index":186,
        "id":"1472",
        "timezone":"America\/Los_Angeles",
        "name":"Safeway",
        "url":"https:\/\/local.safeway.com\/safeway\/wa\/mount-vernon\/315-e-college-way.html",
        "address":"315 E College Way",
        "city":"Mount Vernon",
        "state":"WA",
        "zip":"98273",
        "latitude":"48.4375184",
        "longitude":"-122.3371547"
    },
    {
        "index":187,
        "id":"474",
        "timezone":"America\/Los_Angeles",
        "name":"Safeway",
        "url":"https:\/\/local.safeway.com\/safeway\/wa\/everett\/1715-broadway-ave.html",
        "address":"1715 Broadway Ave",
        "city":"Everett",
        "state":"WA",
        "zip":"98201",
        "latitude":"47.994166814037634",
        "longitude":"-122.20021619477848"
    },
    {
        "index":188,
        "id":"1803",
        "timezone":"America\/Los_Angeles",
        "name":"Safeway",
        "url":"https:\/\/local.safeway.com\/safeway\/wa\/lake-stevens\/717-sr-9-ne.html",
        "address":"717 SR 9 NE",
        "city":"Lake Stevens",
        "state":"WA",
        "zip":"98258",
        "latitude":"48.003368",
        "longitude":"-122.103773"
    },
    {
        "index":189,
        "id":"1484",
        "timezone":"America\/Los_Angeles",
        "name":"Safeway",
        "url":"https:\/\/local.safeway.com\/safeway\/wa\/everett\/4128-rucker-ave.html",
        "address":"4128 Rucker Ave",
        "city":"Everett",
        "state":"WA",
        "zip":"98203",
        "latitude":"47.9625499",
        "longitude":"-122.2120566"
    },
    {
        "index":190,
        "id":"593",
        "timezone":"America\/Los_Angeles",
        "name":"Safeway",
        "url":"https:\/\/local.safeway.com\/safeway\/wa\/anacortes\/911-11th-st.html",
        "address":"911 11th St",
        "city":"Anacortes",
        "state":"WA",
        "zip":"98221",
        "latitude":"48.5124138",
        "longitude":"-122.6117759"
    },
    {
        "index":191,
        "id":"1930",
        "timezone":"America\/Los_Angeles",
        "name":"Safeway",
        "url":"https:\/\/local.safeway.com\/safeway\/wa\/lynden\/8071-guide-meridian-rd--101.html",
        "address":"8071 Guide Meridian Rd #101",
        "city":"Lynden",
        "state":"WA",
        "zip":"98264",
        "latitude":"48.93432237785254",
        "longitude":"-122.48770596862147"
    },
    {
        "index":192,
        "id":"3285",
        "timezone":"America\/Los_Angeles",
        "name":"Safeway",
        "url":"https:\/\/local.safeway.com\/safeway\/wa\/bellingham\/1275-e-sunset-dr.html",
        "address":"1275 E Sunset Dr",
        "city":"Bellingham",
        "state":"WA",
        "zip":"98226",
        "latitude":"48.7745817",
        "longitude":"-122.4583883"
    },
    {
        "index":193,
        "id":"423",
        "timezone":"America\/Los_Angeles",
        "name":"Safeway",
        "url":"https:\/\/local.safeway.com\/safeway\/wa\/seattle\/7340-35th-ave-ne.html",
        "address":"7340 35th Ave NE",
        "city":"Seattle",
        "state":"WA",
        "zip":"98115",
        "latitude":"47.6826096",
        "longitude":"-122.2894321"
    },
    {
        "index":194,
        "id":"3540",
        "timezone":"America\/Los_Angeles",
        "name":"Safeway",
        "url":"https:\/\/local.safeway.com\/safeway\/wa\/des-moines\/21401-pacific-hwy-s.html",
        "address":"21401 Pacific Hwy S",
        "city":"Des Moines",
        "state":"WA",
        "zip":"98198",
        "latitude":"47.40998773029228",
        "longitude":"-122.29943930507488"
    },
    {
        "index":195,
        "id":"1493",
        "timezone":"America\/Los_Angeles",
        "name":"Safeway",
        "url":"https:\/\/local.safeway.com\/safeway\/wa\/seattle\/4011-s-164th.html",
        "address":"4011 S 164th",
        "city":"Seattle",
        "state":"WA",
        "zip":"98188",
        "latitude":"47.455652",
        "longitude":"-122.2824069"
    },
    {
        "index":196,
        "id":"459",
        "timezone":"America\/Los_Angeles",
        "name":"Safeway",
        "url":"https:\/\/local.safeway.com\/safeway\/wa\/kent\/20830-108th-ave-se.html",
        "address":"20830 108th Ave SE",
        "city":"Kent",
        "state":"WA",
        "zip":"98031",
        "latitude":"47.4152078",
        "longitude":"-122.1955206"
    },
    {
        "index":197,
        "id":"1563",
        "timezone":"America\/Los_Angeles",
        "name":"Safeway",
        "url":"https:\/\/local.safeway.com\/safeway\/wa\/renton\/200-s-3rd-st.html",
        "address":"200 S 3rd St",
        "city":"Renton",
        "state":"WA",
        "zip":"98057",
        "latitude":"47.4802287",
        "longitude":"-122.2143743"
    },
    {
        "index":198,
        "id":"519",
        "timezone":"America\/Los_Angeles",
        "name":"Safeway",
        "url":"https:\/\/local.safeway.com\/safeway\/wa\/renton\/17230-140th-ave-se.html",
        "address":"17230 140th Ave SE",
        "city":"Renton",
        "state":"WA",
        "zip":"98058",
        "latitude":"47.44742836573113",
        "longitude":"-122.15245218607379"
    },
    {
        "index":199,
        "id":"1965",
        "timezone":"America\/Los_Angeles",
        "name":"Safeway",
        "url":"https:\/\/local.safeway.com\/safeway\/wa\/seattle\/9262-rainier-ave-s.html",
        "address":"9262 Rainier Ave S",
        "city":"Seattle",
        "state":"WA",
        "zip":"98118",
        "latitude":"47.520927347134254",
        "longitude":"-122.268073983992"
    },
    {
        "index":200,
        "id":"366",
        "timezone":"America\/Los_Angeles",
        "name":"Safeway",
        "url":"https:\/\/local.safeway.com\/safeway\/wa\/renton\/2725-ne-sunset-blvd.html",
        "address":"2725 NE Sunset Blvd",
        "city":"Renton",
        "state":"WA",
        "zip":"98056",
        "latitude":"47.4990134",
        "longitude":"-122.1802101"
    },
    {
        "index":201,
        "id":"3319",
        "timezone":"America\/Los_Angeles",
        "name":"Safeway",
        "url":"https:\/\/local.safeway.com\/safeway\/wa\/renton\/4300-ne-4th-st.html",
        "address":"4300 NE 4th St",
        "city":"Renton",
        "state":"WA",
        "zip":"98059",
        "latitude":"47.489908393994",
        "longitude":"-122.16141529206543"
    },
    {
        "index":202,
        "id":"558",
        "timezone":"America\/Los_Angeles",
        "name":"Safeway",
        "url":"https:\/\/local.safeway.com\/safeway\/wa\/newcastle\/6911-coal-creek-pkwy-se.html",
        "address":"6911 Coal Creek Pkwy SE",
        "city":"Newcastle",
        "state":"WA",
        "zip":"98059",
        "latitude":"47.539564371988945",
        "longitude":"-122.16783833995055"
    },
    {
        "index":203,
        "id":"1444",
        "timezone":"America\/Los_Angeles",
        "name":"Safeway",
        "url":"https:\/\/local.safeway.com\/safeway\/wa\/bellevue\/15100-se-38th-st.html",
        "address":"15100 SE 38th St",
        "city":"Bellevue",
        "state":"WA",
        "zip":"98006",
        "latitude":"47.5765527",
        "longitude":"-122.1381125"
    },
    {
        "index":204,
        "id":"1600",
        "timezone":"America\/Los_Angeles",
        "name":"Safeway",
        "url":"https:\/\/local.safeway.com\/safeway\/wa\/bellevue\/300-bellevue-way-ne.html",
        "address":"300 Bellevue Way NE",
        "city":"Bellevue",
        "state":"WA",
        "zip":"98004",
        "latitude":"47.6130438",
        "longitude":"-122.2008265"
    },
    {
        "index":205,
        "id":"490",
        "timezone":"America\/Los_Angeles",
        "name":"Safeway",
        "url":"https:\/\/local.safeway.com\/safeway\/wa\/bellevue\/1645-140th-ave-ne.html",
        "address":"1645 140th Ave NE",
        "city":"Bellevue",
        "state":"WA",
        "zip":"98005",
        "latitude":"47.6258693",
        "longitude":"-122.1548252"
    },
    {
        "index":206,
        "id":"1142",
        "timezone":"America\/Los_Angeles",
        "name":"Safeway",
        "url":"https:\/\/local.safeway.com\/safeway\/wa\/kirkland\/12519-ne-85th-st.html",
        "address":"12519 NE 85th St",
        "city":"Kirkland",
        "state":"WA",
        "zip":"98033",
        "latitude":"47.6788233",
        "longitude":"-122.1734283"
    },
    {
        "index":207,
        "id":"496",
        "timezone":"America\/Los_Angeles",
        "name":"Safeway",
        "url":"https:\/\/local.safeway.com\/safeway\/wa\/redmond\/15000-ne-24th-st.html",
        "address":"15000 NE 24th St",
        "city":"Redmond",
        "state":"WA",
        "zip":"98052",
        "latitude":"47.6325722",
        "longitude":"-122.1402277"
    },
    {
        "index":208,
        "id":"464",
        "timezone":"America\/Los_Angeles",
        "name":"Safeway",
        "url":"https:\/\/local.safeway.com\/safeway\/wa\/redmond\/17246-redmond-way.html",
        "address":"17246 Redmond Way",
        "city":"Redmond",
        "state":"WA",
        "zip":"98052",
        "latitude":"47.671967849046936",
        "longitude":"-122.10969980793458"
    },
    {
        "index":209,
        "id":"555",
        "timezone":"America\/Los_Angeles",
        "name":"Safeway",
        "url":"https:\/\/local.safeway.com\/safeway\/wa\/sammamish\/630-228th-ave-ne.html",
        "address":"630 228th Ave NE",
        "city":"Sammamish",
        "state":"WA",
        "zip":"98074",
        "latitude":"47.6152195",
        "longitude":"-122.0334793"
    },
    {
        "index":210,
        "id":"1624",
        "timezone":"America\/Los_Angeles",
        "name":"Safeway",
        "url":"https:\/\/local.safeway.com\/safeway\/wa\/issaquah\/735-nw-gilman-blvd.html",
        "address":"735 NW Gilman Blvd",
        "city":"Issaquah",
        "state":"WA",
        "zip":"98027",
        "latitude":"47.5415923",
        "longitude":"-122.0478441"
    },
    {
        "index":211,
        "id":"3006",
        "timezone":"America\/Los_Angeles",
        "name":"Safeway",
        "url":"https:\/\/local.safeway.com\/safeway\/wa\/issaquah\/1451-highlands-dr.html",
        "address":"1451 Highlands Dr",
        "city":"Issaquah",
        "state":"WA",
        "zip":"98029",
        "latitude":"47.54134246130687",
        "longitude":"-122.01951564973754"
    },
    {
        "index":212,
        "id":"3613",
        "timezone":"America\/Los_Angeles",
        "name":"Safeway",
        "url":"https:\/\/local.safeway.com\/safeway\/wa\/snoqualmie\/34828-se-douglas-st.html",
        "address":"34828 SE Douglas St",
        "city":"Snoqualmie",
        "state":"WA",
        "zip":"98065",
        "latitude":"47.52759032054692",
        "longitude":"-121.87370896339417"
    },
    {
        "index":213,
        "id":"1528",
        "timezone":"America\/Los_Angeles",
        "name":"Safeway",
        "url":"https:\/\/local.safeway.com\/safeway\/wa\/north-bend\/460-sw-mt-si-blvd.html",
        "address":"460 SW Mt Si Blvd",
        "city":"North Bend",
        "state":"WA",
        "zip":"98045",
        "latitude":"47.4872754",
        "longitude":"-121.7913939"
    },
    {
        "index":214,
        "id":"1827",
        "timezone":"America\/Los_Angeles",
        "name":"Safeway",
        "url":"https:\/\/local.safeway.com\/safeway\/or\/la-grande\/2111-adams-ave.html",
        "address":"2111 Adams Ave",
        "city":"La Grande",
        "state":"OR",
        "zip":"97850",
        "latitude":"45.32134278116949",
        "longitude":"-118.08084451156998"
    },
    {
        "index":215,
        "id":"4381",
        "timezone":"America\/Los_Angeles",
        "name":"Safeway",
        "url":"https:\/\/local.safeway.com\/safeway\/or\/baker-city\/1205-campbell-st.html",
        "address":"1205 Campbell St",
        "city":"Baker City",
        "state":"OR",
        "zip":"97814",
        "latitude":"44.780883",
        "longitude":"-117.8189918"
    },
    {
        "index":216,
        "id":"1642",
        "timezone":"America\/Los_Angeles",
        "name":"Safeway",
        "url":"https:\/\/local.safeway.com\/safeway\/or\/pendleton\/201-sw-20th-st.html",
        "address":"201 SW 20th St",
        "city":"Pendleton",
        "state":"OR",
        "zip":"97801",
        "latitude":"45.66594910696854",
        "longitude":"-118.80796479895389"
    },
    {
        "index":217,
        "id":"1665",
        "timezone":"America\/Los_Angeles",
        "name":"Safeway",
        "url":"https:\/\/local.safeway.com\/safeway\/or\/redmond\/1705-s-hwy-97.html",
        "address":"1705 S Hwy 97",
        "city":"Redmond",
        "state":"OR",
        "zip":"97756",
        "latitude":"44.2607574",
        "longitude":"-121.1796264"
    },
    {
        "index":218,
        "id":"1960",
        "timezone":"America\/Los_Angeles",
        "name":"Safeway",
        "url":"https:\/\/local.safeway.com\/safeway\/or\/madras\/80-ne-cedar-st.html",
        "address":"80 NE Cedar St",
        "city":"Madras",
        "state":"OR",
        "zip":"97741",
        "latitude":"44.643775",
        "longitude":"-121.1279016"
    },
    {
        "index":219,
        "id":"1504",
        "timezone":"America\/Los_Angeles",
        "name":"Safeway",
        "url":"https:\/\/local.safeway.com\/safeway\/or\/bend\/2650-ne-hwy-20.html",
        "address":"2650 NE Hwy 20",
        "city":"Bend",
        "state":"OR",
        "zip":"97701",
        "latitude":"44.0577934",
        "longitude":"-121.2646382"
    },
    {
        "index":220,
        "id":"514",
        "timezone":"America\/Los_Angeles",
        "name":"Safeway",
        "url":"https:\/\/local.safeway.com\/safeway\/or\/bend\/642-ne-3rd.html",
        "address":"642 NE 3rd",
        "city":"Bend",
        "state":"OR",
        "zip":"97701",
        "latitude":"44.0565812",
        "longitude":"-121.3014092"
    },
    {
        "index":221,
        "id":"1888",
        "timezone":"America\/Los_Angeles",
        "name":"Safeway",
        "url":"https:\/\/local.safeway.com\/safeway\/or\/bend\/320-w-century-blvd.html",
        "address":"320 W Century Blvd",
        "city":"Bend",
        "state":"OR",
        "zip":"97702",
        "latitude":"44.0471572",
        "longitude":"-121.3296966"
    },
    {
        "index":222,
        "id":"3553",
        "timezone":"America\/Los_Angeles",
        "name":"Safeway",
        "url":"https:\/\/local.safeway.com\/safeway\/or\/bend\/61155-s-hwy-97.html",
        "address":"61155 S Hwy 97",
        "city":"Bend",
        "state":"OR",
        "zip":"97702",
        "latitude":"44.021039",
        "longitude":"-121.3179977"
    },
    {
        "index":223,
        "id":"3212",
        "timezone":"America\/Los_Angeles",
        "name":"Safeway",
        "url":"https:\/\/local.safeway.com\/safeway\/or\/ashland\/585-siskiyou-blvd.html",
        "address":"585 Siskiyou Blvd",
        "city":"Ashland",
        "state":"OR",
        "zip":"97520",
        "latitude":"42.1934195",
        "longitude":"-122.7062893"
    },
    {
        "index":224,
        "id":"525",
        "timezone":"America\/Los_Angeles",
        "name":"Safeway",
        "url":"https:\/\/local.safeway.com\/safeway\/or\/medford\/1003-medford-ctr.html",
        "address":"1003 Medford Ctr",
        "city":"Medford",
        "state":"OR",
        "zip":"97504",
        "latitude":"42.33340795854104",
        "longitude":"-122.86374048151629"
    },
    {
        "index":225,
        "id":"1643",
        "timezone":"America\/Los_Angeles",
        "name":"Safeway",
        "url":"https:\/\/local.safeway.com\/safeway\/or\/medford\/3169-crater-lake-hwy.html",
        "address":"3169 Crater Lake Hwy",
        "city":"Medford",
        "state":"OR",
        "zip":"97504",
        "latitude":"42.3626251",
        "longitude":"-122.8586044"
    },
    {
        "index":226,
        "id":"290",
        "timezone":"America\/Los_Angeles",
        "name":"Safeway",
        "url":"https:\/\/local.safeway.com\/safeway\/or\/grants-pass\/115-e-7th-st.html",
        "address":"115 E 7th St",
        "city":"Grants Pass",
        "state":"OR",
        "zip":"97526",
        "latitude":"42.438655",
        "longitude":"-123.324786"
    },
    {
        "index":227,
        "id":"379",
        "timezone":"America\/Los_Angeles",
        "name":"Safeway",
        "url":"https:\/\/local.safeway.com\/safeway\/or\/grants-pass\/1640-williams-hwy.html",
        "address":"1640 Williams Hwy",
        "city":"Grants Pass",
        "state":"OR",
        "zip":"97527",
        "latitude":"42.42106073149295",
        "longitude":"-123.33630681037903"
    },
    {
        "index":228,
        "id":"1666",
        "timezone":"America\/Los_Angeles",
        "name":"Safeway",
        "url":"https:\/\/local.safeway.com\/safeway\/or\/roseburg\/1539-ne-stephens-st.html",
        "address":"1539 NE Stephens St",
        "city":"Roseburg",
        "state":"OR",
        "zip":"97470",
        "latitude":"43.2292752",
        "longitude":"-123.3495781"
    },
    {
        "index":229,
        "id":"4513",
        "timezone":"America\/Los_Angeles",
        "name":"Safeway",
        "url":"https:\/\/local.safeway.com\/safeway\/or\/eugene\/350-e-40th-ave.html",
        "address":"350 E 40th Ave",
        "city":"Eugene",
        "state":"OR",
        "zip":"97405",
        "latitude":"44.0109087",
        "longitude":"-123.0886439"
    },
    {
        "index":230,
        "id":"4288",
        "timezone":"America\/Los_Angeles",
        "name":"Safeway",
        "url":"https:\/\/local.safeway.com\/safeway\/or\/eugene\/145-e-18th-ave.html",
        "address":"145 E 18th Ave",
        "city":"Eugene",
        "state":"OR",
        "zip":"97401",
        "latitude":"44.0405404",
        "longitude":"-123.0906309"
    },
    {
        "index":231,
        "id":"420",
        "timezone":"America\/Los_Angeles",
        "name":"Safeway",
        "url":"https:\/\/local.safeway.com\/safeway\/or\/eugene\/1500-coburg-rd.html",
        "address":"1500 Coburg Rd",
        "city":"Eugene",
        "state":"OR",
        "zip":"97401",
        "latitude":"44.0782518",
        "longitude":"-123.069937"
    },
    {
        "index":232,
        "id":"1458",
        "timezone":"America\/Los_Angeles",
        "name":"Safeway",
        "url":"https:\/\/local.safeway.com\/safeway\/or\/cottage-grove\/1500-e-main-st.html",
        "address":"1500 E Main St",
        "city":"Cottage Grove",
        "state":"OR",
        "zip":"97424",
        "latitude":"43.798268",
        "longitude":"-123.0518825"
    },
    {
        "index":233,
        "id":"1094",
        "timezone":"America\/Los_Angeles",
        "name":"Safeway",
        "url":"https:\/\/local.safeway.com\/safeway\/or\/springfield\/1891-pioneer-pkwy-e.html",
        "address":"1891 Pioneer Pkwy E",
        "city":"Springfield",
        "state":"OR",
        "zip":"97477",
        "latitude":"44.06349634794682",
        "longitude":"-123.02377595833588"
    },
    {
        "index":234,
        "id":"386",
        "timezone":"America\/Los_Angeles",
        "name":"Safeway",
        "url":"https:\/\/local.safeway.com\/safeway\/or\/junction-city\/1755-ivy-st.html",
        "address":"1755 Ivy St",
        "city":"Junction City",
        "state":"OR",
        "zip":"97448",
        "latitude":"44.2294085",
        "longitude":"-123.2063766"
    },
    {
        "index":235,
        "id":"1557",
        "timezone":"America\/Los_Angeles",
        "name":"Safeway",
        "url":"https:\/\/local.safeway.com\/safeway\/or\/north-bend\/1735-virginia-ave.html",
        "address":"1735 Virginia Ave",
        "city":"North Bend",
        "state":"OR",
        "zip":"97459",
        "latitude":"43.4054199",
        "longitude":"-124.2356592"
    },
    {
        "index":236,
        "id":"1556",
        "timezone":"America\/Los_Angeles",
        "name":"Safeway",
        "url":"https:\/\/local.safeway.com\/safeway\/or\/coos-bay\/230-e-johnson-ave.html",
        "address":"230 E Johnson Ave",
        "city":"Coos Bay",
        "state":"OR",
        "zip":"97420",
        "latitude":"43.358686",
        "longitude":"-124.2108733"
    },
    {
        "index":237,
        "id":"284",
        "timezone":"America\/Los_Angeles",
        "name":"Safeway",
        "url":"https:\/\/local.safeway.com\/safeway\/or\/reedsport\/1499-hwy-101.html",
        "address":"1499 Hwy 101",
        "city":"Reedsport",
        "state":"OR",
        "zip":"97467",
        "latitude":"43.699151",
        "longitude":"-124.1120359"
    },
    {
        "index":238,
        "id":"363",
        "timezone":"America\/Los_Angeles",
        "name":"Safeway",
        "url":"https:\/\/local.safeway.com\/safeway\/or\/florence\/700-hwy-101.html",
        "address":"700 Hwy 101",
        "city":"Florence",
        "state":"OR",
        "zip":"97439",
        "latitude":"43.97297656053095",
        "longitude":"-124.10299693425446"
    },
    {
        "index":239,
        "id":"4262",
        "timezone":"America\/Los_Angeles",
        "name":"Safeway",
        "url":"https:\/\/local.safeway.com\/safeway\/or\/coquille\/155-e-1st-st.html",
        "address":"155 E 1st St",
        "city":"Coquille",
        "state":"OR",
        "zip":"97423",
        "latitude":"43.17439199010379",
        "longitude":"-124.18732748196817"
    },
    {
        "index":240,
        "id":"1710",
        "timezone":"America\/Los_Angeles",
        "name":"Safeway",
        "url":"https:\/\/local.safeway.com\/safeway\/or\/sweet-home\/1540-main-st.html",
        "address":"1540 Main St",
        "city":"Sweet Home",
        "state":"OR",
        "zip":"97386",
        "latitude":"44.3994707",
        "longitude":"-122.725782"
    },
    {
        "index":241,
        "id":"1558",
        "timezone":"America\/Los_Angeles",
        "name":"Safeway",
        "url":"https:\/\/local.safeway.com\/safeway\/or\/lebanon\/1983-s-main-st.html",
        "address":"1983 S Main St",
        "city":"Lebanon",
        "state":"OR",
        "zip":"97355",
        "latitude":"44.5274232",
        "longitude":"-122.9054558"
    },
    {
        "index":242,
        "id":"1527",
        "timezone":"America\/Los_Angeles",
        "name":"Safeway",
        "url":"https:\/\/local.safeway.com\/safeway\/or\/stayton\/1535-n-first-st.html",
        "address":"1535 N First St",
        "city":"Stayton",
        "state":"OR",
        "zip":"97383",
        "latitude":"44.80573497211727",
        "longitude":"-122.79600802128698"
    },
    {
        "index":243,
        "id":"1580",
        "timezone":"America\/Los_Angeles",
        "name":"Safeway",
        "url":"https:\/\/local.safeway.com\/safeway\/or\/silverton\/301-westfield-st.html",
        "address":"301 Westfield St",
        "city":"Silverton",
        "state":"OR",
        "zip":"97381",
        "latitude":"45.00324558727095",
        "longitude":"-122.79393465849353"
    },
    {
        "index":244,
        "id":"1935",
        "timezone":"America\/Los_Angeles",
        "name":"Safeway",
        "url":"https:\/\/local.safeway.com\/safeway\/or\/salem\/5660-commercial-st-se.html",
        "address":"5660 Commercial St SE",
        "city":"Salem",
        "state":"OR",
        "zip":"97306",
        "latitude":"44.8728552",
        "longitude":"-123.0221568"
    },
    {
        "index":245,
        "id":"429",
        "timezone":"America\/Los_Angeles",
        "name":"Safeway",
        "url":"https:\/\/local.safeway.com\/safeway\/or\/salem\/3380-lancaster-dr-ne.html",
        "address":"3380 Lancaster Dr NE",
        "city":"Salem",
        "state":"OR",
        "zip":"97305",
        "latitude":"44.9687592",
        "longitude":"-122.9819208"
    },
    {
        "index":246,
        "id":"1629",
        "timezone":"America\/Los_Angeles",
        "name":"Safeway",
        "url":"https:\/\/local.safeway.com\/safeway\/or\/salem\/1265-center-st.html",
        "address":"1265 Center St",
        "city":"Salem",
        "state":"OR",
        "zip":"97301",
        "latitude":"44.9408371",
        "longitude":"-123.0242462"
    },
    {
        "index":247,
        "id":"1751",
        "timezone":"America\/Los_Angeles",
        "name":"Safeway",
        "url":"https:\/\/local.safeway.com\/safeway\/or\/molalla\/1525-w-main-st.html",
        "address":"1525 W Main St",
        "city":"Molalla",
        "state":"OR",
        "zip":"97038",
        "latitude":"45.1516281",
        "longitude":"-122.6035692"
    },
    {
        "index":248,
        "id":"1976",
        "timezone":"America\/Los_Angeles",
        "name":"Safeway",
        "url":"https:\/\/local.safeway.com\/safeway\/or\/woodburn\/1550-n-pacific-hwy.html",
        "address":"1550 N Pacific Hwy",
        "city":"Woodburn",
        "state":"OR",
        "zip":"97071",
        "latitude":"45.150145848541406",
        "longitude":"-122.82970924577967"
    },