[{"LocationID":6164,"LocationTypeCode":3,"ElectionID":4085,"Name":"122nd Street Elementary School","Address":"405 E 122nd St","City":"Los Angeles","State":"CA","ZipCode":"90061","Hours":"February 29 - March 2: 8AM - 5PM\u003cbr\u003eMarch 3: 7AM - 8PM","ParkingArea":null,"IsActive":null,"IsCancelled":null,"AdditionalInformation":"Auditorium","VotingPeriod":4,"Latitude":33.921903355,"Longitude":-118.268537527},{"LocationID":6075,"LocationTypeCode":3,"ElectionID":4085,"Name":"153rd Street Elementary School","Address":"1605 W 153rd St","City":"Gardena","State":"CA","ZipCode":"90247","Hours":"February 29 - March 2: 8AM - 5PM\u003cbr\u003eMarch 3: 7AM - 8PM","ParkingArea":null,"IsActive":null,"IsCancelled":null,"AdditionalInformation":"Auditorium","VotingPeriod":4,"Latitude":33.893542837,"Longitude":-118.305883517},{"LocationID":6143,"LocationTypeCode":3,"ElectionID":4085,"Name":"186th Street Elementary School","Address":"1581 W 186th St","City":"Gardena","State":"CA","ZipCode":"90248","Hours":"February 29 - March 2: 8AM - 5PM\u003cbr\u003eMarch 3: 7AM - 8PM","ParkingArea":null,"IsActive":null,"IsCancelled":null,"AdditionalInformation":"Auditorium","VotingPeriod":4,"Latitude":33.862096575,"Longitude":-118.305363022},{"LocationID":6472,"LocationTypeCode":3,"ElectionID":4085,"Name":"232nd Place Elementary School","Address":"23240 Archibald Ave","City":"Carson","State":"CA","ZipCode":"90745","Hours":"February 29 - March 2: 8AM - 5PM\u003cbr\u003eMarch 3: 7AM - 8PM","ParkingArea":null,"IsActive":null,"IsCancelled":null,"AdditionalInformation":"Auditorium","VotingPeriod":4,"Latitude":33.814529066,"Longitude":-118.282466377},{"LocationID":6622,"LocationTypeCode":3,"ElectionID":4085,"Name":"31st District PTSA Office","Address":"17445 Cantlay St","City":"Van Nuys","State":"CA","ZipCode":"91406","Hours":"February 29 - March 2: 8AM - 5PM\u003cbr\u003eMarch 3: 7AM - 8PM","ParkingArea":null,"IsActive":null,"IsCancelled":null,"AdditionalInformation":"Lamson Auditorium","VotingPeriod":4,"Latitude":34.202226967,"Longitude":-118.513416056},{"LocationID":6515,"LocationTypeCode":3,"ElectionID":4085,"Name":"42nd Street Elementary","Address":"4231 4th Ave","City":"Los Angeles","State":"CA","ZipCode":"90008","Hours":"February 29 - March 2: 8AM - 5PM\u003cbr\u003eMarch 3: 7AM - 8PM","ParkingArea":null,"IsActive":null,"IsCancelled":null,"AdditionalInformation":"Auditorium","VotingPeriod":4,"Latitude":34.006613666,"Longitude":-118.321413429},{"LocationID":6165,"LocationTypeCode":3,"ElectionID":4085,"Name":"54th Street Elementary School","Address":"5501 S Eileen Ave","City":"Los Angeles","State":"CA","ZipCode":"90043","Hours":"February 29 - March 2: 8AM - 5PM\u003cbr\u003eMarch 3: 7AM - 8PM","ParkingArea":null,"IsActive":null,"IsCancelled":null,"AdditionalInformation":"Auditorium","VotingPeriod":4,"Latitude":33.992698984,"Longitude":-118.343470429},{"LocationID":6319,"LocationTypeCode":3,"ElectionID":4085,"Name":"A C Bilbrew Library","Address":"150 E El Segundo Blvd","City":"Los Angeles","State":"CA","ZipCode":"90061","Hours":"February 29 - March 2: 8AM - 5PM\u003cbr\u003eMarch 3: 7AM - 8PM","ParkingArea":null,"IsActive":null,"IsCancelled":null,"AdditionalInformation":"Meeting Room","VotingPeriod":4,"Latitude":33.916385434,"Longitude":-118.272292670},{"LocationID":6122,"LocationTypeCode":3,"ElectionID":4085,"Name":"A C Stelle Middle School","Address":"22450 Mulholland Hwy","City":"Calabasas","State":"CA","ZipCode":"91302","Hours":"February 29 - March 2: 8AM - 5PM\u003cbr\u003eMarch 3: 7AM - 8PM","ParkingArea":null,"IsActive":null,"IsCancelled":null,"AdditionalInformation":"Multi-Purpose Room","VotingPeriod":4,"Latitude":34.142805539,"Longitude":-118.615216172},{"LocationID":6136,"LocationTypeCode":3,"ElectionID":4085,"Name":"Acton Agua Dulce Library","Address":"33792 Crown Valley Rd","City":"Acton","State":"CA","ZipCode":"93510","Hours":"February 29 - March 2: 8AM - 5PM\u003cbr\u003eMarch 3: 7AM - 8PM","ParkingArea":null,"IsActive":null,"IsCancelled":null,"AdditionalInformation":"Meeting Room","VotingPeriod":4,"Latitude":34.493269852,"Longitude":-118.198252629},{"LocationID":6862,"LocationTypeCode":3,"ElectionID":4085,"Name":"Affinity Real Estate/Mortgage","Address":"10070 Rosecrans Ave","City":"Bellflower","State":"CA","ZipCode":"90706","Hours":"February 22 - March 2: 8AM - 5PM\u003cbr\u003eMarch 3: 7AM - 8PM","ParkingArea":null,"IsActive":null,"IsCancelled":null,"AdditionalInformation":"Classroom B","VotingPeriod":11,"Latitude":33.901949305,"Longitude":-118.118667538},{"LocationID":6648,"LocationTypeCode":3,"ElectionID":4085,"Name":"Agoura Hills/Calabasas Community Center","Address":"27040 Malibu Hills Rd","City":"Calabasas","State":"CA","ZipCode":"91301","Hours":"February 22 - March 2: 8AM - 5PM\u003cbr\u003eMarch 3: 7AM - 8PM","ParkingArea":null,"IsActive":null,"IsCancelled":null,"AdditionalInformation":"Activity Room","VotingPeriod":11,"Latitude":34.136889408,"Longitude":-118.713225018},{"LocationID":6839,"LocationTypeCode":3,"ElectionID":4085,"Name":"Al-Umma Cntr of Santa Clarita Valley","Address":"18027 Sierra Hwy","City":"Santa Clarita","State":"CA","ZipCode":"91351","Hours":"February 29 - March 2: 8AM - 5PM\u003cbr\u003eMarch 3: 7AM - 8PM","ParkingArea":null,"IsActive":null,"IsCancelled":null,"AdditionalInformation":"Steel Structure South","VotingPeriod":4,"Latitude":34.422891986,"Longitude":-118.451670986},{"LocationID":6296,"LocationTypeCode":3,"ElectionID":4085,"Name":"Alexandria Elementary School","Address":"4211 Oakwood Ave","City":"Los Angeles","State":"CA","ZipCode":"90004","Hours":"February 29 - March 2: 8AM - 5PM\u003cbr\u003eMarch 3: 7AM - 8PM","ParkingArea":null,"IsActive":null,"IsCancelled":null,"AdditionalInformation":"Auditorium","VotingPeriod":4,"Latitude":34.077783810,"Longitude":-118.298561358},{"LocationID":6187,"LocationTypeCode":3,"ElectionID":4085,"Name":"Alfred B Nobel Charter Middle School","Address":"9950 Tampa Ave","City":"Northridge","State":"CA","ZipCode":"91324","Hours":"February 29 - March 2: 8AM - 5PM\u003cbr\u003eMarch 3: 7AM - 8PM","ParkingArea":null,"IsActive":null,"IsCancelled":null,"AdditionalInformation":"Multi-Purpose Room","VotingPeriod":4,"Latitude":34.250721659,"Longitude":-118.553372325},{"LocationID":6762,"LocationTypeCode":3,"ElectionID":4085,"Name":"Algin Sutton Recreation Center","Address":"8800 S Hoover Ave","City":"Los Angeles","State":"CA","ZipCode":"90044","Hours":"February 22 - March 2: 8AM - 5PM\u003cbr\u003eMarch 3: 7AM - 8PM","ParkingArea":null,"IsActive":null,"IsCancelled":null,"AdditionalInformation":"Classroom","VotingPeriod":11,"Latitude":33.957327348,"Longitude":-118.286835302},{"LocationID":6450,"LocationTypeCode":3,"ElectionID":4085,"Name":"Alhambra Civic Center Library","Address":"101 S 1st St","City":"Alhambra","State":"CA","ZipCode":"91801","Hours":"February 29 - March 2: 8AM - 5PM\u003cbr\u003eMarch 3: 7AM - 8PM","ParkingArea":null,"IsActive":null,"IsCancelled":null,"AdditionalInformation":"Reese Hall","VotingPeriod":4,"Latitude":34.093653063,"Longitude":-118.127325659},{"LocationID":6432,"LocationTypeCode":3,"ElectionID":4085,"Name":"All Saints Episcopal Church","Address":"5619 Monte Vista St","City":"Los Angeles","State":"CA","ZipCode":"90042","Hours":"February 29 - March 2: 8AM - 5PM\u003cbr\u003eMarch 3: 7AM - 8PM","ParkingArea":null,"IsActive":null,"IsCancelled":null,"AdditionalInformation":"Parish Hall","VotingPeriod":4,"Latitude":34.111475510,"Longitude":-118.195475866},{"LocationID":6271,"LocationTypeCode":3,"ElectionID":4085,"Name":"Allen J Martin Park","Address":"14830 Giordano St","City":"La Puente","State":"CA","ZipCode":"91744","Hours":"February 29 - March 2: 8AM - 5PM\u003cbr\u003eMarch 3: 7AM - 8PM","ParkingArea":null,"IsActive":null,"IsCancelled":null,"AdditionalInformation":"Community Room","VotingPeriod":4,"Latitude":34.040191216,"Longitude":-117.961807130},{"LocationID":6381,"LocationTypeCode":3,"ElectionID":4085,"Name":"Allesandro School","Address":"2210 Riverside Dr","City":"Los Angeles","State":"CA","ZipCode":"90039","Hours":"February 29 - March 2: 8AM - 5PM\u003cbr\u003eMarch 3: 7AM - 8PM","ParkingArea":null,"IsActive":null,"IsCancelled":null,"AdditionalInformation":"Auditorium","VotingPeriod":4,"Latitude":34.101917619,"Longitude":-118.251501643},{"LocationID":6884,"LocationTypeCode":3,"ElectionID":4085,"Name":"Alma Family Services","Address":"3218 Wabash Ave","City":"Los Angeles","State":"CA","ZipCode":"90063","Hours":"February 22 - March 2: 8AM - 5PM\u003cbr\u003eMarch 3: 7AM - 8PM","ParkingArea":null,"IsActive":null,"IsCancelled":null,"AdditionalInformation":"Classroom A","VotingPeriod":11,"Latitude":34.047999494,"Longitude":-118.192200784},{"LocationID":6885,"LocationTypeCode":3,"ElectionID":4085,"Name":"Alma Family Services","Address":"9101 Whittier Blvd","City":"Pico Rivera","State":"CA","ZipCode":"90660","Hours":"February 22 - March 2: 8AM - 5PM\u003cbr\u003eMarch 3: 7AM - 8PM","ParkingArea":null,"IsActive":null,"IsCancelled":null,"AdditionalInformation":"Large Conference Room","VotingPeriod":11,"Latitude":34.000920000,"Longitude":-118.082133000},{"LocationID":6681,"LocationTypeCode":3,"ElectionID":4085,"Name":"Alondra Community Regional Park","Address":"3850 W Manhattan Beach Blvd","City":"Lawndale","State":"CA","ZipCode":"90260","Hours":"February 22 - March 2: 8AM - 5PM\u003cbr\u003eMarch 3: 7AM - 8PM","ParkingArea":null,"IsActive":null,"IsCancelled":null,"AdditionalInformation":"Gymnasium","VotingPeriod":11,"Latitude":33.887307129,"Longitude":-118.340353371},{"LocationID":6550,"LocationTypeCode":3,"ElectionID":4085,"Name":"Alpine Recreation Center","Address":"817 Yale St","City":"Los Angeles","State":"CA","ZipCode":"90012","Hours":"February 29 - March 2: 8AM - 5PM\u003cbr\u003eMarch 3: 7AM - 8PM","ParkingArea":null,"IsActive":null,"IsCancelled":null,"AdditionalInformation":"Lobby","VotingPeriod":4,"Latitude":34.063908699,"Longitude":-118.240888404},{"LocationID":6270,"LocationTypeCode":3,"ElectionID":4085,"Name":"Alta Loma Elementary School","Address":"1745 Vineyard Ave","City":"Los Angeles","State":"CA","ZipCode":"90019","Hours":"February 29 - March 2: 8AM - 5PM\u003cbr\u003eMarch 3: 7AM - 8PM","ParkingArea":null,"IsActive":null,"IsCancelled":null,"AdditionalInformation":"Library","VotingPeriod":4,"Latitude":34.042785673,"Longitude":-118.338824043},{"LocationID":6688,"LocationTypeCode":3,"ElectionID":4085,"Name":"Alta Vista Racquet Courts","Address":"715 Julia Ave","City":"Redondo Beach","State":"CA","ZipCode":"90277","Hours":"February 29 - March 2: 8AM - 5PM\u003cbr\u003eMarch 3: 7AM - 8PM","ParkingArea":null,"IsActive":null,"IsCancelled":null,"AdditionalInformation":"Racquetball Court 1","VotingPeriod":4,"Latitude":33.829430017,"Longitude":-118.379229069},{"LocationID":6023,"LocationTypeCode":3,"ElectionID":4085,"Name":"Altadena Community Center","Address":"730 E Altadena Dr","City":"Altadena","State":"CA","ZipCode":"91001","Hours":"February 29 - March 2: 8AM - 5PM\u003cbr\u003eMarch 3: 7AM - 8PM","ParkingArea":null,"IsActive":null,"IsCancelled":null,"AdditionalInformation":"Hall / Conference Room","VotingPeriod":4,"Latitude":34.189858936,"Longitude":-118.133275629},{"LocationID":6699,"LocationTypeCode":3,"ElectionID":4085,"Name":"American Islamic Institute of Antelope Valley","Address":"1125-B E Palmdale Blvd","City":"Palmdale","State":"CA","ZipCode":"93550","Hours":"February 22 - March 2: 8AM - 5PM\u003cbr\u003eMarch 3: 7AM - 8PM","ParkingArea":null,"IsActive":null,"IsCancelled":null,"AdditionalInformation":"School Multi-Purpose Room","VotingPeriod":11,"Latitude":34.579711642,"Longitude":-118.108708230},{"LocationID":6284,"LocationTypeCode":3,"ElectionID":4085,"Name":"American Legion Post 176","Address":"602 Pico St","City":"San Fernando","State":"CA","ZipCode":"91340","Hours":"February 29 - March 2: 8AM - 5PM\u003cbr\u003eMarch 3: 7AM - 8PM","ParkingArea":null,"IsActive":null,"IsCancelled":null,"AdditionalInformation":"Meeting Hall","VotingPeriod":4,"Latitude":34.277476537,"Longitude":-118.438582095},{"LocationID":6468,"LocationTypeCode":3,"ElectionID":4085,"Name":"American Legion Post 241","Address":"4725 Maine Ave","City":"Baldwin Park","State":"CA","ZipCode":"91706","Hours":"February 22 - March 2: 8AM - 5PM\u003cbr\u003eMarch 3: 7AM - 8PM","ParkingArea":null,"IsActive":null,"IsCancelled":null,"AdditionalInformation":"The Hall","VotingPeriod":11,"Latitude":34.098495059,"Longitude":-117.960887413},{"LocationID":6331,"LocationTypeCode":3,"ElectionID":4085,"Name":"American Legion Post 314","Address":"14124 S Prairie Ave","City":"Hawthorne","State":"CA","ZipCode":"90250","Hours":"February 29 - March 2: 8AM - 5PM\u003cbr\u003eMarch 3: 7AM - 8PM","ParkingArea":null,"IsActive":null,"IsCancelled":null,"AdditionalInformation":"Meeting Room","VotingPeriod":4,"Latitude":33.903655132,"Longitude":-118.343269877},{"LocationID":6161,"LocationTypeCode":3,"ElectionID":4085,"Name":"American Legion Post 359","Address":"11986 Front St","City":"Norwalk","State":"CA","ZipCode":"90650","Hours":"February 29 - March 2: 8AM - 5PM\u003cbr\u003eMarch 3: 7AM - 8PM","ParkingArea":null,"IsActive":null,"IsCancelled":null,"AdditionalInformation":"Meeting Room","VotingPeriod":4,"Latitude":33.909321418,"Longitude":-118.078017515},{"LocationID":6350,"LocationTypeCode":3,"ElectionID":4085,"Name":"Angelica Lutheran Church","Address":"1345 S Burlington Ave","City":"East Los Angeles","State":"CA","ZipCode":"90006","Hours":"February 29 - March 2: 8AM - 5PM\u003cbr\u003eMarch 3: 7AM - 8PM","ParkingArea":null,"IsActive":null,"IsCancelled":null,"AdditionalInformation":"Auditorium","VotingPeriod":4,"Latitude":34.044166280,"Longitude":-118.279922869},{"LocationID":6510,"LocationTypeCode":3,"ElectionID":4085,"Name":"Angelo M Iacoboni Library","Address":"4990 Clark Ave","City":"Lakewood","State":"CA","ZipCode":"90712","Hours":"February 22 - March 2: 8AM - 5PM\u003cbr\u003eMarch 3: 7AM - 8PM","ParkingArea":null,"IsActive":null,"IsCancelled":null,"AdditionalInformation":"Meeting Room","VotingPeriod":11,"Latitude":33.850048558,"Longitude":-118.133751053},{"LocationID":6241,"LocationTypeCode":3,"ElectionID":4085,"Name":"Annalee Avenue Elementary School","Address":"19410 Annalee Ave","City":"Carson","State":"CA","ZipCode":"90746","Hours":"February 29 - March 2: 8AM - 5PM\u003cbr\u003eMarch 3: 7AM - 8PM","ParkingArea":null,"IsActive":null,"IsCancelled":null,"AdditionalInformation":"Auditorium","VotingPeriod":4,"Latitude":33.854605385,"Longitude":-118.252694563},{"LocationID":6180,"LocationTypeCode":3,"ElectionID":4085,"Name":"Antelope Valley Church","Address":"3830 W Ave L8","City":"Lancaster","State":"CA","ZipCode":"93536","Hours":"February 29 - March 2: 8AM - 5PM\u003cbr\u003eMarch 3: 7AM - 8PM","ParkingArea":null,"IsActive":null,"IsCancelled":null,"AdditionalInformation":"AV Reach","VotingPeriod":4,"Latitude":34.651928593,"Longitude":-118.199570147},{"LocationID":6064,"LocationTypeCode":3,"ElectionID":4085,"Name":"Antelope Valley Family YMCA (Stanley Kleiner Activity Center)","Address":"43001 10th St W","City":"Lancaster","State":"CA","ZipCode":"93534","Hours":"February 29 - March 2: 8AM - 5PM\u003cbr\u003eMarch 3: 7AM - 8PM","ParkingArea":null,"IsActive":null,"IsCancelled":null,"AdditionalInformation":"Legacy Room","VotingPeriod":4,"Latitude":34.663497966,"Longitude":-118.147982057},{"LocationID":6352,"LocationTypeCode":3,"ElectionID":4085,"Name":"Anza Elementary School","Address":"21400 Ellinwood Dr","City":"Torrance","State":"CA","ZipCode":"90503","Hours":"February 29 - March 2: 8AM - 5PM\u003cbr\u003eMarch 3: 7AM - 8PM","ParkingArea":null,"IsActive":null,"IsCancelled":null,"AdditionalInformation":"Multi-Purpose Room","VotingPeriod":4,"Latitude":33.834523748,"Longitude":-118.365493829},{"LocationID":6321,"LocationTypeCode":3,"ElectionID":4085,"Name":"Applied Technology Center High School","Address":"1200 W Mines Ave","City":"Montebello","State":"CA","ZipCode":"90640","Hours":"February 29 - March 2: 8AM - 5PM\u003cbr\u003eMarch 3: 7AM - 8PM","ParkingArea":null,"IsActive":null,"IsCancelled":null,"AdditionalInformation":"Multi-Purpose Room","VotingPeriod":4,"Latitude":34.004244177,"Longitude":-118.116458906},{"LocationID":6329,"LocationTypeCode":3,"ElectionID":4085,"Name":"Arcadia Public Library","Address":"20 W Duarte Rd","City":"Arcadia","State":"CA","ZipCode":"91006","Hours":"February 29 - March 2: 8AM - 5PM\u003cbr\u003eMarch 3: 7AM - 8PM","ParkingArea":null,"IsActive":null,"IsCancelled":null,"AdditionalInformation":"Auditorium","VotingPeriod":4,"Latitude":34.128539954,"Longitude":-118.031678115},{"LocationID":5993,"LocationTypeCode":3,"ElectionID":4085,"Name":"Arlington Elementary School","Address":"17800 Van Ness Ave","City":"Torrance","State":"CA","ZipCode":"90504","Hours":"February 29 - March 2: 8AM - 5PM\u003cbr\u003eMarch 3: 7AM - 8PM","ParkingArea":null,"IsActive":null,"IsCancelled":null,"AdditionalInformation":"Multi-Purpose Room","VotingPeriod":4,"Latitude":33.868985576,"Longitude":-118.317475300},{"LocationID":6596,"LocationTypeCode":3,"ElectionID":4085,"Name":"Arlington Heights Elementary","Address":"1717 7th Ave","City":"Los Angeles","State":"CA","ZipCode":"90019","Hours":"February 29 - March 2: 8AM - 5PM\u003cbr\u003eMarch 3: 7AM - 8PM","ParkingArea":null,"IsActive":null,"IsCancelled":null,"AdditionalInformation":"Auditorium","VotingPeriod":4,"Latitude":34.041792991,"Longitude":-118.324915816},{"LocationID":6722,"LocationTypeCode":3,"ElectionID":4085,"Name":"Armenian Cilicia Evangelical Church","Address":"339 S Santa Anita Ave","City":"Pasadena","State":"CA","ZipCode":"91107","Hours":"February 29 - March 2: 8AM - 5PM\u003cbr\u003eMarch 3: 7AM - 8PM","ParkingArea":null,"IsActive":null,"IsCancelled":null,"AdditionalInformation":"Derian Hall","VotingPeriod":4,"Latitude":34.140290473,"Longitude":-118.098966777},{"LocationID":6172,"LocationTypeCode":3,"ElectionID":4085,"Name":"Armstrong Elementary School","Address":"22750 Beaverhead Dr","City":"Diamond Bar","State":"CA","ZipCode":"91765","Hours":"February 29 - March 2: 8AM - 5PM\u003cbr\u003eMarch 3: 7AM - 8PM","ParkingArea":null,"IsActive":null,"IsCancelled":null,"AdditionalInformation":"Multi-Purpose Room","VotingPeriod":4,"Latitude":34.021385853,"Longitude":-117.818505886},{"LocationID":6875,"LocationTypeCode":3,"ElectionID":4085,"Name":"Arnold Elementary School","Address":"4100 W 227th St","City":"Torrance","State":"CA","ZipCode":"90505","Hours":"February 29 - March 2: 8AM - 5PM\u003cbr\u003eMarch 3: 7AM - 8PM","ParkingArea":null,"IsActive":null,"IsCancelled":null,"AdditionalInformation":"Room 35","VotingPeriod":4,"Latitude":33.822417167,"Longitude":-118.357069348},{"LocationID":6508,"LocationTypeCode":3,"ElectionID":4085,"Name":"Arroyo Seco Library","Address":"6145 N Figueroa St","City":"Los Angeles","State":"CA","ZipCode":"90042","Hours":"February 29 - March 2: 8AM - 5PM\u003cbr\u003eMarch 3: 7AM - 8PM","ParkingArea":null,"IsActive":null,"IsCancelled":null,"AdditionalInformation":"Community Room","VotingPeriod":4,"Latitude":34.113826440,"Longitude":-118.186084649},{"LocationID":6425,"LocationTypeCode":3,"ElectionID":4085,"Name":"ArtCenter College of Design","Address":"870 S Raymond Ave","City":"Pasadena","State":"CA","ZipCode":"91105","Hours":"February 29 - March 2: 8AM - 5PM\u003cbr\u003eMarch 3: 7AM - 8PM","ParkingArea":null,"IsActive":null,"IsCancelled":null,"AdditionalInformation":"870 Building - Lobby Area","VotingPeriod":4,"Latitude":34.131402248,"Longitude":-118.148469318},{"LocationID":6781,"LocationTypeCode":3,"ElectionID":4085,"Name":"Artesia Library","Address":"18801 Elaine Ave","City":"Artesia","State":"CA","ZipCode":"90701","Hours":"February 22 - March 2: 8AM - 5PM\u003cbr\u003eMarch 3: 7AM - 8PM","ParkingArea":null,"IsActive":null,"IsCancelled":null,"AdditionalInformation":"Meeting Room","VotingPeriod":11,"Latitude":33.860808860,"Longitude":-118.076851639},{"LocationID":6592,"LocationTypeCode":3,"ElectionID":4085,"Name":"Ascot Library","Address":"120 W Florence Ave","City":"Los Angeles","State":"CA","ZipCode":"90003","Hours":"February 29 - March 2: 8AM - 5PM\u003cbr\u003eMarch 3: 7AM - 8PM","ParkingArea":null,"IsActive":null,"IsCancelled":null,"AdditionalInformation":"Meeting Room","VotingPeriod":4,"Latitude":33.974657368,"Longitude":-118.274843861},{"LocationID":6585,"LocationTypeCode":3,"ElectionID":4085,"Name":"Asian American Drug Abuse Program","Address":"2900 Crenshaw Blvd","City":"Los Angeles","State":"CA","ZipCode":"90016","Hours":"February 29 - March 2: 8AM - 5PM\u003cbr\u003eMarch 3: 7AM - 8PM","ParkingArea":null,"IsActive":null,"IsCancelled":null,"AdditionalInformation":"Community Room","VotingPeriod":4,"Latitude":34.029099000,"Longitude":-118.335067850},{"LocationID":6063,"LocationTypeCode":3,"ElectionID":4085,"Name":"Assumption Church","Address":"2832 Blanchard St","City":"Los Angeles","State":"CA","ZipCode":"90033","Hours":"February 29 - March 2: 8AM - 5PM\u003cbr\u003eMarch 3: 7AM - 8PM","ParkingArea":null,"IsActive":null,"IsCancelled":null,"AdditionalInformation":"Hall","VotingPeriod":4,"Latitude":34.047785999,"Longitude":-118.197955416},{"LocationID":6497,"LocationTypeCode":3,"ElectionID":4085,"Name":"Atwater Avenue Elementary School","Address":"3271 Silver Lake Blvd","City":"Los Angeles","State":"CA","ZipCode":"90039","Hours":"February 29 - March 2: 8AM - 5PM\u003cbr\u003eMarch 3: 7AM - 8PM","ParkingArea":null,"IsActive":null,"IsCancelled":null,"AdditionalInformation":"Auditorium","VotingPeriod":4,"Latitude":34.114641310,"Longitude":-118.253928990},{"LocationID":6420,"LocationTypeCode":3,"ElectionID":4085,"Name":"Azusa Women\u0027s Club","Address":"1003 N Azusa Ave","City":"Azusa","State":"CA","ZipCode":"91702","Hours":"February 29 - March 2: 8AM - 5PM\u003cbr\u003eMarch 3: 7AM - 8PM","ParkingArea":null,"IsActive":null,"IsCancelled":null,"AdditionalInformation":"Banquet Room","VotingPeriod":4,"Latitude":34.139251653,"Longitude":-117.907841838},{"LocationID":6302,"LocationTypeCode":3,"ElectionID":4085,"Name":"Baker Elementary School","Address":"12043 Exline St","City":"El Monte","State":"CA","ZipCode":"91732","Hours":"February 29 - March 2: 8AM - 5PM\u003cbr\u003eMarch 3: 7AM - 8PM","ParkingArea":null,"IsActive":null,"IsCancelled":null,"AdditionalInformation":"Cafeteria","VotingPeriod":4,"Latitude":34.066003345,"Longitude":-118.015786067},{"LocationID":6513,"LocationTypeCode":3,"ElectionID":4085,"Name":"Baldwin Hills Crenshaw Plaza","Address":"3650 W Martin Luther King Jr Blvd","City":"Los Angeles","State":"CA","ZipCode":"90008","Hours":"February 29 - March 2: 8AM - 5PM\u003cbr\u003eMarch 3: 7AM - 8PM","ParkingArea":null,"IsActive":null,"IsCancelled":null,"AdditionalInformation":"Community Room","VotingPeriod":4,"Latitude":34.010479057,"Longitude":-118.336443956},{"LocationID":6065,"LocationTypeCode":3,"ElectionID":4085,"Name":"Baldwin Hills Library","Address":"2906 S La Brea Ave","City":"Los Angeles","State":"CA","ZipCode":"90016","Hours":"February 29 - March 2: 8AM - 5PM\u003cbr\u003eMarch 3: 7AM - 8PM","ParkingArea":null,"IsActive":null,"IsCancelled":null,"AdditionalInformation":"Meeting Room","VotingPeriod":4,"Latitude":34.028566153,"Longitude":-118.352726895},{"LocationID":6183,"LocationTypeCode":3,"ElectionID":4085,"Name":"Baldwin Park Library","Address":"4181 Baldwin Park Blvd","City":"Baldwin Park","State":"CA","ZipCode":"91706","Hours":"February 22 - March 2: 8AM - 5PM\u003cbr\u003eMarch 3: 7AM - 8PM","ParkingArea":null,"IsActive":null,"IsCancelled":null,"AdditionalInformation":"Meeting Room","VotingPeriod":11,"Latitude":34.087990756,"Longitude":-117.965292568},{"LocationID":6753,"LocationTypeCode":3,"ElectionID":4085,"Name":"Banning Recreation Center","Address":"1331 Eubank Ave","City":"Wilmington","State":"CA","ZipCode":"90744","Hours":"February 22 - March 2: 8AM - 5PM\u003cbr\u003eMarch 3: 7AM - 8PM","ParkingArea":null,"IsActive":null,"IsCancelled":null,"AdditionalInformation":"Computer Lab","VotingPeriod":11,"Latitude":33.790189862,"Longitude":-118.256179023},{"LocationID":6185,"LocationTypeCode":3,"ElectionID":4085,"Name":"Barranca Elementary School","Address":"727 S Barranca Ave","City":"Covina","State":"CA","ZipCode":"91723","Hours":"February 29 - March 2: 8AM - 5PM\u003cbr\u003eMarch 3: 7AM - 8PM","ParkingArea":null,"IsActive":null,"IsCancelled":null,"AdditionalInformation":"Cafeteria","VotingPeriod":4,"Latitude":34.076745194,"Longitude":-117.882468282},{"LocationID":5998,"LocationTypeCode":3,"ElectionID":4085,"Name":"Barrio Action Youth \u0026 Family Center","Address":"4927 Huntington Dr N #200","City":"Los Angeles","State":"CA","ZipCode":"90032","Hours":"February 29 - March 2: 8AM - 5PM\u003cbr\u003eMarch 3: 7AM - 8PM","ParkingArea":null,"IsActive":null,"IsCancelled":null,"AdditionalInformation":"Gymnasium","VotingPeriod":4,"Latitude":34.087315552,"Longitude":-118.176304407},{"LocationID":6082,"LocationTypeCode":3,"ElectionID":4085,"Name":"Bassett Street Elementary School","Address":"15756 Bassett St","City":"Van Nuys","State":"CA","ZipCode":"91406","Hours":"February 29 - March 2: 8AM - 5PM\u003cbr\u003eMarch 3: 7AM - 8PM","ParkingArea":null,"IsActive":null,"IsCancelled":null,"AdditionalInformation":"Auditorium","VotingPeriod":4,"Latitude":34.195616531,"Longitude":-118.476736514},{"LocationID":6257,"LocationTypeCode":3,"ElectionID":4085,"Name":"Bateman Hall","Address":"11331 Ernestine Ave","City":"Lynwood","State":"CA","ZipCode":"90262","Hours":"February 29 - March 2: 8AM - 5PM\u003cbr\u003eMarch 3: 7AM - 8PM","ParkingArea":null,"IsActive":null,"IsCancelled":null,"AdditionalInformation":"Thompson Auditorium","VotingPeriod":4,"Latitude":33.925147352,"Longitude":-118.198543155},{"LocationID":6709,"LocationTypeCode":3,"ElectionID":4085,"Name":"Bay Shore Community Congregational Church","Address":"5100 E The Toledo","City":"Long Beach","State":"CA","ZipCode":"90803","Hours":"February 29 - March 2: 8AM - 5PM\u003cbr\u003eMarch 3: 7AM - 8PM","ParkingArea":null,"IsActive":null,"IsCancelled":null,"AdditionalInformation":"Gymnasium","VotingPeriod":4,"Latitude":33.762822620,"Longitude":-118.133470933},{"LocationID":6158,"LocationTypeCode":3,"ElectionID":4085,"Name":"Beach Cities Health District","Address":"514 N Prospect Ave","City":"Redondo Beach","State":"CA","ZipCode":"90277","Hours":"February 29 - March 2: 8AM - 5PM\u003cbr\u003eMarch 3: 7AM - 8PM","ParkingArea":null,"IsActive":null,"IsCancelled":null,"AdditionalInformation":"Redondo and Beach Cities Rooms","VotingPeriod":4,"Latitude":33.853149277,"Longitude":-118.378917495},{"LocationID":6046,"LocationTypeCode":3,"ElectionID":4085,"Name":"Beckford Avenue Elementary School","Address":"19130 Tulsa St","City":"Northridge","State":"CA","ZipCode":"91326","Hours":"February 29 - March 2: 8AM - 5PM\u003cbr\u003eMarch 3: 7AM - 8PM","ParkingArea":null,"IsActive":null,"IsCancelled":null,"AdditionalInformation":"Auditorium","VotingPeriod":4,"Latitude":34.267748287,"Longitude":-118.548886887},{"LocationID":6456,"LocationTypeCode":3,"ElectionID":4085,"Name":"Beethoven Street Elementary School","Address":"3711 Beethoven St","City":"Los Angeles","State":"CA","ZipCode":"90066","Hours":"February 29 - March 2: 8AM - 5PM\u003cbr\u003eMarch 3: 7AM - 8PM","ParkingArea":null,"IsActive":null,"IsCancelled":null,"AdditionalInformation":"Auditorium","VotingPeriod":4,"Latitude":34.002156268,"Longitude":-118.443307915},{"LocationID":6300,"LocationTypeCode":3,"ElectionID":4085,"Name":"Bell Community Center","Address":"6250 Pine Ave","City":"Bell","State":"CA","ZipCode":"90201","Hours":"February 29 - March 2: 8AM - 5PM\u003cbr\u003eMarch 3: 7AM - 8PM","ParkingArea":null,"IsActive":null,"IsCancelled":null,"AdditionalInformation":"Big Hall","VotingPeriod":4,"Latitude":33.980205382,"Longitude":-118.188566505},{"LocationID":6131,"LocationTypeCode":3,"ElectionID":4085,"Name":"Bell Gardens Elementary School","Address":"5620 Quinn St","City":"Bell Gardens","State":"CA","ZipCode":"90201","Hours":"February 29 - March 2: 8AM - 5PM\u003cbr\u003eMarch 3: 7AM - 8PM","ParkingArea":null,"IsActive":null,"IsCancelled":null,"AdditionalInformation":"Cafeteria","VotingPeriod":4,"Latitude":33.959499822,"Longitude":-118.167916859},{"LocationID":6123,"LocationTypeCode":3,"ElectionID":4085,"Name":"Bell Gardens High School","Address":"6119 Agra St","City":"Bell Gardens","State":"CA","ZipCode":"90201","Hours":"February 29 - March 2: 8AM - 5PM\u003cbr\u003eMarch 3: 7AM - 8PM","ParkingArea":null,"IsActive":null,"IsCancelled":null,"AdditionalInformation":"Auditorium Foyer","VotingPeriod":4,"Latitude":33.975627421,"Longitude":-118.154238011},{"LocationID":6547,"LocationTypeCode":3,"ElectionID":4085,"Name":"Bell Gardens Senior Center","Address":"6722 Clara St","City":"Bell Gardens","State":"CA","ZipCode":"90201","Hours":"February 29 - March 2: 8AM - 5PM\u003cbr\u003eMarch 3: 7AM - 8PM","ParkingArea":null,"IsActive":null,"IsCancelled":null,"AdditionalInformation":"Dining Room","VotingPeriod":4,"Latitude":33.960860500,"Longitude":-118.146165254},{"LocationID":6373,"LocationTypeCode":3,"ElectionID":4085,"Name":"Bell Gardens Veterans Park","Address":"6662 Loveland St","City":"Bell Gardens","State":"CA","ZipCode":"90201","Hours":"February 29 - March 2: 8AM - 5PM\u003cbr\u003eMarch 3: 7AM - 8PM","ParkingArea":null,"IsActive":null,"IsCancelled":null,"AdditionalInformation":"Auditorium","VotingPeriod":4,"Latitude":33.968152743,"Longitude":-118.144852728},{"LocationID":6542,"LocationTypeCode":3,"ElectionID":4085,"Name":"Bellflower City Hall","Address":"16600 Civic Center Dr","City":"Bellflower","State":"CA","ZipCode":"90706","Hours":"February 29 - March 2: 8AM - 5PM\u003cbr\u003eMarch 3: 7AM - 8PM","ParkingArea":null,"IsActive":null,"IsCancelled":null,"AdditionalInformation":"Green Room","VotingPeriod":4,"Latitude":33.883327459,"Longitude":-118.122245705},{"LocationID":6298,"LocationTypeCode":3,"ElectionID":4085,"Name":"Belmont High School","Address":"1575 W 2nd St","City":"Los Angeles","State":"CA","ZipCode":"90026","Hours":"February 29 - March 2: 8AM - 5PM\u003cbr\u003eMarch 3: 7AM - 8PM","ParkingArea":null,"IsActive":null,"IsCancelled":null,"AdditionalInformation":"Auditorium","VotingPeriod":4,"Latitude":34.077054858,"Longitude":-118.258882192},{"LocationID":6033,"LocationTypeCode":3,"ElectionID":4085,"Name":"Ben Lomond Elementary School","Address":"621 E Covina Blvd","City":"Covina","State":"CA","ZipCode":"91722","Hours":"February 29 - March 2: 8AM - 5PM\u003cbr\u003eMarch 3: 7AM - 8PM","ParkingArea":null,"IsActive":null,"IsCancelled":null,"AdditionalInformation":"Cafeteria","VotingPeriod":4,"Latitude":34.100359359,"Longitude":-117.878210405},{"LocationID":6135,"LocationTypeCode":3,"ElectionID":4085,"Name":"Benito Juarez Elementary","Address":"11939 Aclare St","City":"Cerritos","State":"CA","ZipCode":"90703","Hours":"February 29 - March 2: 8AM - 5PM\u003cbr\u003eMarch 3: 7AM - 8PM","ParkingArea":null,"IsActive":null,"IsCancelled":null,"AdditionalInformation":"Multi-Purpose Room","VotingPeriod":4,"Latitude":33.875042382,"Longitude":-118.078305268},{"LocationID":6397,"LocationTypeCode":3,"ElectionID":4085,"Name":"Bert Lynn Middle School","Address":"5038 Halison St","City":"Torrance","State":"CA","ZipCode":"90503","Hours":"February 29 - March 2: 8AM - 5PM\u003cbr\u003eMarch 3: 7AM - 8PM","ParkingArea":null,"IsActive":null,"IsCancelled":null,"AdditionalInformation":"Cafeteria","VotingPeriod":4,"Latitude":33.851022635,"Longitude":-118.364527957},{"LocationID":6258,"LocationTypeCode":3,"ElectionID":4085,"Name":"Bertrand Avenue Elementary School","Address":"7021 Bertrand Ave","City":"Reseda","State":"CA","ZipCode":"91335","Hours":"February 29 - March 2: 8AM - 5PM\u003cbr\u003eMarch 3: 7AM - 8PM","ParkingArea":null,"IsActive":null,"IsCancelled":null,"AdditionalInformation":"Auditorium","VotingPeriod":4,"Latitude":34.198127971,"Longitude":-118.524486577},{"LocationID":6696,"LocationTypeCode":3,"ElectionID":4085,"Name":"Bethel AME Church","Address":"7900 S Western Ave","City":"Los Angeles","State":"CA","ZipCode":"90047","Hours":"February 29 - March 2: 8AM - 5PM\u003cbr\u003eMarch 3: 7AM - 8PM","ParkingArea":null,"IsActive":null,"IsCancelled":null,"AdditionalInformation":"Board Room - Nursery","VotingPeriod":4,"Latitude":33.967072360,"Longitude":-118.308784956},{"LocationID":6750,"LocationTypeCode":3,"ElectionID":4085,"Name":"Betty Hill Senior Citizen Center","Address":"3570 S Denker Ave","City":"Los Angeles","State":"CA","ZipCode":"90018","Hours":"February 22 - March 2: 8AM - 5PM\u003cbr\u003eMarch 3: 7AM - 8PM","ParkingArea":null,"IsActive":null,"IsCancelled":null,"AdditionalInformation":"Small Classroom","VotingPeriod":11,"Latitude":34.023024000,"Longitude":-118.304424000},{"LocationID":6147,"LocationTypeCode":3,"ElectionID":4085,"Name":"Betty Wilson Center","Address":"11641 Florence Ave","City":"Santa Fe Springs","State":"CA","ZipCode":"90670","Hours":"February 29 - March 2: 8AM - 5PM\u003cbr\u003eMarch 3: 7AM - 8PM","ParkingArea":null,"IsActive":null,"IsCancelled":null,"AdditionalInformation":"Main Hall","VotingPeriod":4,"Latitude":33.935452737,"Longitude":-118.085484342},{"LocationID":6853,"LocationTypeCode":3,"ElectionID":4085,"Name":"Beverly Hills City Hall","Address":"455 N Rexford Dr","City":"Beverly Hills","State":"CA","ZipCode":"90210","Hours":"February 22 - March 2: 8AM - 5PM\u003cbr\u003eMarch 3: 7AM - 8PM","ParkingArea":null,"IsActive":null,"IsCancelled":null,"AdditionalInformation":"Municipal Gallery 2nd Floor","VotingPeriod":11,"Latitude":34.073058984,"Longitude":-118.399947567},{"LocationID":6537,"LocationTypeCode":3,"ElectionID":4085,"Name":"Birdielee V Bright Elementary School","Address":"1771 W 36th St","City":"Los Angeles","State":"CA","ZipCode":"90018","Hours":"February 29 - March 2: 8AM - 5PM\u003cbr\u003eMarch 3: 7AM - 8PM","ParkingArea":null,"IsActive":null,"IsCancelled":null,"AdditionalInformation":"Auditorium","VotingPeriod":4,"Latitude":34.022912473,"Longitude":-118.310973938},{"LocationID":5997,"LocationTypeCode":3,"ElectionID":4085,"Name":"Birney Elementary School","Address":"8501 Orange Ave","City":"Pico Rivera","State":"CA","ZipCode":"90660","Hours":"February 29 - March 2: 8AM - 5PM\u003cbr\u003eMarch 3: 7AM - 8PM","ParkingArea":null,"IsActive":null,"IsCancelled":null,"AdditionalInformation":"Cafeteria","VotingPeriod":4,"Latitude":33.958086607,"Longitude":-118.095945786},{"LocationID":6859,"LocationTypeCode":3,"ElectionID":4085,"Name":"Biscailuz Park","Address":"2601 Dollar St","City":"Lakewood","State":"CA","ZipCode":"90712","Hours":"February 29 - March 2: 8AM - 5PM\u003cbr\u003eMarch 3: 7AM - 8PM","ParkingArea":null,"IsActive":null,"IsCancelled":null,"AdditionalInformation":"Activity Room","VotingPeriod":4,"Latitude":33.852383257,"Longitude":-118.161370040},{"LocationID":6581,"LocationTypeCode":3,"ElectionID":4085,"Name":"Bixby Park","Address":"130 Cherry Ave","City":"Long Beach","State":"CA","ZipCode":"90802","Hours":"February 29 - March 2: 8AM - 5PM\u003cbr\u003eMarch 3: 7AM - 8PM","ParkingArea":null,"IsActive":null,"IsCancelled":null,"AdditionalInformation":"Room 1","VotingPeriod":4,"Latitude":33.766011473,"Longitude":-118.167092748},{"LocationID":6297,"LocationTypeCode":3,"ElectionID":4085,"Name":"Blandford Elementary School","Address":"2601 Blandford Dr","City":"Rowland Heights","State":"CA","ZipCode":"91748","Hours":"February 29 - March 2: 8AM - 5PM\u003cbr\u003eMarch 3: 7AM - 8PM","ParkingArea":null,"IsActive":null,"IsCancelled":null,"AdditionalInformation":"Cafeteria","VotingPeriod":4,"Latitude":33.972416379,"Longitude":-117.897423262},{"LocationID":6194,"LocationTypeCode":3,"ElectionID":4085,"Name":"Bob Hope Patriotic Hall","Address":"1816 S Figueroa St","City":"Los Angeles","State":"CA","ZipCode":"90015","Hours":"February 22 - March 2: 8AM - 5PM\u003cbr\u003eMarch 3: 7AM - 8PM","ParkingArea":null,"IsActive":null,"IsCancelled":null,"AdditionalInformation":"Dining Room","VotingPeriod":11,"Latitude":34.035266585,"Longitude":-118.271266994},{"LocationID":6611,"LocationTypeCode":3,"ElectionID":4085,"Name":"Boston Court Performing Arts Center","Address":"70 N Mentor Ave","City":"Pasadena","State":"CA","ZipCode":"91106","Hours":"February 29 - March 2: 8AM - 5PM\u003cbr\u003eMarch 3: 7AM - 8PM","ParkingArea":null,"IsActive":null,"IsCancelled":null,"AdditionalInformation":"Lobby","VotingPeriod":4,"Latitude":34.146981705,"Longitude":-118.130438814},{"LocationID":6745,"LocationTypeCode":3,"ElectionID":4085,"Name":"Bouquet Canyon Elementary","Address":"28110 Wellston Dr","City":"Saugus","State":"CA","ZipCode":"91350","Hours":"February 22 - March 2: 8AM - 5PM\u003cbr\u003eMarch 3: 7AM - 8PM","ParkingArea":null,"IsActive":null,"IsCancelled":null,"AdditionalInformation":"Multi-Purpose Room","VotingPeriod":11,"Latitude":34.452720000,"Longitude":-118.503292500},{"LocationID":6487,"LocationTypeCode":3,"ElectionID":4085,"Name":"Boyle Heights City Hall","Address":"2130 E 1st St","City":"Los Angeles","State":"CA","ZipCode":"90033","Hours":"February 29 - March 2: 8AM - 5PM\u003cbr\u003eMarch 3: 7AM - 8PM","ParkingArea":null,"IsActive":null,"IsCancelled":null,"AdditionalInformation":"Community Room","VotingPeriod":4,"Latitude":34.044456239,"Longitude":-118.212861604},{"LocationID":6573,"LocationTypeCode":3,"ElectionID":4085,"Name":"Boys \u0026 Girls Club of Ramona Gardens","Address":"2830 Lancaster Ave","City":"Los Angeles","State":"CA","ZipCode":"90033","Hours":"February 29 - March 2: 8AM - 5PM\u003cbr\u003eMarch 3: 7AM - 8PM","ParkingArea":null,"IsActive":null,"IsCancelled":null,"AdditionalInformation":"Gymnasium","VotingPeriod":4,"Latitude":34.056851361,"Longitude":-118.194557174},{"LocationID":6071,"LocationTypeCode":3,"ElectionID":4085,"Name":"Bragg Elementary School","Address":"11501 Bos St","City":"Cerritos","State":"CA","ZipCode":"90703","Hours":"February 29 - March 2: 8AM - 5PM\u003cbr\u003eMarch 3: 7AM - 8PM","ParkingArea":null,"IsActive":null,"IsCancelled":null,"AdditionalInformation":"Multi-Purpose Room","VotingPeriod":4,"Latitude":33.855972257,"Longitude":-118.089502034},{"LocationID":6242,"LocationTypeCode":3,"ElectionID":4085,"Name":"Brainard Avenue Elementary School","Address":"11407 Brainard Ave","City":"Lake View Terrace","State":"CA","ZipCode":"91342","Hours":"February 29 - March 2: 8AM - 5PM\u003cbr\u003eMarch 3: 7AM - 8PM","ParkingArea":null,"IsActive":null,"IsCancelled":null,"AdditionalInformation":"Auditorium","VotingPeriod":4,"Latitude":34.277381019,"Longitude":-118.363745739},{"LocationID":6507,"LocationTypeCode":3,"ElectionID":4085,"Name":"Brand Library \u0026 Art Center","Address":"1601 W Mountain St","City":"Glendale","State":"CA","ZipCode":"91207","Hours":"February 29 - March 2: 8AM - 5PM\u003cbr\u003eMarch 3: 7AM - 8PM","ParkingArea":null,"IsActive":null,"IsCancelled":null,"AdditionalInformation":"Recital Hall","VotingPeriod":4,"Latitude":34.182287519,"Longitude":-118.276439453},{"LocationID":6129,"LocationTypeCode":3,"ElectionID":4085,"Name":"Bread of Life Los Angeles","Address":"5027 New York Ave","City":"Glendale","State":"CA","ZipCode":"91214","Hours":"February 29 - March 2: 8AM - 5PM\u003cbr\u003eMarch 3: 7AM - 8PM","ParkingArea":null,"IsActive":null,"IsCancelled":null,"AdditionalInformation":"Epic Hub Hall","VotingPeriod":4,"Latitude":34.242345562,"Longitude":-118.253729626},{"LocationID":6587,"LocationTypeCode":3,"ElectionID":4085,"Name":"Bret Harte Middle School","Address":"9301 S Hoover St","City":"Los Angeles","State":"CA","ZipCode":"90044","Hours":"February 29 - March 2: 8AM - 5PM\u003cbr\u003eMarch 3: 7AM - 8PM","ParkingArea":null,"IsActive":null,"IsCancelled":null,"AdditionalInformation":"Boys Gymnasium","VotingPeriod":4,"Latitude":33.951810591,"Longitude":-118.287123659},{"LocationID":6014,"LocationTypeCode":3,"ElectionID":4085,"Name":"Bridges Academy","Address":"3921 Laurel Canyon Blvd","City":"Studio City","State":"CA","ZipCode":"91604","Hours":"February 29 - March 2: 8AM - 5PM\u003cbr\u003eMarch 3: 7AM - 8PM","ParkingArea":null,"IsActive":null,"IsCancelled":null,"AdditionalInformation":"Auditorium / Gym","VotingPeriod":4,"Latitude":34.141796175,"Longitude":-118.394787146},{"LocationID":6340,"LocationTypeCode":3,"ElectionID":4085,"Name":"Bristow Park Community Center","Address":"1466 S McDonnell Ave","City":"Commerce","State":"CA","ZipCode":"90040","Hours":"February 29 - March 2: 8AM - 5PM\u003cbr\u003eMarch 3: 7AM - 8PM","ParkingArea":null,"IsActive":null,"IsCancelled":null,"AdditionalInformation":"Community Room","VotingPeriod":4,"Latitude":34.013498273,"Longitude":-118.169759903},{"LocationID":6169,"LocationTypeCode":3,"ElectionID":4085,"Name":"Brockton Avenue Elementary School","Address":"1309 Armacost Ave","City":"Los Angeles","State":"CA","ZipCode":"90025","Hours":"February 29 - March 2: 8AM - 5PM\u003cbr\u003eMarch 3: 7AM - 8PM","ParkingArea":null,"IsActive":null,"IsCancelled":null,"AdditionalInformation":"Auditorium","VotingPeriod":4,"Latitude":34.044549602,"Longitude":-118.462754567},{"LocationID":6402,"LocationTypeCode":3,"ElectionID":4085,"Name":"Bryson Avenue Elementary School","Address":"4470 Missouri Ave","City":"South Gate","State":"CA","ZipCode":"90280","Hours":"February 29 - March 2: 8AM - 5PM\u003cbr\u003eMarch 3: 7AM - 8PM","ParkingArea":null,"IsActive":null,"IsCancelled":null,"AdditionalInformation":"Auditorium","VotingPeriod":4,"Latitude":33.944150191,"Longitude":-118.192788667},{"LocationID":6050,"LocationTypeCode":3,"ElectionID":4085,"Name":"Buena Vista Branch Library","Address":"300 N Buena Vista St","City":"Burbank","State":"CA","ZipCode":"91505","Hours":"February 22 - March 2: 8AM - 5PM\u003cbr\u003eMarch 3: 7AM - 8PM","ParkingArea":null,"IsActive":null,"IsCancelled":null,"AdditionalInformation":"Meeting Room","VotingPeriod":11,"Latitude":34.163838602,"Longitude":-118.330370059},{"LocationID":6266,"LocationTypeCode":3,"ElectionID":4085,"Name":"Burbank Community YMCA","Address":"321 E Magnolia Blvd","City":"Burbank","State":"CA","ZipCode":"91502","Hours":"February 29 - March 2: 8AM - 5PM\u003cbr\u003eMarch 3: 7AM - 8PM","ParkingArea":null,"IsActive":null,"IsCancelled":null,"AdditionalInformation":"Ray Sence Room","VotingPeriod":4,"Latitude":34.184479680,"Longitude":-118.310430543},{"LocationID":6599,"LocationTypeCode":3,"ElectionID":4085,"Name":"Burbank Town Center Shopping Center","Address":"201 E Magnolia","City":"Burbank","State":"CA","ZipCode":"91502","Hours":"February 29 - March 2: 8AM - 5PM\u003cbr\u003eMarch 3: 7AM - 8PM","ParkingArea":null,"IsActive":null,"IsCancelled":null,"AdditionalInformation":"Room 399","VotingPeriod":4,"Latitude":34.183308130,"Longitude":-118.312084136},{"LocationID":6421,"LocationTypeCode":3,"ElectionID":4085,"Name":"Burroughs Head Start School","Address":"1260 E 33rd St","City":"Signal Hill","State":"CA","ZipCode":"90755","Hours":"February 29 - March 2: 8AM - 5PM\u003cbr\u003eMarch 3: 7AM - 8PM","ParkingArea":null,"IsActive":null,"IsCancelled":null,"AdditionalInformation":"Building Room E","VotingPeriod":4,"Latitude":33.816685011,"Longitude":-118.175263255},{"LocationID":6893,"LocationTypeCode":3,"ElectionID":4085,"Name":"Bursch Elementary School","Address":"4245 Merced Ave","City":"Baldwin Park","State":"CA","ZipCode":"91706","Hours":"February 29 - March 2: 8AM - 5PM\u003cbr\u003eMarch 3: 7AM - 8PM","ParkingArea":null,"IsActive":null,"IsCancelled":null,"AdditionalInformation":"Cafeteria\r\n","VotingPeriod":4,"Latitude":34.089400788,"Longitude":-117.974666133},{"LocationID":6292,"LocationTypeCode":3,"ElectionID":4085,"Name":"Bursch Elementary School","Address":"2505 W 156th St","City":"Compton","State":"CA","ZipCode":"90220","Hours":"February 29 - March 2: 8AM - 5PM\u003cbr\u003eMarch 3: 7AM - 8PM","ParkingArea":null,"IsActive":null,"IsCancelled":null,"AdditionalInformation":"Library","VotingPeriod":4,"Latitude":33.891265712,"Longitude":-118.255875114},{"LocationID":6752,"LocationTypeCode":3,"ElectionID":4085,"Name":"Burton Chace Park","Address":"13650 Mindanao Way","City":"Marina Del Rey","State":"CA","ZipCode":"90292","Hours":"February 22 - March 2: 8AM - 5PM\u003cbr\u003eMarch 3: 7AM - 8PM","ParkingArea":null,"IsActive":null,"IsCancelled":null,"AdditionalInformation":"Community Building","VotingPeriod":11,"Latitude":33.978650069,"Longitude":-118.442733081},{"LocationID":6140,"LocationTypeCode":3,"ElectionID":4085,"Name":"C Robert Lee Activity Center","Address":"21815 Pioneer Blvd","City":"Hawaiian Gardens","State":"CA","ZipCode":"90716","Hours":"February 22 - March 2: 8AM - 5PM\u003cbr\u003eMarch 3: 7AM - 8PM","ParkingArea":null,"IsActive":null,"IsCancelled":null,"AdditionalInformation":"Multi-Purpose Room B","VotingPeriod":11,"Latitude":33.830064847,"Longitude":-118.081905936},{"LocationID":6034,"LocationTypeCode":3,"ElectionID":4085,"Name":"Cabrillo Avenue Elementary School","Address":"732 S Cabrillo Ave","City":"San Pedro","State":"CA","ZipCode":"90731","Hours":"February 29 - March 2: 8AM - 5PM\u003cbr\u003eMarch 3: 7AM - 8PM","ParkingArea":null,"IsActive":null,"IsCancelled":null,"AdditionalInformation":"Auditorium","VotingPeriod":4,"Latitude":33.737339149,"Longitude":-118.294399766},{"LocationID":6413,"LocationTypeCode":3,"ElectionID":4085,"Name":"Cabrillo High School","Address":"2001 Santa Fe Ave","City":"Long Beach","State":"CA","ZipCode":"90810","Hours":"February 22 - March 2: 8AM - 5PM\u003cbr\u003eMarch 3: 7AM - 8PM","ParkingArea":null,"IsActive":null,"IsCancelled":null,"AdditionalInformation":"North Gymnasium","VotingPeriod":11,"Latitude":33.793944603,"Longitude":-118.216028458},{"LocationID":6471,"LocationTypeCode":3,"ElectionID":4085,"Name":"Cahuenga Elementary School","Address":"220 S Hobart Blvd","City":"Los Angeles","State":"CA","ZipCode":"90004","Hours":"February 29 - March 2: 8AM - 5PM\u003cbr\u003eMarch 3: 7AM - 8PM","ParkingArea":null,"IsActive":null,"IsCancelled":null,"AdditionalInformation":"Multi-Purpose Room","VotingPeriod":4,"Latitude":34.070491669,"Longitude":-118.305364623},{"LocationID":6647,"LocationTypeCode":3,"ElectionID":4085,"Name":"Cal Poly Pomona","Address":"3801 W Temple Ave","City":"Pomona","State":"CA","ZipCode":"91768","Hours":"February 29 - March 2: 8AM - 5PM\u003cbr\u003eMarch 3: 7AM - 8PM","ParkingArea":null,"IsActive":null,"IsCancelled":null,"AdditionalInformation":"Building 35 Room 35-2135 (Ursa Minor)","VotingPeriod":4,"Latitude":34.058348811,"Longitude":-117.822619973},{"LocationID":6500,"LocationTypeCode":3,"ElectionID":4085,"Name":"Cal State University Chancellor\u0027s Office","Address":"401 Golden Shore","City":"Long Beach","State":"CA","ZipCode":"90802","Hours":"February 29 - March 2: 8AM - 5PM\u003cbr\u003eMarch 3: 7AM - 8PM","ParkingArea":null,"IsActive":null,"IsCancelled":null,"AdditionalInformation":"6th Floor - Conference Room 1","VotingPeriod":4,"Latitude":33.764337968,"Longitude":-118.201255055},{"LocationID":6620,"LocationTypeCode":3,"ElectionID":4085,"Name":"Cal State University Dominguez Hills","Address":"1000 E Victoria St","City":"Carson","State":"CA","ZipCode":"90747","Hours":"February 29 - March 2: 8AM - 5PM\u003cbr\u003eMarch 3: 7AM - 8PM","ParkingArea":null,"IsActive":null,"IsCancelled":null,"AdditionalInformation":"EE-1213 / Auditorium","VotingPeriod":4,"Latitude":33.863883363,"Longitude":-118.255760994},{"LocationID":6639,"LocationTypeCode":3,"ElectionID":4085,"Name":"Cal State University Long Beach","Address":"1250 Bellflower Blvd","City":"Long Beach","State":"CA","ZipCode":"90840","Hours":"February 29 - March 2: 8AM - 5PM\u003cbr\u003eMarch 3: 7AM - 8PM","ParkingArea":null,"IsActive":null,"IsCancelled":null,"AdditionalInformation":"Pacific Sunset A \u0026 B","VotingPeriod":4,"Latitude":33.785418908,"Longitude":-118.121206806},{"LocationID":6326,"LocationTypeCode":3,"ElectionID":4085,"Name":"Cal State University Los Angeles","Address":"5151 State University Dr","City":"Los Angeles","State":"CA","ZipCode":"90032","Hours":"February 29 - March 2: 8AM - 5PM\u003cbr\u003eMarch 3: 7AM - 8PM","ParkingArea":null,"IsActive":null,"IsCancelled":null,"AdditionalInformation":"Library, Palmer Wing,  4049","VotingPeriod":4,"Latitude":34.068118588,"Longitude":-118.169100162},{"LocationID":6666,"LocationTypeCode":3,"ElectionID":4085,"Name":"Cal State University Northridge","Address":"18111 Nordhoff St","City":"Northridge","State":"CA","ZipCode":"91330","Hours":"February 29 - March 2: 8AM - 5PM\u003cbr\u003eMarch 3: 7AM - 8PM","ParkingArea":null,"IsActive":null,"IsCancelled":null,"AdditionalInformation":"Redwood Hall 180","VotingPeriod":4,"Latitude":34.236106527,"Longitude":-118.528094665},{"LocationID":6153,"LocationTypeCode":3,"ElectionID":4085,"Name":"Calabasas Senior Center","Address":"300 Civic Center Way","City":"Calabasas","State":"CA","ZipCode":"91302","Hours":"February 29 - March 2: 8AM - 5PM\u003cbr\u003eMarch 3: 7AM - 8PM","ParkingArea":null,"IsActive":null,"IsCancelled":null,"AdditionalInformation":"Multi-Purpose Room","VotingPeriod":4,"Latitude":34.153903311,"Longitude":-118.647353437},{"LocationID":6692,"LocationTypeCode":3,"ElectionID":4085,"Name":"Calabasas Tennis and Swim Center","Address":"23400 Park Sorrento","City":"Calabasas","State":"CA","ZipCode":"91302","Hours":"February 29 - March 2: 8AM - 5PM\u003cbr\u003eMarch 3: 7AM - 8PM","ParkingArea":null,"IsActive":null,"IsCancelled":null,"AdditionalInformation":"Room 1","VotingPeriod":4,"Latitude":34.155704558,"Longitude":-118.637630696},{"LocationID":6540,"LocationTypeCode":3,"ElectionID":4085,"Name":"California Heights United Methodist Church","Address":"3759 Orange Ave","City":"Long Beach","State":"CA","ZipCode":"90807","Hours":"February 29 - March 2: 8AM - 5PM\u003cbr\u003eMarch 3: 7AM - 8PM","ParkingArea":null,"IsActive":null,"IsCancelled":null,"AdditionalInformation":"Hughes Hall","VotingPeriod":4,"Latitude":33.826357943,"Longitude":-118.176670571},{"LocationID":6580,"LocationTypeCode":3,"ElectionID":4085,"Name":"Calvary Grace Church","Address":"2520 Peck Rd","City":"Monrovia","State":"CA","ZipCode":"91016","Hours":"February 22 - March 2: 8AM - 5PM\u003cbr\u003eMarch 3: 7AM - 8PM","ParkingArea":null,"IsActive":null,"IsCancelled":null,"AdditionalInformation":"Fellowship Hall","VotingPeriod":11,"Latitude":34.118681497,"Longitude":-118.003649123},{"LocationID":6282,"LocationTypeCode":3,"ElectionID":4085,"Name":"Cameron Park Community Center","Address":"1305 E Cameron Ave","City":"West Covina","State":"CA","ZipCode":"91790","Hours":"February 29 - March 2: 8AM - 5PM\u003cbr\u003eMarch 3: 7AM - 8PM","ParkingArea":null,"IsActive":null,"IsCancelled":null,"AdditionalInformation":"Multi-Purpose Room","VotingPeriod":4,"Latitude":34.062043982,"Longitude":-117.917735271},{"LocationID":6349,"LocationTypeCode":3,"ElectionID":4085,"Name":"Canyon Country Park","Address":"17615 Soledad Canyon Rd","City":"Canyon Country","State":"CA","ZipCode":"91387","Hours":"February 29 - March 2: 8AM - 5PM\u003cbr\u003eMarch 3: 7AM - 8PM","ParkingArea":null,"IsActive":null,"IsCancelled":null,"AdditionalInformation":"West Room","VotingPeriod":4,"Latitude":34.418720089,"Longitude":-118.441710879},{"LocationID":6733,"LocationTypeCode":3,"ElectionID":4085,"Name":"Carmelitos Housing Apartments","Address":"1000 Via Wanda","City":"Long Beach","State":"CA","ZipCode":"90805","Hours":"February 22 - March 2: 8AM - 5PM\u003cbr\u003eMarch 3: 7AM - 8PM","ParkingArea":null,"IsActive":null,"IsCancelled":null,"AdditionalInformation":"Community Room","VotingPeriod":11,"Latitude":33.850296000,"Longitude":-118.183207500},{"LocationID":6504,"LocationTypeCode":3,"ElectionID":4085,"Name":"Carolyn Rosas County Park","Address":"18500 Farjardo St","City":"Rowland Heights","State":"CA","ZipCode":"91748","Hours":"February 29 - March 2: 8AM - 5PM\u003cbr\u003eMarch 3: 7AM - 8PM","ParkingArea":null,"IsActive":null,"IsCancelled":null,"AdditionalInformation":"Meeting Room","VotingPeriod":4,"Latitude":33.980092567,"Longitude":-117.902479701},{"LocationID":6003,"LocationTypeCode":3,"ElectionID":4085,"Name":"Carpenters Local Union 562","Address":"341 Wardlow Rd","City":"Long Beach","State":"CA","ZipCode":"90807","Hours":"February 29 - March 2: 8AM - 5PM\u003cbr\u003eMarch 3: 7AM - 8PM","ParkingArea":null,"IsActive":null,"IsCancelled":null,"AdditionalInformation":"Meeting Hall","VotingPeriod":4,"Latitude":33.818947457,"Longitude":-118.188351220},{"LocationID":6718,"LocationTypeCode":3,"ElectionID":4085,"Name":"Carpet District","Address":"533 N Azusa Ave","City":"West Covina","State":"CA","ZipCode":"91791","Hours":"February 29 - March 2: 8AM - 5PM\u003cbr\u003eMarch 3: 7AM - 8PM","ParkingArea":null,"IsActive":null,"IsCancelled":null,"AdditionalInformation":"Showroom","VotingPeriod":4,"Latitude":34.080094701,"Longitude":-117.907922614},{"LocationID":6631,"LocationTypeCode":3,"ElectionID":4085,"Name":"Carr Elementary School","Address":"3404 W 168th St","City":"Torrance","State":"CA","ZipCode":"90504","Hours":"February 29 - March 2: 8AM - 5PM\u003cbr\u003eMarch 3: 7AM - 8PM","ParkingArea":null,"IsActive":null,"IsCancelled":null,"AdditionalInformation":"Cafetorium","VotingPeriod":4,"Latitude":33.877855358,"Longitude":-118.332212765},{"LocationID":6004,"LocationTypeCode":3,"ElectionID":4085,"Name":"Carson Civic Center","Address":"801 E Carson St","City":"Carson","State":"CA","ZipCode":"90745","Hours":"February 22 - March 2: 8AM - 5PM\u003cbr\u003eMarch 3: 7AM - 8PM","ParkingArea":null,"IsActive":null,"IsCancelled":null,"AdditionalInformation":"Community Center","VotingPeriod":11,"Latitude":33.832691871,"Longitude":-118.260964239},{"LocationID":6347,"LocationTypeCode":3,"ElectionID":4085,"Name":"Carson High School","Address":"22328 S Main St","City":"Carson","State":"CA","ZipCode":"90745","Hours":"February 29 - March 2: 8AM - 5PM\u003cbr\u003eMarch 3: 7AM - 8PM","ParkingArea":null,"IsActive":null,"IsCancelled":null,"AdditionalInformation":"Multi-Purpose Room","VotingPeriod":4,"Latitude":33.823811431,"Longitude":-118.274927065},{"LocationID":6341,"LocationTypeCode":3,"ElectionID":4085,"Name":"Carthay School of Environmental Studies Magnet","Address":"6351 W Olympic Blvd","City":"Los Angeles","State":"CA","ZipCode":"90048","Hours":"February 29 - March 2: 8AM - 5PM\u003cbr\u003eMarch 3: 7AM - 8PM","ParkingArea":null,"IsActive":null,"IsCancelled":null,"AdditionalInformation":"Auditorium","VotingPeriod":4,"Latitude":34.059106240,"Longitude":-118.369589697},{"LocationID":6591,"LocationTypeCode":3,"ElectionID":4085,"Name":"Casa Robles Retirement Center","Address":"6355 Oak Ave","City":"Temple City","State":"CA","ZipCode":"91780","Hours":"February 29 - March 2: 8AM - 5PM\u003cbr\u003eMarch 3: 7AM - 8PM","ParkingArea":null,"IsActive":null,"IsCancelled":null,"AdditionalInformation":"Birchard Hall","VotingPeriod":4,"Latitude":34.114938889,"Longitude":-118.067573371},{"LocationID":6195,"LocationTypeCode":3,"ElectionID":4085,"Name":"Castaic Middle School","Address":"28900 Hillcrest Pkwy","City":"Castaic","State":"CA","ZipCode":"91384","Hours":"February 29 - March 2: 8AM - 5PM\u003cbr\u003eMarch 3: 7AM - 8PM","ParkingArea":null,"IsActive":null,"IsCancelled":null,"AdditionalInformation":"Multi-Purpose Room","VotingPeriod":4,"Latitude":34.472246853,"Longitude":-118.640098032},{"LocationID":6055,"LocationTypeCode":3,"ElectionID":4085,"Name":"Castaic Sports Complex","Address":"31320 N Castaic Rd","City":"Castaic","State":"CA","ZipCode":"91384","Hours":"February 29 - March 2: 8AM - 5PM\u003cbr\u003eMarch 3: 7AM - 8PM","ParkingArea":null,"IsActive":null,"IsCancelled":null,"AdditionalInformation":"Community Room 2","VotingPeriod":4,"Latitude":34.486086004,"Longitude":-118.614775397},{"LocationID":6416,"LocationTypeCode":3,"ElectionID":4085,"Name":"Castelar Elementary School","Address":"840 Yale St","City":"Los Angeles","State":"CA","ZipCode":"90012","Hours":"February 29 - March 2: 8AM - 5PM\u003cbr\u003eMarch 3: 7AM - 8PM","ParkingArea":null,"IsActive":null,"IsCancelled":null,"AdditionalInformation":"Auditorium","VotingPeriod":4,"Latitude":34.064330768,"Longitude":-118.240081891},{"LocationID":6152,"LocationTypeCode":3,"ElectionID":4085,"Name":"Castlebay Ln Charter Elem Sch","Address":"19010 Castlebay Ln","City":"Porter Ranch","State":"CA","ZipCode":"91326","Hours":"February 29 - March 2: 8AM - 5PM\u003cbr\u003eMarch 3: 7AM - 8PM","ParkingArea":null,"IsActive":null,"IsCancelled":null,"AdditionalInformation":"Performing Arts Center","VotingPeriod":4,"Latitude":34.294272523,"Longitude":-118.547520753},{"LocationID":6697,"LocationTypeCode":3,"ElectionID":4085,"Name":"Catalina Country Club","Address":"1 Country Club Dr","City":"Avalon","State":"CA","ZipCode":"90704","Hours":"February 22 - March 2: 8AM - 5PM\u003cbr\u003eMarch 3: 7AM - 8PM","ParkingArea":null,"IsActive":null,"IsCancelled":null,"AdditionalInformation":"Dining Room","VotingPeriod":11,"Latitude":33.340134881,"Longitude":-118.329558408},{"LocationID":6701,"LocationTypeCode":3,"ElectionID":4085,"Name":"Catholic Kolping House","Address":"1225 S Union Ave","City":"Los Angeles","State":"CA","ZipCode":"90015","Hours":"February 29 - March 2: 8AM - 5PM\u003cbr\u003eMarch 3: 7AM - 8PM","ParkingArea":null,"IsActive":null,"IsCancelled":null,"AdditionalInformation":"Auditorium","VotingPeriod":4,"Latitude":34.045799848,"Longitude":-118.276436597},{"LocationID":6475,"LocationTypeCode":3,"ElectionID":4085,"Name":"Cathy Hensel Youth Center","Address":"236 S George Hensel Dr","City":"Montebello","State":"CA","ZipCode":"90640","Hours":"February 22 - March 2: 8AM - 5PM\u003cbr\u003eMarch 3: 7AM - 8PM","ParkingArea":null,"IsActive":null,"IsCancelled":null,"AdditionalInformation":"Gymnasium","VotingPeriod":11,"Latitude":34.008593967,"Longitude":-118.114110056},{"LocationID":6079,"LocationTypeCode":3,"ElectionID":4085,"Name":"Cedarcreek Elementary School","Address":"27792 Camp Plenty Rd","City":"Santa Clarita","State":"CA","ZipCode":"91351","Hours":"February 29 - March 2: 8AM - 5PM\u003cbr\u003eMarch 3: 7AM - 8PM","ParkingArea":null,"IsActive":null,"IsCancelled":null,"AdditionalInformation":"Committee Room (Room 7)","VotingPeriod":4,"Latitude":34.426415467,"Longitude":-118.475422599},{"LocationID":6563,"LocationTypeCode":3,"ElectionID":4085,"Name":"Centennial High School","Address":"2606 N Central Ave","City":"Compton","State":"CA","ZipCode":"90222","Hours":"February 29 - March 2: 8AM - 5PM\u003cbr\u003eMarch 3: 7AM - 8PM","ParkingArea":null,"IsActive":null,"IsCancelled":null,"AdditionalInformation":"Room 93","VotingPeriod":4,"Latitude":33.915272337,"Longitude":-118.254009859},{"LocationID":6463,"LocationTypeCode":3,"ElectionID":4085,"Name":"Center Street Elementary","Address":"700 Center St","City":"El Segundo","State":"CA","ZipCode":"90245","Hours":"February 22 - March 2: 8AM - 5PM\u003cbr\u003eMarch 3: 7AM - 8PM","ParkingArea":null,"IsActive":null,"IsCancelled":null,"AdditionalInformation":"Cafeteria","VotingPeriod":11,"Latitude":33.925119508,"Longitude":-118.404834981},{"LocationID":6355,"LocationTypeCode":3,"ElectionID":4085,"Name":"Centinela Bible Church","Address":"4475 W 137th St","City":"Hawthorne","State":"CA","ZipCode":"90250","Hours":"February 29 - March 2: 8AM - 5PM\u003cbr\u003eMarch 3: 7AM - 8PM","ParkingArea":null,"IsActive":null,"IsCancelled":null,"AdditionalInformation":"Fellowship Hall","VotingPeriod":4,"Latitude":33.908430742,"Longitude":-118.354620629},{"LocationID":6499,"LocationTypeCode":3,"ElectionID":4085,"Name":"Centinela Elementary School","Address":"1123 Marlborough Ave","City":"Inglewood","State":"CA","ZipCode":"90302","Hours":"February 29 - March 2: 8AM - 5PM\u003cbr\u003eMarch 3: 7AM - 8PM","ParkingArea":null,"IsActive":null,"IsCancelled":null,"AdditionalInformation":"Multi-Purpose Room","VotingPeriod":4,"Latitude":33.976861857,"Longitude":-118.345892819},{"LocationID":6085,"LocationTypeCode":3,"ElectionID":4085,"Name":"Central American Resource Center","Address":"2845 W 7th St","City":"Los Angeles","State":"CA","ZipCode":"90005","Hours":"February 29 - March 2: 8AM - 5PM\u003cbr\u003eMarch 3: 7AM - 8PM","ParkingArea":null,"IsActive":null,"IsCancelled":null,"AdditionalInformation":"Basement","VotingPeriod":4,"Latitude":34.059933967,"Longitude":-118.285418056},{"LocationID":6760,"LocationTypeCode":3,"ElectionID":4085,"Name":"Central Park Recreation Center","Address":"1357 E 22nd St","City":"Los Angeles","State":"CA","ZipCode":"90011","Hours":"February 29 - March 2: 8AM - 5PM\u003cbr\u003eMarch 3: 7AM - 8PM","ParkingArea":null,"IsActive":null,"IsCancelled":null,"AdditionalInformation":"Multi-Purpose Room","VotingPeriod":4,"Latitude":34.020899968,"Longitude":-118.251590056},{"LocationID":6883,"LocationTypeCode":3,"ElectionID":4085,"Name":"Centro Estrella","Address":"4701 E Cesar E Chavez Ave","City":"Los Angeles","State":"CA","ZipCode":"90222","Hours":"February 22 - March 2: 8AM - 5PM\u003cbr\u003eMarch 3: 7AM - 8PM","ParkingArea":null,"IsActive":null,"IsCancelled":null,"AdditionalInformation":"Conference Room","VotingPeriod":11,"Latitude":34.040629476,"Longitude":-118.164636000},{"LocationID":6058,"LocationTypeCode":3,"ElectionID":4085,"Name":"Century Villages at Cabrillo","Address":"2220 W Williams St","City":"Long Beach","State":"CA","ZipCode":"90810","Hours":"February 29 - March 2: 8AM - 5PM\u003cbr\u003eMarch 3: 7AM - 8PM","ParkingArea":null,"IsActive":null,"IsCancelled":null,"AdditionalInformation":"Social Hall","VotingPeriod":4,"Latitude":33.792264854,"Longitude":-118.222226707},{"LocationID":6638,"LocationTypeCode":3,"ElectionID":4085,"Name":"Cerritos College","Address":"11110 Alondra Blvd","City":"Norwalk","State":"CA","ZipCode":"90650","Hours":"February 29 - March 2: 8AM - 5PM\u003cbr\u003eMarch 3: 7AM - 8PM","ParkingArea":null,"IsActive":null,"IsCancelled":null,"AdditionalInformation":"Conference Center","VotingPeriod":4,"Latitude":33.887063639,"Longitude":-118.099372653},{"LocationID":6517,"LocationTypeCode":3,"ElectionID":4085,"Name":"Cesar E Chavez Park","Address":"401 Golden Ave","City":"Long Beach","State":"CA","ZipCode":"90802","Hours":"February 22 - March 2: 8AM - 5PM\u003cbr\u003eMarch 3: 7AM - 8PM","ParkingArea":null,"IsActive":null,"IsCancelled":null,"AdditionalInformation":"Social Hall","VotingPeriod":11,"Latitude":33.772068329,"Longitude":-118.202020873},{"LocationID":6437,"LocationTypeCode":3,"ElectionID":4085,"Name":"Charles Kim Elementary School","Address":"225 S Oxford Ave","City":"Los Angeles","State":"CA","ZipCode":"90004","Hours":"February 29 - March 2: 8AM - 5PM\u003cbr\u003eMarch 3: 7AM - 8PM","ParkingArea":null,"IsActive":null,"IsCancelled":null,"AdditionalInformation":"Multi-Purpose Room","VotingPeriod":4,"Latitude":34.070462779,"Longitude":-118.308074416},{"LocationID":6061,"LocationTypeCode":3,"ElectionID":4085,"Name":"Charles S Farnsworth Park","Address":"568 Mount Curve Ave E","City":"Altadena","State":"CA","ZipCode":"91001","Hours":"February 29 - March 2: 8AM - 5PM\u003cbr\u003eMarch 3: 7AM - 8PM","ParkingArea":null,"IsActive":null,"IsCancelled":null,"AdditionalInformation":"Auditorium","VotingPeriod":4,"Latitude":34.201728815,"Longitude":-118.133610137},{"LocationID":6606,"LocationTypeCode":3,"ElectionID":4085,"Name":"Cheremoya Avenue Elementary School","Address":"6017 Franklin Ave","City":"Los Angeles","State":"CA","ZipCode":"90028","Hours":"February 29 - March 2: 8AM - 5PM\u003cbr\u003eMarch 3: 7AM - 8PM","ParkingArea":null,"IsActive":null,"IsCancelled":null,"AdditionalInformation":"Auditorium","VotingPeriod":4,"Latitude":34.105270042,"Longitude":-118.321020000},{"LocationID":6020,"LocationTypeCode":3,"ElectionID":4085,"Name":"Chester W Nimitz Middle School","Address":"6021 Carmelita Ave","City":"Huntington Park","State":"CA","ZipCode":"90255","Hours":"February 29 - March 2: 8AM - 5PM\u003cbr\u003eMarch 3: 7AM - 8PM","ParkingArea":null,"IsActive":null,"IsCancelled":null,"AdditionalInformation":"Library","VotingPeriod":4,"Latitude":33.986036500,"Longitude":-118.198130300},{"LocationID":6204,"LocationTypeCode":3,"ElectionID":4085,"Name":"Chevy Chase Branch Library","Address":"3301 E Chevy Chase Dr","City":"Glendale","State":"CA","ZipCode":"91206","Hours":"February 29 - March 2: 8AM - 5PM\u003cbr\u003eMarch 3: 7AM - 8PM","ParkingArea":null,"IsActive":null,"IsCancelled":null,"AdditionalInformation":"Main Room","VotingPeriod":4,"Latitude":34.173912656,"Longitude":-118.199591166},{"LocationID":6759,"LocationTypeCode":3,"ElectionID":4085,"Name":"Chevy Chase Recreation Center","Address":"4165 Chevy Chase Dr","City":"Los Angeles","State":"CA","ZipCode":"90039","Hours":"February 29 - March 2: 8AM - 5PM\u003cbr\u003eMarch 3: 7AM - 8PM","ParkingArea":null,"IsActive":null,"IsCancelled":null,"AdditionalInformation":"Small Classroom","VotingPeriod":4,"Latitude":34.133546288,"Longitude":-118.266682112},{"LocationID":6455,"LocationTypeCode":3,"ElectionID":4085,"Name":"Chinatown Library","Address":"639 N Hill St","City":"Los Angeles","State":"CA","ZipCode":"90012","Hours":"February 29 - March 2: 8AM - 5PM\u003cbr\u003eMarch 3: 7AM - 8PM","ParkingArea":null,"IsActive":null,"IsCancelled":null,"AdditionalInformation":"Meeting Room","VotingPeriod":4,"Latitude":34.059856898,"Longitude":-118.241159240},{"LocationID":6162,"LocationTypeCode":3,"ElectionID":4085,"Name":"Christ Temple Church","Address":"3125 W 54th St","City":"Los Angeles","State":"CA","ZipCode":"90043","Hours":"February 29 - March 2: 8AM - 5PM\u003cbr\u003eMarch 3: 7AM - 8PM","ParkingArea":null,"IsActive":null,"IsCancelled":null,"AdditionalInformation":"Fellowship Hall","VotingPeriod":4,"Latitude":33.993342083,"Longitude":-118.327928787},{"LocationID":6154,"LocationTypeCode":3,"ElectionID":4085,"Name":"Christ the Good Shepherd Church","Address":"3303 W Vernon Ave","City":"Los Angeles","State":"CA","ZipCode":"90008","Hours":"February 29 - March 2: 8AM - 5PM\u003cbr\u003eMarch 3: 7AM - 8PM","ParkingArea":null,"IsActive":null,"IsCancelled":null,"AdditionalInformation":"Parish Hall","VotingPeriod":4,"Latitude":34.004319415,"Longitude":-118.329734165},{"LocationID":6887,"LocationTypeCode":3,"ElectionID":4085,"Name":"Christian Life Assembly","Address":"3250 E Lancaster Blvd","City":"Lancaster","State":"CA","ZipCode":"93535","Hours":"February 22 - March 2: 8AM - 5PM\u003cbr\u003eMarch 3: 7AM - 8PM","ParkingArea":null,"IsActive":null,"IsCancelled":null,"AdditionalInformation":"Room 106","VotingPeriod":11,"Latitude":34.696727015,"Longitude":-118.071251205},{"LocationID":6286,"LocationTypeCode":3,"ElectionID":4085,"Name":"Christian Life Church","Address":"3400 Pacific Ave","City":"Long Beach","State":"CA","ZipCode":"90807","Hours":"February 29 - March 2: 8AM - 5PM\u003cbr\u003eMarch 3: 7AM - 8PM","ParkingArea":null,"IsActive":null,"IsCancelled":null,"AdditionalInformation":"Fellowship Hall","VotingPeriod":4,"Latitude":33.819396992,"Longitude":-118.193080644},{"LocationID":6253,"LocationTypeCode":3,"ElectionID":4085,"Name":"Church of the Epiphany","Address":"2808 Altura","City":"Los Angeles","State":"CA","ZipCode":"90031","Hours":"February 29 - March 2: 8AM - 5PM\u003cbr\u003eMarch 3: 7AM - 8PM","ParkingArea":null,"IsActive":null,"IsCancelled":null,"AdditionalInformation":"Parish Hall","VotingPeriod":4,"Latitude":34.075365446,"Longitude":-118.212656288},{"LocationID":6273,"LocationTypeCode":3,"ElectionID":4085,"Name":"Cienega Elementary School","Address":"2611 S Orange Dr","City":"Los Angeles","State":"CA","ZipCode":"90016","Hours":"February 29 - March 2: 8AM - 5PM\u003cbr\u003eMarch 3: 7AM - 8PM","ParkingArea":null,"IsActive":null,"IsCancelled":null,"AdditionalInformation":"Auditorium","VotingPeriod":4,"Latitude":34.032038877,"Longitude":-118.353575953},{"LocationID":6209,"LocationTypeCode":3,"ElectionID":4085,"Name":"Cimmaron Avenue Elementary School","Address":"11559 Cimarron Ave","City":"Hawthorne","State":"CA","ZipCode":"90250","Hours":"February 29 - March 2: 8AM - 5PM\u003cbr\u003eMarch 3: 7AM - 8PM","ParkingArea":null,"IsActive":null,"IsCancelled":null,"AdditionalInformation":"Auditorium","VotingPeriod":4,"Latitude":33.929063284,"Longitude":-118.315978580},{"LocationID":6387,"LocationTypeCode":3,"ElectionID":4085,"Name":"Citadel Outlets","Address":"100 Citadel Dr","City":"Commerce","State":"CA","ZipCode":"90040","Hours":"February 29 - March 2: 8AM - 5PM\u003cbr\u003eMarch 3: 7AM - 8PM","ParkingArea":null,"IsActive":null,"IsCancelled":null,"AdditionalInformation":"Community Room","VotingPeriod":4,"Latitude":34.005090000,"Longitude":-118.152770000},{"LocationID":6396,"LocationTypeCode":3,"ElectionID":4085,"Name":"Citrus Valley Association of Realtors","Address":"504 E Route 66","City":"Glendora","State":"CA","ZipCode":"91740","Hours":"February 29 - March 2: 8AM - 5PM\u003cbr\u003eMarch 3: 7AM - 8PM","ParkingArea":null,"IsActive":null,"IsCancelled":null,"AdditionalInformation":"Education Center","VotingPeriod":4,"Latitude":34.128350756,"Longitude":-117.857913260},{"LocationID":6395,"LocationTypeCode":3,"ElectionID":4085,"Name":"City of Walnut Senior Center","Address":"21215 La Puente Rd","City":"Walnut","State":"CA","ZipCode":"91789","Hours":"February 29 - March 2: 8AM - 5PM\u003cbr\u003eMarch 3: 7AM - 8PM","ParkingArea":null,"IsActive":null,"IsCancelled":null,"AdditionalInformation":"Club Room 2","VotingPeriod":4,"Latitude":34.026761456,"Longitude":-117.841300345},{"LocationID":6249,"LocationTypeCode":3,"ElectionID":4085,"Name":"City Terrace Elementary School","Address":"4350 City Terrace Dr","City":"Los Angeles","State":"CA","ZipCode":"90063","Hours":"February 29 - March 2: 8AM - 5PM\u003cbr\u003eMarch 3: 7AM - 8PM","ParkingArea":null,"IsActive":null,"IsCancelled":null,"AdditionalInformation":"Auditorium","VotingPeriod":4,"Latitude":34.057317722,"Longitude":-118.171866662},{"LocationID":6146,"LocationTypeCode":3,"ElectionID":4085,"Name":"Clara Street Park","Address":"4835 Clara St","City":"Cudahy","State":"CA","ZipCode":"90201","Hours":"February 29 - March 2: 8AM - 5PM\u003cbr\u003eMarch 3: 7AM - 8PM","ParkingArea":null,"IsActive":null,"IsCancelled":null,"AdditionalInformation":"Multi-Purpose Room","VotingPeriod":4,"Latitude":33.965295136,"Longitude":-118.182719455},{"LocationID":6070,"LocationTypeCode":3,"ElectionID":4085,"Name":"Claremont Cntr for Spiritual Living","Address":"509 S College Ave","City":"Claremont","State":"CA","ZipCode":"91711","Hours":"February 29 - March 2: 8AM - 5PM\u003cbr\u003eMarch 3: 7AM - 8PM","ParkingArea":null,"IsActive":null,"IsCancelled":null,"AdditionalInformation":"Holmes Social Hall","VotingPeriod":4,"Latitude":34.086335883,"Longitude":-117.715971237},{"LocationID":6744,"LocationTypeCode":3,"ElectionID":4085,"Name":"Claremont Helen Renwick Library","Address":"208 Harvard Ave N","City":"Claremont","State":"CA","ZipCode":"91711","Hours":"February 22 - March 2: 8AM - 5PM\u003cbr\u003eMarch 3: 7AM - 8PM","ParkingArea":null,"IsActive":null,"IsCancelled":null,"AdditionalInformation":"Meeting Room","VotingPeriod":11,"Latitude":34.095924000,"Longitude":-117.715999500},{"LocationID":6192,"LocationTypeCode":3,"ElectionID":4085,"Name":"Claremont Joslyn Senior Center","Address":"660 N Mountain Ave","City":"Claremont","State":"CA","ZipCode":"91711","Hours":"February 29 - March 2: 8AM - 5PM\u003cbr\u003eMarch 3: 7AM - 8PM","ParkingArea":null,"IsActive":null,"IsCancelled":null,"AdditionalInformation":"Weinberger Wing","VotingPeriod":4,"Latitude":34.099147738,"Longitude":-117.728510377},{"LocationID":6002,"LocationTypeCode":3,"ElectionID":4085,"Name":"Clark Building","Address":"861 Valley Dr","City":"Hermosa Beach","State":"CA","ZipCode":"90254","Hours":"February 22 - March 2: 8AM - 5PM\u003cbr\u003eMarch 3: 7AM - 8PM","ParkingArea":null,"IsActive":null,"IsCancelled":null,"AdditionalInformation":"Clark Room","VotingPeriod":11,"Latitude":33.861024825,"Longitude":-118.394845260},{"LocationID":6822,"LocationTypeCode":3,"ElectionID":4085,"Name":"Claude Pepper Senior Center","Address":"1762 S La Cienega Blvd","City":"Los Angeles","State":"CA","ZipCode":"90035","Hours":"February 22 - March 2: 8AM - 5PM\u003cbr\u003eMarch 3: 7AM - 8PM","ParkingArea":null,"IsActive":null,"IsCancelled":null,"AdditionalInformation":"VIP Room","VotingPeriod":11,"Latitude":34.045266862,"Longitude":-118.376611073},{"LocationID":6259,"LocationTypeCode":3,"ElectionID":4085,"Name":"Cleveland Elementary School","Address":"524 Palisade St","City":"Pasadena","State":"CA","ZipCode":"91103","Hours":"February 29 - March 2: 8AM - 5PM\u003cbr\u003eMarch 3: 7AM - 8PM","ParkingArea":null,"IsActive":null,"IsCancelled":null,"AdditionalInformation":"Cafetorium","VotingPeriod":4,"Latitude":34.170614363,"Longitude":-118.161951572},{"LocationID":6044,"LocationTypeCode":3,"ElectionID":4085,"Name":"Cochran Avenue Baptist Church","Address":"1304 S Cochran Ave","City":"Los Angeles","State":"CA","ZipCode":"90019","Hours":"February 29 - March 2: 8AM - 5PM\u003cbr\u003eMarch 3: 7AM - 8PM","ParkingArea":null,"IsActive":null,"IsCancelled":null,"AdditionalInformation":"Fellowship Hall","VotingPeriod":4,"Latitude":34.050626132,"Longitude":-118.351600446},{"LocationID":6203,"LocationTypeCode":3,"ElectionID":4085,"Name":"Coeur D\u0027Alene Avenue Elementary","Address":"810 Coeur D Alene Ave","City":"Venice","State":"CA","ZipCode":"90291","Hours":"February 29 - March 2: 8AM - 5PM\u003cbr\u003eMarch 3: 7AM - 8PM","ParkingArea":null,"IsActive":null,"IsCancelled":null,"AdditionalInformation":"Auditorium","VotingPeriod":4,"Latitude":33.989797421,"Longitude":-118.453557242},{"LocationID":6505,"LocationTypeCode":3,"ElectionID":4085,"Name":"Col Leon H Washington Park","Address":"8908 S Maie Ave","City":"Los Angeles","State":"CA","ZipCode":"90002","Hours":"February 29 - March 2: 8AM - 5PM\u003cbr\u003eMarch 3: 7AM - 8PM","ParkingArea":null,"IsActive":null,"IsCancelled":null,"AdditionalInformation":"Community Center","VotingPeriod":4,"Latitude":33.956153195,"Longitude":-118.244126277},{"LocationID":6518,"LocationTypeCode":3,"ElectionID":4085,"Name":"College Estates Park","Address":"808 Stevely Ave","City":"Long Beach","State":"CA","ZipCode":"90815","Hours":"February 29 - March 2: 8AM - 5PM\u003cbr\u003eMarch 3: 7AM - 8PM","ParkingArea":null,"IsActive":null,"IsCancelled":null,"AdditionalInformation":"Activity Room","VotingPeriod":4,"Latitude":33.776665466,"Longitude":-118.099088226},{"LocationID":6872,"LocationTypeCode":3,"ElectionID":4085,"Name":"College of the Canyons","Address":"26455 Rockwell Canyon Rd","City":"Santa Clarita","State":"CA","ZipCode":"91355","Hours":"February 22 - March 2: 8AM - 5PM\u003cbr\u003eMarch 3: 7AM - 8PM","ParkingArea":null,"IsActive":null,"IsCancelled":null,"AdditionalInformation":"Seco Hall 101","VotingPeriod":11,"Latitude":34.402752000,"Longitude":-118.569141000},{"LocationID":6604,"LocationTypeCode":3,"ElectionID":4085,"Name":"Columbia Elementary School","Address":"3400 California Ave","City":"El Monte","State":"CA","ZipCode":"91731","Hours":"February 29 - March 2: 8AM - 5PM\u003cbr\u003eMarch 3: 7AM - 8PM","ParkingArea":null,"IsActive":null,"IsCancelled":null,"AdditionalInformation":"Multi-Purpose Room Hall 123","VotingPeriod":4,"Latitude":34.070917971,"Longitude":-118.033544176},{"LocationID":6368,"LocationTypeCode":3,"ElectionID":4085,"Name":"Columbus Elementary School","Address":"425 Milford St","City":"Glendale","State":"CA","ZipCode":"91203","Hours":"February 29 - March 2: 8AM - 5PM\u003cbr\u003eMarch 3: 7AM - 8PM","ParkingArea":null,"IsActive":null,"IsCancelled":null,"AdditionalInformation":"Auditorium","VotingPeriod":4,"Latitude":34.152713388,"Longitude":-118.262482903},{"LocationID":6521,"LocationTypeCode":3,"ElectionID":4085,"Name":"Columbus Middle School","Address":"22250 Elkwood St","City":"Canoga Park","State":"CA","ZipCode":"91304","Hours":"February 29 - March 2: 8AM - 5PM\u003cbr\u003eMarch 3: 7AM - 8PM","ParkingArea":null,"IsActive":null,"IsCancelled":null,"AdditionalInformation":"Library","VotingPeriod":4,"Latitude":34.212616171,"Longitude":-118.611703789},{"LocationID":6109,"LocationTypeCode":3,"ElectionID":4085,"Name":"Commerce Senior Citizens Center","Address":"2555 Commerce Way","City":"Commerce","State":"CA","ZipCode":"90040","Hours":"February 29 - March 2: 8AM - 5PM\u003cbr\u003eMarch 3: 7AM - 8PM","ParkingArea":null,"IsActive":null,"IsCancelled":null,"AdditionalInformation":"Craft Room","VotingPeriod":4,"Latitude":34.000299100,"Longitude":-118.155937600},{"LocationID":6724,"LocationTypeCode":3,"ElectionID":4085,"Name":"Community Church of Los Angeles","Address":"10611 S Hoover St","City":"Los Angeles","State":"CA","ZipCode":"90044","Hours":"February 29 - March 2: 8AM - 5PM\u003cbr\u003eMarch 3: 7AM - 8PM","ParkingArea":null,"IsActive":null,"IsCancelled":null,"AdditionalInformation":"Fellowship Hall","VotingPeriod":4,"Latitude":33.939470788,"Longitude":-118.287295811},{"LocationID":6577,"LocationTypeCode":3,"ElectionID":4085,"Name":"Compton Adult School","Address":"1104 E 148th St","City":"Compton","State":"CA","ZipCode":"90220","Hours":"February 29 - March 2: 8AM - 5PM\u003cbr\u003eMarch 3: 7AM - 8PM","ParkingArea":null,"IsActive":null,"IsCancelled":null,"AdditionalInformation":"Auditorium","VotingPeriod":4,"Latitude":33.898356661,"Longitude":-118.254595298},{"LocationID":6379,"LocationTypeCode":3,"ElectionID":4085,"Name":"Compton College","Address":"1111 E Artesia Blvd","City":"Compton","State":"CA","ZipCode":"90221","Hours":"February 22 - March 2: 8AM - 5PM\u003cbr\u003eMarch 3: 7AM - 8PM","ParkingArea":null,"IsActive":null,"IsCancelled":null,"AdditionalInformation":"Student Lounge","VotingPeriod":11,"Latitude":33.877299177,"Longitude":-118.209083804},{"LocationID":6293,"LocationTypeCode":3,"ElectionID":4085,"Name":"Compton High School","Address":"601 S Acacia Ave","City":"Compton","State":"CA","ZipCode":"90220","Hours":"February 29 - March 2: 8AM - 5PM\u003cbr\u003eMarch 3: 7AM - 8PM","ParkingArea":null,"IsActive":null,"IsCancelled":null,"AdditionalInformation":"Auditorium","VotingPeriod":4,"Latitude":33.891094192,"Longitude":-118.226296705},{"LocationID":6623,"LocationTypeCode":3,"ElectionID":4085,"Name":"Compton Library","Address":"240 W Compton Blvd","City":"Compton","State":"CA","ZipCode":"90220","Hours":"February 22 - March 2: 8AM - 5PM\u003cbr\u003eMarch 3: 7AM - 8PM","ParkingArea":null,"IsActive":null,"IsCancelled":null,"AdditionalInformation":"Meeting Room","VotingPeriod":11,"Latitude":33.895953358,"Longitude":-118.225704161},{"LocationID":6712,"LocationTypeCode":3,"ElectionID":4085,"Name":"Compton Neighborhood Center","Address":"600 N Alameda St","City":"Compton","State":"CA","ZipCode":"90221","Hours":"February 29 - March 2: 8AM - 5PM\u003cbr\u003eMarch 3: 7AM - 8PM","ParkingArea":null,"IsActive":null,"IsCancelled":null,"AdditionalInformation":"Blue Room","VotingPeriod":4,"Latitude":33.899936254,"Longitude":-118.220311990},{"LocationID":6377,"LocationTypeCode":3,"ElectionID":4085,"Name":"Cornerstone School at Pedregal","Address":"6069 Groveoak Pl","City":"Rancho Palos Verdes","State":"CA","ZipCode":"90275","Hours":"February 29 - March 2: 8AM - 5PM\u003cbr\u003eMarch 3: 7AM - 8PM","ParkingArea":null,"IsActive":null,"IsCancelled":null,"AdditionalInformation":"Multi-Purpose Room","VotingPeriod":4,"Latitude":33.786839839,"Longitude":-118.384430836},{"LocationID":6453,"LocationTypeCode":3,"ElectionID":4085,"Name":"Cortada Elementary School","Address":"3111 Potrero Ave","City":"El Monte","State":"CA","ZipCode":"91733","Hours":"February 29 - March 2: 8AM - 5PM\u003cbr\u003eMarch 3: 7AM - 8PM","ParkingArea":null,"IsActive":null,"IsCancelled":null,"AdditionalInformation":"Multi-Purpose Room","VotingPeriod":4,"Latitude":34.065411705,"Longitude":-118.056992862},{"LocationID":6008,"LocationTypeCode":3,"ElectionID":4085,"Name":"Cortez Park Comm \u0026 Senior Center","Address":"2501 E Cortez St","City":"West Covina","State":"CA","ZipCode":"91791","Hours":"February 29 - March 2: 8AM - 5PM\u003cbr\u003eMarch 3: 7AM - 8PM","ParkingArea":null,"IsActive":null,"IsCancelled":null,"AdditionalInformation":"North Wing","VotingPeriod":4,"Latitude":34.064834400,"Longitude":-117.891591400},{"LocationID":6150,"LocationTypeCode":3,"ElectionID":4085,"Name":"Covenant Manor","Address":"600 E 4th St","City":"Long Beach","State":"CA","ZipCode":"90802","Hours":"February 29 - March 2: 8AM - 5PM\u003cbr\u003eMarch 3: 7AM - 8PM","ParkingArea":null,"IsActive":null,"IsCancelled":null,"AdditionalInformation":"Community Room","VotingPeriod":4,"Latitude":33.771449923,"Longitude":-118.184711832},{"LocationID":6546,"LocationTypeCode":3,"ElectionID":4085,"Name":"Covina Senior \u0026 Community Center","Address":"815 N Barranca Ave","City":"Covina","State":"CA","ZipCode":"91723","Hours":"February 29 - March 2: 8AM - 5PM\u003cbr\u003eMarch 3: 7AM - 8PM","ParkingArea":null,"IsActive":null,"IsCancelled":null,"AdditionalInformation":"California Rooms 1, 2 and 3","VotingPeriod":4,"Latitude":34.094200475,"Longitude":-117.883455014},{"LocationID":6567,"LocationTypeCode":3,"ElectionID":4085,"Name":"Covina Woman\u0027s Club","Address":"128 S San Jose Ave","City":"Covina","State":"CA","ZipCode":"91723","Hours":"February 22 - March 2: 8AM - 5PM\u003cbr\u003eMarch 3: 7AM - 8PM","ParkingArea":null,"IsActive":null,"IsCancelled":null,"AdditionalInformation":"Hall","VotingPeriod":11,"Latitude":34.085251019,"Longitude":-117.883088046},{"LocationID":6067,"LocationTypeCode":3,"ElectionID":4085,"Name":"Cowan Avenue Elementary","Address":"7615 Cowan Ave","City":"Los Angeles","State":"CA","ZipCode":"90045","Hours":"February 29 - March 2: 8AM - 5PM\u003cbr\u003eMarch 3: 7AM - 8PM","ParkingArea":null,"IsActive":null,"IsCancelled":null,"AdditionalInformation":"Classroom","VotingPeriod":4,"Latitude":33.972919000,"Longitude":-118.405044000},{"LocationID":6130,"LocationTypeCode":3,"ElectionID":4085,"Name":"Crowell Public Library","Address":"1890 Huntington Dr","City":"San Marino","State":"CA","ZipCode":"91108","Hours":"February 29 - March 2: 8AM - 5PM\u003cbr\u003eMarch 3: 7AM - 8PM","ParkingArea":null,"IsActive":null,"IsCancelled":null,"AdditionalInformation":"Community Meeting Barth Room","VotingPeriod":4,"Latitude":34.118996374,"Longitude":-118.112554865},{"LocationID":6309,"LocationTypeCode":3,"ElectionID":4085,"Name":"Cudahy City Hall","Address":"5220 Santa Ana St","City":"Cudahy","State":"CA","ZipCode":"90201","Hours":"February 29 - March 2: 8AM - 5PM\u003cbr\u003eMarch 3: 7AM - 8PM","ParkingArea":null,"IsActive":null,"IsCancelled":null,"AdditionalInformation":"Bedwell Hall","VotingPeriod":4,"Latitude":33.959622949,"Longitude":-118.174768467},{"LocationID":6408,"LocationTypeCode":3,"ElectionID":4085,"Name":"Cypress Elementary School","Address":"351 Cypress St","City":"Covina","State":"CA","ZipCode":"91723","Hours":"February 29 - March 2: 8AM - 5PM\u003cbr\u003eMarch 3: 7AM - 8PM","ParkingArea":null,"IsActive":null,"IsCancelled":null,"AdditionalInformation":"Cafeteria","VotingPeriod":4,"Latitude":34.096527378,"Longitude":-117.895776224},{"LocationID":6868,"LocationTypeCode":3,"ElectionID":4085,"Name":"Dan Diaz Recreation Center","Address":"16053 Calle De Paseo","City":"Irwindale","State":"CA","ZipCode":"91706","Hours":"February 22 - March 2: 8AM - 5PM\u003cbr\u003eMarch 3: 7AM - 8PM","ParkingArea":null,"IsActive":null,"IsCancelled":null,"AdditionalInformation":"Hall / Meeting Room","VotingPeriod":11,"Latitude":34.103811453,"Longitude":-117.932653341},{"LocationID":6608,"LocationTypeCode":3,"ElectionID":4085,"Name":"Daniel Webster Middle School","Address":"11330 Graham Pl","City":"Los Angeles","State":"CA","ZipCode":"90064","Hours":"February 29 - March 2: 8AM - 5PM\u003cbr\u003eMarch 3: 7AM - 8PM","ParkingArea":null,"IsActive":null,"IsCancelled":null,"AdditionalInformation":"Multi-Purpose Room","VotingPeriod":4,"Latitude":34.029822298,"Longitude":-118.435434875},{"LocationID":6764,"LocationTypeCode":3,"ElectionID":4085,"Name":"David M Gonzales Recreation Center","Address":"10943 Herrick Ave","City":"Pacoima","State":"CA","ZipCode":"91331","Hours":"February 29 - March 2: 8AM - 5PM\u003cbr\u003eMarch 3: 7AM - 8PM","ParkingArea":null,"IsActive":null,"IsCancelled":null,"AdditionalInformation":"Multi-Purpose Room","VotingPeriod":4,"Latitude":34.269223966,"Longitude":-118.413023056},{"LocationID":6346,"LocationTypeCode":3,"ElectionID":4085,"Name":"Dearborn Elementary Charter Academy","Address":"9240 Wish Ave","City":"Northridge","State":"CA","ZipCode":"91325","Hours":"February 29 - March 2: 8AM - 5PM\u003cbr\u003eMarch 3: 7AM - 8PM","ParkingArea":null,"IsActive":null,"IsCancelled":null,"AdditionalInformation":"Auditorium","VotingPeriod":4,"Latitude":34.238805433,"Longitude":-118.508277041},{"LocationID":5995,"LocationTypeCode":3,"ElectionID":4085,"Name":"Del Amo Elementary School","Address":"21228 Water St","City":"Carson","State":"CA","ZipCode":"90745","Hours":"February 29 - March 2: 8AM - 5PM\u003cbr\u003eMarch 3: 7AM - 8PM","ParkingArea":null,"IsActive":null,"IsCancelled":null,"AdditionalInformation":"Auditorium","VotingPeriod":4,"Latitude":33.835964030,"Longitude":-118.240736387},{"LocationID":6106,"LocationTypeCode":3,"ElectionID":4085,"Name":"Denker Elementary School","Address":"1620 W 162nd St","City":"Gardena","State":"CA","ZipCode":"90247","Hours":"February 29 - March 2: 8AM - 5PM\u003cbr\u003eMarch 3: 7AM - 8PM","ParkingArea":null,"IsActive":null,"IsCancelled":null,"AdditionalInformation":"Auditorium","VotingPeriod":4,"Latitude":33.882818128,"Longitude":-118.305440650},{"LocationID":6048,"LocationTypeCode":3,"ElectionID":4085,"Name":"Desert Willow Middle School","Address":"36555 Sunny Ln","City":"Palmdale","State":"CA","ZipCode":"93550","Hours":"February 29 - March 2: 8AM - 5PM\u003cbr\u003eMarch 3: 7AM - 8PM","ParkingArea":null,"IsActive":null,"IsCancelled":null,"AdditionalInformation":"Library","VotingPeriod":4,"Latitude":34.545753956,"Longitude":-118.081798154},{"LocationID":6094,"LocationTypeCode":3,"ElectionID":4085,"Name":"Dewey Avenue Elementary School","Address":"525 Dewey Ave","City":"San Gabriel","State":"CA","ZipCode":"91776","Hours":"February 29 - March 2: 8AM - 5PM\u003cbr\u003eMarch 3: 7AM - 8PM","ParkingArea":null,"IsActive":null,"IsCancelled":null,"AdditionalInformation":"Library","VotingPeriod":4,"Latitude":34.077956927,"Longitude":-118.093407819},{"LocationID":6320,"LocationTypeCode":3,"ElectionID":4085,"Name":"Dexter Park","Address":"11053 North Trail","City":"Sylmar","State":"CA","ZipCode":"91342","Hours":"February 29 - March 2: 8AM - 5PM\u003cbr\u003eMarch 3: 7AM - 8PM","ParkingArea":null,"IsActive":null,"IsCancelled":null,"AdditionalInformation":"Gymnasium","VotingPeriod":4,"Latitude":34.294962139,"Longitude":-118.374946464},{"LocationID":6610,"LocationTypeCode":3,"ElectionID":4085,"Name":"Diamond Bar Center","Address":"1600 Grand Ave","City":"Diamond Bar","State":"CA","ZipCode":"91765","Hours":"February 29 - March 2: 8AM - 5PM\u003cbr\u003eMarch 3: 7AM - 8PM","ParkingArea":null,"IsActive":null,"IsCancelled":null,"AdditionalInformation":"Oak Room","VotingPeriod":4,"Latitude":33.998693046,"Longitude":-117.797869114},{"LocationID":6489,"LocationTypeCode":3,"ElectionID":4085,"Name":"Diamond Bar City Hall","Address":"21810 Copley Dr","City":"Diamond Bar","State":"CA","ZipCode":"91765","Hours":"February 29 - March 2: 8AM - 5PM\u003cbr\u003eMarch 3: 7AM - 8PM","ParkingArea":null,"IsActive":null,"IsCancelled":null,"AdditionalInformation":"Windmill Room","VotingPeriod":4,"Latitude":33.999326052,"Longitude":-117.830249016},{"LocationID":6199,"LocationTypeCode":3,"ElectionID":4085,"Name":"Diamond Point Elementary School","Address":"24150 Sunset Crossing Rd","City":"Diamond Bar","State":"CA","ZipCode":"91765","Hours":"February 29 - March 2: 8AM - 5PM\u003cbr\u003eMarch 3: 7AM - 8PM","ParkingArea":null,"IsActive":null,"IsCancelled":null,"AdditionalInformation":"Multi-Purpose Room","VotingPeriod":4,"Latitude":34.031989760,"Longitude":-117.798188930},{"LocationID":6328,"LocationTypeCode":3,"ElectionID":4085,"Name":"Diamond Ranch High School","Address":"100 Diamond Ranch Rd","City":"Pomona","State":"CA","ZipCode":"91766","Hours":"February 29 - March 2: 8AM - 5PM\u003cbr\u003eMarch 3: 7AM - 8PM","ParkingArea":null,"IsActive":null,"IsCancelled":null,"AdditionalInformation":"Gymnasium Hallway","VotingPeriod":4,"Latitude":34.022396362,"Longitude":-117.777204128},{"LocationID":6120,"LocationTypeCode":3,"ElectionID":4085,"Name":"Disabled American Veterans Hall","Address":"6543 Corbin Ave","City":"Woodland Hills","State":"CA","ZipCode":"91367","Hours":"February 22 - March 2: 8AM - 5PM\u003cbr\u003eMarch 3: 7AM - 8PM","ParkingArea":null,"IsActive":null,"IsCancelled":null,"AdditionalInformation":"Meeting Room","VotingPeriod":11,"Latitude":34.189392463,"Longitude":-118.562430122},{"LocationID":6609,"LocationTypeCode":3,"ElectionID":4085,"Name":"Dockweiler Youth Center","Address":"12505 Vista Del Mar","City":"Playa Del Rey","State":"CA","ZipCode":"90293","Hours":"February 22 - March 2: 8AM - 5PM\u003cbr\u003eMarch 3: 7AM - 8PM","ParkingArea":null,"IsActive":null,"IsCancelled":null,"AdditionalInformation":"Community Rooms A, B and C","VotingPeriod":11,"Latitude":33.922562998,"Longitude":-118.430917576},{"LocationID":6803,"LocationTypeCode":3,"ElectionID":4085,"Name":"Dollarhide Health Center","Address":"1108 N Oleander Ave","City":"Compton","State":"CA","ZipCode":"90222","Hours":"February 22 - March 2: 8AM - 5PM\u003cbr\u003eMarch 3: 7AM - 8PM","ParkingArea":null,"IsActive":null,"IsCancelled":null,"AdditionalInformation":"Multi-Purpose Room","VotingPeriod":11,"Latitude":33.903466150,"Longitude":-118.230025510},{"LocationID":6351,"LocationTypeCode":3,"ElectionID":4085,"Name":"Dominguez Community Center","Address":"21156 Santa Fe Ave","City":"Carson","State":"CA","ZipCode":"90810","Hours":"February 29 - March 2: 8AM - 5PM\u003cbr\u003eMarch 3: 7AM - 8PM","ParkingArea":null,"IsActive":null,"IsCancelled":null,"AdditionalInformation":"Social Hall","VotingPeriod":4,"Latitude":33.836897311,"Longitude":-118.214697833},{"LocationID":6101,"LocationTypeCode":3,"ElectionID":4085,"Name":"Dominguez Hills Estates","Address":"19009 S Laurel Park Rd","City":"Rancho Dominguez","State":"CA","ZipCode":"90220","Hours":"February 29 - March 2: 8AM - 5PM\u003cbr\u003eMarch 3: 7AM - 8PM","ParkingArea":null,"IsActive":null,"IsCancelled":null,"AdditionalInformation":"Club House","VotingPeriod":4,"Latitude":33.855938800,"Longitude":-118.225160100},{"LocationID":6555,"LocationTypeCode":3,"ElectionID":4085,"Name":"Don Julian Elementary School","Address":"13855 Don Julian Rd","City":"La Puente","State":"CA","ZipCode":"91746","Hours":"February 29 - March 2: 8AM - 5PM\u003cbr\u003eMarch 3: 7AM - 8PM","ParkingArea":null,"IsActive":null,"IsCancelled":null,"AdditionalInformation":"Cafeteria","VotingPeriod":4,"Latitude":34.037841990,"Longitude":-117.993241674},{"LocationID":6042,"LocationTypeCode":3,"ElectionID":4085,"Name":"Don Knabe Community Regional Park","Address":"19700 Bloomfield Ave","City":"Cerritos","State":"CA","ZipCode":"90703","Hours":"February 29 - March 2: 8AM - 5PM\u003cbr\u003eMarch 3: 7AM - 8PM","ParkingArea":null,"IsActive":null,"IsCancelled":null,"AdditionalInformation":"Multi-Purpose Room","VotingPeriod":4,"Latitude":33.852637131,"Longitude":-118.061771062},{"LocationID":6188,"LocationTypeCode":3,"ElectionID":4085,"Name":"Dorris Place Elementary School","Address":"2225 Dorris Pl","City":"Los Angeles","State":"CA","ZipCode":"90031","Hours":"February 29 - March 2: 8AM - 5PM\u003cbr\u003eMarch 3: 7AM - 8PM","ParkingArea":null,"IsActive":null,"IsCancelled":null,"AdditionalInformation":"Auditorium","VotingPeriod":4,"Latitude":34.090760240,"Longitude":-118.237930601},{"LocationID":6452,"LocationTypeCode":3,"ElectionID":4085,"Name":"Downey Community \u0026 Senior Center","Address":"7810 Quill Dr","City":"Downey","State":"CA","ZipCode":"90242","Hours":"February 29 - March 2: 8AM - 5PM\u003cbr\u003eMarch 3: 7AM - 8PM","ParkingArea":null,"IsActive":null,"IsCancelled":null,"AdditionalInformation":"Downey Room","VotingPeriod":4,"Latitude":33.928839137,"Longitude":-118.153845012},{"LocationID":6695,"LocationTypeCode":3,"ElectionID":4085,"Name":"Downey Elks Lodge #2020","Address":"11233 Woodruff Ave","City":"Downey","State":"CA","ZipCode":"90241","Hours":"February 29 - March 2: 8AM - 5PM\u003cbr\u003eMarch 3: 7AM - 8PM","ParkingArea":null,"IsActive":null,"IsCancelled":null,"AdditionalInformation":"Large Room","VotingPeriod":4,"Latitude":33.931375935,"Longitude":-118.118051677},{"LocationID":6627,"LocationTypeCode":3,"ElectionID":4085,"Name":"Downey United Methodist Church","Address":"10801 Downey Ave","City":"Downey","State":"CA","ZipCode":"90241","Hours":"February 29 - March 2: 8AM - 5PM\u003cbr\u003eMarch 3: 7AM - 8PM","ParkingArea":null,"IsActive":null,"IsCancelled":null,"AdditionalInformation":"Fellowship Hall","VotingPeriod":4,"Latitude":33.943614518,"Longitude":-118.131013167},{"LocationID":6049,"LocationTypeCode":3,"ElectionID":4085,"Name":"Drake Park","Address":"951 Maine Ave","City":"Long Beach","State":"CA","ZipCode":"90813","Hours":"February 29 - March 2: 8AM - 5PM\u003cbr\u003eMarch 3: 7AM - 8PM","ParkingArea":null,"IsActive":null,"IsCancelled":null,"AdditionalInformation":"Social Hall","VotingPeriod":4,"Latitude":33.778715158,"Longitude":-118.201882446},{"LocationID":6491,"LocationTypeCode":3,"ElectionID":4085,"Name":"Duarte City Hall","Address":"1600 Huntington Dr","City":"Duarte","State":"CA","ZipCode":"91010","Hours":"February 29 - March 2: 8AM - 5PM\u003cbr\u003eMarch 3: 7AM - 8PM","ParkingArea":null,"IsActive":null,"IsCancelled":null,"AdditionalInformation":"Community Room","VotingPeriod":4,"Latitude":34.139566459,"Longitude":-117.971543803},{"LocationID":6685,"LocationTypeCode":3,"ElectionID":4085,"Name":"Dunsmore Elementary School","Address":"4717 Dunsmore Ave","City":"Glendale","State":"CA","ZipCode":"91214","Hours":"February 29 - March 2: 8AM - 5PM\u003cbr\u003eMarch 3: 7AM - 8PM","ParkingArea":null,"IsActive":null,"IsCancelled":null,"AdditionalInformation":"Cafetorium","VotingPeriod":4,"Latitude":34.239717492,"Longitude":-118.257462688},{"LocationID":6056,"LocationTypeCode":3,"ElectionID":4085,"Name":"E Whittier United Methodist Church","Address":"10005 Cole Rd","City":"Whittier","State":"CA","ZipCode":"90603","Hours":"February 22 - March 2: 8AM - 5PM\u003cbr\u003eMarch 3: 7AM - 8PM","ParkingArea":null,"IsActive":null,"IsCancelled":null,"AdditionalInformation":"Greer Hall","VotingPeriod":11,"Latitude":33.946077128,"Longitude":-118.006323960},{"LocationID":6584,"LocationTypeCode":3,"ElectionID":4085,"Name":"Eagle Rock Plaza","Address":"2700 Colorado Blvd","City":"Los Angeles","State":"CA","ZipCode":"90041","Hours":"February 29 - March 2: 8AM - 5PM\u003cbr\u003eMarch 3: 7AM - 8PM","ParkingArea":null,"IsActive":null,"IsCancelled":null,"AdditionalInformation":"Room 108","VotingPeriod":4,"Latitude":34.141130719,"Longitude":-118.225100096},{"LocationID":6757,"LocationTypeCode":3,"ElectionID":4085,"Name":"Eagle Rock Recreation Center","Address":"1100 Eagle Vista Dr","City":"Los Angeles","State":"CA","ZipCode":"90041","Hours":"February 29 - March 2: 8AM - 5PM\u003cbr\u003eMarch 3: 7AM - 8PM","ParkingArea":null,"IsActive":null,"IsCancelled":null,"AdditionalInformation":"Multi-Purpose Room","VotingPeriod":4,"Latitude":34.143258253,"Longitude":-118.188798231},{"LocationID":6264,"LocationTypeCode":3,"ElectionID":4085,"Name":"East LA Boys \u0026 Girls Club","Address":"324 N McDonnell Ave","City":"Los Angeles","State":"CA","ZipCode":"90022","Hours":"February 29 - March 2: 8AM - 5PM\u003cbr\u003eMarch 3: 7AM - 8PM","ParkingArea":null,"IsActive":null,"IsCancelled":null,"AdditionalInformation":"Gymnasium","VotingPeriod":4,"Latitude":34.039396421,"Longitude":-118.166807172},{"LocationID":6640,"LocationTypeCode":3,"ElectionID":4085,"Name":"East LA College","Address":"1301 Cesar Chavez Ave","City":"Monterey Park","State":"CA","ZipCode":"91754","Hours":"February 29 - March 2: 8AM - 5PM\u003cbr\u003eMarch 3: 7AM - 8PM","ParkingArea":null,"IsActive":null,"IsCancelled":null,"AdditionalInformation":"Music Bldg - Room 121","VotingPeriod":4,"Latitude":34.040535686,"Longitude":-118.150941426},{"LocationID":6390,"LocationTypeCode":3,"ElectionID":4085,"Name":"East LA Service Center","Address":"133 N Sunol Dr","City":"Los Angeles","State":"CA","ZipCode":"90063","Hours":"February 22 - March 2: 8AM - 5PM\u003cbr\u003eMarch 3: 7AM - 8PM","ParkingArea":null,"IsActive":null,"IsCancelled":null,"AdditionalInformation":"Multi-Purpose Room","VotingPeriod":11,"Latitude":34.037381402,"Longitude":-118.178435817},{"LocationID":6274,"LocationTypeCode":3,"ElectionID":4085,"Name":"East Los Angeles Library","Address":"4837 E 3rd St","City":"Los Angeles","State":"CA","ZipCode":"90022","Hours":"February 29 - March 2: 8AM - 5PM\u003cbr\u003eMarch 3: 7AM - 8PM","ParkingArea":null,"IsActive":null,"IsCancelled":null,"AdditionalInformation":"Gloria Molina Meeting Room","VotingPeriod":4,"Latitude":34.033485412,"Longitude":-118.160373026},{"LocationID":6680,"LocationTypeCode":3,"ElectionID":4085,"Name":"East Rancho Dominguez Park","Address":"15116 S Atlantic Ave","City":"Compton","State":"CA","ZipCode":"90221","Hours":"February 29 - March 2: 8AM - 5PM\u003cbr\u003eMarch 3: 7AM - 8PM","ParkingArea":null,"IsActive":null,"IsCancelled":null,"AdditionalInformation":"Multi-Purpose Room","VotingPeriod":4,"Latitude":33.895367978,"Longitude":-118.193129041},{"LocationID":6506,"LocationTypeCode":3,"ElectionID":4085,"Name":"East Whittier Christian Church","Address":"9951 Mills Ave","City":"Whittier","State":"CA","ZipCode":"90604","Hours":"February 29 - March 2: 8AM - 5PM\u003cbr\u003eMarch 3: 7AM - 8PM","ParkingArea":null,"IsActive":null,"IsCancelled":null,"AdditionalInformation":"Fellowship Hall","VotingPeriod":4,"Latitude":33.943294522,"Longitude":-118.027625859},{"LocationID":6861,"LocationTypeCode":3,"ElectionID":4085,"Name":"Eastmont Intermediate School","Address":"400 Bradshawe St","City":"Montebello","State":"CA","ZipCode":"90640","Hours":"February 29 - March 2: 8AM - 5PM\u003cbr\u003eMarch 3: 7AM - 8PM","ParkingArea":null,"IsActive":null,"IsCancelled":null,"AdditionalInformation":"Auditorium Foyer","VotingPeriod":4,"Latitude":34.022878715,"Longitude":-118.140084955},{"LocationID":6053,"LocationTypeCode":3,"ElectionID":4085,"Name":"Eaton Canyon Nature Center","Address":"1750 N Altadena Dr","City":"Pasadena","State":"CA","ZipCode":"91107","Hours":"February 29 - March 2: 8AM - 5PM\u003cbr\u003eMarch 3: 7AM - 8PM","ParkingArea":null,"IsActive":null,"IsCancelled":null,"AdditionalInformation":"Auditorium","VotingPeriod":4,"Latitude":34.177217744,"Longitude":-118.096998366},{"LocationID":6823,"LocationTypeCode":3,"ElectionID":4085,"Name":"Echo Park Recreation Center","Address":"1632 Bellevue Ave","City":"Los Angeles","State":"CA","ZipCode":"90026","Hours":"February 22 - March 2: 8AM - 5PM\u003cbr\u003eMarch 3: 7AM - 8PM","ParkingArea":null,"IsActive":null,"IsCancelled":null,"AdditionalInformation":"Foyer / Lobby","VotingPeriod":11,"Latitude":34.069975577,"Longitude":-118.259978400},{"LocationID":6117,"LocationTypeCode":3,"ElectionID":4085,"Name":"Edgewood Academy Elementary School","Address":"14135 Fairgrove Ave","City":"La Puente","State":"CA","ZipCode":"91746","Hours":"February 29 - March 2: 8AM - 5PM\u003cbr\u003eMarch 3: 7AM - 8PM","ParkingArea":null,"IsActive":null,"IsCancelled":null,"AdditionalInformation":"Cafeteria","VotingPeriod":4,"Latitude":34.056126429,"Longitude":-117.967318911},{"LocationID":6618,"LocationTypeCode":3,"ElectionID":4085,"Name":"Edison Elementary School","Address":"2110 W Chestnut St","City":"Burbank","State":"CA","ZipCode":"91506","Hours":"February 29 - March 2: 8AM - 5PM\u003cbr\u003eMarch 3: 7AM - 8PM","ParkingArea":null,"IsActive":null,"IsCancelled":null,"AdditionalInformation":"Auditorium","VotingPeriod":4,"Latitude":34.178500135,"Longitude":-118.333315066},{"LocationID":6838,"LocationTypeCode":3,"ElectionID":4085,"Name":"Edison Language Academy","Address":"2402 Virginia Ave","City":"Santa Monica","State":"CA","ZipCode":"90404","Hours":"February 29 - March 2: 8AM - 5PM\u003cbr\u003eMarch 3: 7AM - 8PM","ParkingArea":null,"IsActive":null,"IsCancelled":null,"AdditionalInformation":"Library","VotingPeriod":4,"Latitude":34.024122941,"Longitude":-118.466175691},