{
"type": "FeatureCollection",
"crs": { "type": "name", "properties": { "name": "urn:ogc:def:crs:OGC:1.3:CRS84" } },
"features": [
{ "type": "Feature", "properties": { "id": "93", "title": "Aliso Viejo (Temp Hrs)", "street": "26741 Aliso Creek Rd #D", "city": "Aliso Viejo", "state": "CA", "postal_code": "92656", "latitude": "33.5743603", "longitude": "-117.7256999", "phone": "(949) 389-9399" }, "geometry": { "type": "Point", "coordinates": [ -117.7256999, 33.5743603 ] } },
{ "type": "Feature", "properties": { "id": "113", "title": "Austin, TX (temporarily Closed)", "street": "96 Rainey Street", "city": "Austin", "state": "TX", "postal_code": "78701", "latitude": "30.2608129", "longitude": "-97.7382116", "phone": "" }, "geometry": { "type": "Point", "coordinates": [ -97.7382116, 30.2608129 ] } },
{ "type": "Feature", "properties": { "id": "82", "title": "Boulder", "street": "2790 Pearl Street", "city": "Boulder", "state": "CO", "postal_code": "80301", "latitude": "40.021868", "longitude": "-105.258716", "phone": "(303) 473-9072" }, "geometry": { "type": "Point", "coordinates": [ -105.258716, 40.021868 ] } },
{ "type": "Feature", "properties": { "id": "87", "title": "Costa Mesa Bristol St (Temp Hrs)", "street": "3000 Bristol St", "city": "Costa Mesa", "state": "CA", "postal_code": "92626", "latitude": "33.6803383", "longitude": "-117.885316", "phone": "(714) 435-0130" }, "geometry": { "type": "Point", "coordinates": [ -117.885316, 33.6803383 ] } },
{ "type": "Feature", "properties": { "id": "86", "title": "Costa Mesa Placentia Ave (Temp Hrs)", "street": "1862 Placentia Ave", "city": "Costa Mesa", "state": "CA", "postal_code": "92627", "latitude": "33.6421361", "longitude": "-117.9317195", "phone": "(949) 631-3433" }, "geometry": { "type": "Point", "coordinates": [ -117.9317195, 33.6421361 ] } },
{ "type": "Feature", "properties": { "id": "110", "title": "Crypto.com Arena", "street": "Near Section 117", "city": "Los Angeles", "state": "CA", "postal_code": "90015", "latitude": "34.0390107", "longitude": "-118.2672801", "phone": "" }, "geometry": { "type": "Point", "coordinates": [ -118.2672801, 34.0390107 ] } },
{ "type": "Feature", "properties": { "id": "80", "title": "Denver", "street": "1233 South Colorado Blvd", "city": "Denver", "state": "CO", "postal_code": "80246", "latitude": "39.6944068", "longitude": "-104.94103", "phone": "(720) 974-7470" }, "geometry": { "type": "Point", "coordinates": [ -104.94103, 39.6944068 ] } },
{ "type": "Feature", "properties": { "id": "99", "title": "Encinitas (Temp Hrs)", "street": "1006 N. El Camino Real #C", "city": "Encinitas", "state": "CA", "postal_code": "92024", "latitude": "33.064349", "longitude": "-117.2640752", "phone": "(760) 753-5060" }, "geometry": { "type": "Point", "coordinates": [ -117.2640752, 33.064349 ] } },
{ "type": "Feature", "properties": { "id": "104", "title": "Fashion Island (Temp Hrs)", "street": "401 Newport Center Drive, #A101", "city": "Newport Beach", "state": "CA", "postal_code": "92660", "latitude": "33.6161555", "longitude": "-117.8751234", "phone": "(949) 760-0290" }, "geometry": { "type": "Point", "coordinates": [ -117.8751234, 33.6161555 ] } },
{ "type": "Feature", "properties": { "id": "98", "title": "Foothill Ranch  (Temp Hrs)", "street": "27412 Portola Pkwy Unit A", "city": "Lake Forest", "state": "CA", "postal_code": "92610", "latitude": "33.6714059", "longitude": "-117.65295", "phone": "(949) 639-0344" }, "geometry": { "type": "Point", "coordinates": [ -117.65295, 33.6714059 ] } },
{ "type": "Feature", "properties": { "id": "66", "title": "Fresno - Campus Pointe", "street": "3053 E. Campus Pointe Dr.", "city": "Fresno", "state": "CA", "postal_code": "93740", "latitude": "36.8120913", "longitude": "-119.7349178", "phone": "(559) 322-1982" }, "geometry": { "type": "Point", "coordinates": [ -119.7349178, 36.8120913 ] } },
{ "type": "Feature", "properties": { "id": "97", "title": "Fullerton (Temp Hrs)", "street": "444 N. Harbor Blvd #100", "city": "Fullerton", "state": "CA", "postal_code": "92832", "latitude": "33.8736217", "longitude": "-117.9239058", "phone": "(714) 525-4110" }, "geometry": { "type": "Point", "coordinates": [ -117.9239058, 33.8736217 ] } },
{ "type": "Feature", "properties": { "id": "71", "title": "Henderson - Black Mountain (Temp Hrs)", "street": "76 Horizon Ridge Pkwy #C-100 A & B", "city": "Henderson", "state": "NV", "postal_code": "89012", "latitude": "36.0138654", "longitude": "-114.9928066", "phone": "(702) 567-1033" }, "geometry": { "type": "Point", "coordinates": [ -114.9928066, 36.0138654 ] } },
{ "type": "Feature", "properties": { "id": "115", "title": "Henderson - Eastern Ave - Open 24 hrs", "street": "10430 S. Eastern Ave, Henderson", "city": "Henderson", "state": "NV", "postal_code": "89052", "latitude": "36.00159790000001", "longitude": "-115.106971", "phone": "702-463-4113" }, "geometry": { "type": "Point", "coordinates": [ -115.106971, 36.0015979 ] } },
{ "type": "Feature", "properties": { "id": "76", "title": "Highlands Ranch", "street": "870 CPL Max Donahue Lane #C", "city": "Highlands Ranch", "state": "CO", "postal_code": "80129", "latitude": "39.549055", "longitude": "-104.9992656", "phone": "(720) 344-6049" }, "geometry": { "type": "Point", "coordinates": [ -104.9992656, 39.549055 ] } },
{ "type": "Feature", "properties": { "id": "63", "title": "Huntington Beach - Warner Ave (Temp Hrs)", "street": "7891 Warner Ave", "city": "Huntington Beach", "state": "CA", "postal_code": "92647", "latitude": "33.7161233", "longitude": "-117.9908399", "phone": "(714) 847-0555" }, "geometry": { "type": "Point", "coordinates": [ -117.9908399, 33.7161233 ] } },
{ "type": "Feature", "properties": { "id": "103", "title": "Huntington Beach Main St", "street": "120 Main Street", "city": "Huntington Beach", "state": "CA", "postal_code": "92648", "latitude": "33.6576656", "longitude": "-118.0012594", "phone": "(714) 536-2050" }, "geometry": { "type": "Point", "coordinates": [ -118.0012594, 33.6576656 ] } },
{ "type": "Feature", "properties": { "id": "92", "title": "Irvine (Temp Hrs)", "street": "2967 Michelson #F", "city": "Irvine", "state": "CA", "postal_code": "92612", "latitude": "33.6724068", "longitude": "-117.8466656", "phone": "(949) 253-9532" }, "geometry": { "type": "Point", "coordinates": [ -117.8466656, 33.6724068 ] } },
{ "type": "Feature", "properties": { "id": "100", "title": "Irvine Spectrum (Temp Hrs)", "street": "715 Spectrum Center Dr", "city": "Irvine", "state": "CA", "postal_code": "92618", "latitude": "33.6500193", "longitude": "-117.7418266", "phone": "(949) 753-0251" }, "geometry": { "type": "Point", "coordinates": [ -117.7418266, 33.6500193 ] } },
{ "type": "Feature", "properties": { "id": "88", "title": "Laguna Beach", "street": "1133 Pacific Coast Highway, S Coast Hwy", "city": "Laguna Beach", "state": "CA", "postal_code": "92651", "latitude": "33.5338275", "longitude": "-117.7770167", "phone": "(949) 497-0033" }, "geometry": { "type": "Point", "coordinates": [ -117.7770167, 33.5338275 ] } },
{ "type": "Feature", "properties": { "id": "89", "title": "Lake Forest (Temp Hrs)", "street": "23572 El Toro Rd Ste D", "city": "Lake Forest", "state": "CA", "postal_code": "92630", "latitude": "33.620006", "longitude": "-117.7006358", "phone": "(949) 830-7386" }, "geometry": { "type": "Point", "coordinates": [ -117.7006358, 33.620006 ] } },
{ "type": "Feature", "properties": { "id": "78", "title": "Lakewood", "street": "280 S. Union Blvd", "city": "Lakewood", "state": "CO", "postal_code": "80228", "latitude": "39.7114388", "longitude": "-105.1328721", "phone": "(303) 202-9978" }, "geometry": { "type": "Point", "coordinates": [ -105.1328721, 39.7114388 ] } },
{ "type": "Feature", "properties": { "id": "70", "title": "Las Vegas - Boca Park (Temp Hrs)", "street": "1000 S. Rampart #21", "city": "Las Vegas", "state": "NV", "postal_code": "89145", "latitude": "36.1604854", "longitude": "-115.289963", "phone": "(702) 776-7600" }, "geometry": { "type": "Point", "coordinates": [ -115.289963, 36.1604854 ] } },
{ "type": "Feature", "properties": { "id": "73", "title": "Las Vegas - Centennial Hills (Temp Hrs)", "street": "7930 W Tropical Pkwy #120", "city": "Las Vegas", "state": "NV", "postal_code": "89149", "latitude": "36.2709431", "longitude": "-115.2681725", "phone": "(702) 724-9801" }, "geometry": { "type": "Point", "coordinates": [ -115.2681725, 36.2709431 ] } },
{ "type": "Feature", "properties": { "id": "69", "title": "Las Vegas - Sunset - Open 24 hrs", "street": "7020 W. Sunset Rd.", "city": "Las Vegas", "state": "NV", "postal_code": "89113", "latitude": "36.0708554", "longitude": "-115.244908", "phone": "(702) 399-1665" }, "geometry": { "type": "Point", "coordinates": [ -115.244908, 36.0708554 ] } },
{ "type": "Feature", "properties": { "id": "72", "title": "Las Vegas - West Flamingo - Open 24 hrs", "street": "3891 West Flamingo", "city": "Las Vegas", "state": "NV", "postal_code": "89103", "latitude": "36.11514", "longitude": "-115.19223", "phone": "(702) 929-3300" }, "geometry": { "type": "Point", "coordinates": [ -115.19223, 36.11514 ] } },
{ "type": "Feature", "properties": { "id": "109", "title": "LAX", "street": "Terminal 6", "city": "Los Angeles", "state": "CA", "postal_code": "90045", "latitude": "33.942638", "longitude": "-118.4021726", "phone": "" }, "geometry": { "type": "Point", "coordinates": [ -118.4021726, 33.942638 ] } },
{ "type": "Feature", "properties": { "id": "107", "title": "Long Beach Exchange (Temp Hrs)", "street": "4201 McGowen, Suite 205", "city": "Long Beach", "state": "CA", "postal_code": "90808", "latitude": "33.8305976", "longitude": "-118.1440402", "phone": "(562) 354-2121" }, "geometry": { "type": "Point", "coordinates": [ -118.1440402, 33.8305976 ] } },
{ "type": "Feature", "properties": { "id": "111", "title": "Long Beach Marketplace (Temp Hrs)", "street": "6449 Pacific Coast Hwy", "city": "Long Beach", "state": "CA", "postal_code": "90803", "latitude": "33.7566475", "longitude": "-118.1098293", "phone": "(562) 430-7034" }, "geometry": { "type": "Point", "coordinates": [ -118.1098293, 33.7566475 ] } },
{ "type": "Feature", "properties": { "id": "75", "title": "Longmont", "street": "1087 S. Hover Road Unit C", "city": "Longmont", "state": "CO", "postal_code": "80501", "latitude": "40.1471924", "longitude": "-105.1319152", "phone": "(303) 776-5625" }, "geometry": { "type": "Point", "coordinates": [ -105.1319152, 40.1471924 ] } },
{ "type": "Feature", "properties": { "id": "64", "title": "Los Alamitos (Temp Hrs)", "street": "10931 Los Alamitos Blvd", "city": "Los Alamitos", "state": "CA", "postal_code": "90720", "latitude": "33.8037285", "longitude": "-118.0723499", "phone": "(562) 598-0080" }, "geometry": { "type": "Point", "coordinates": [ -118.0723499, 33.8037285 ] } },
{ "type": "Feature", "properties": { "id": "85", "title": "New Jersey", "street": "1147 NJ-35", "city": "Middletown", "state": "NJ", "postal_code": "7748", "latitude": "40.3987716", "longitude": "-74.1103121", "phone": "(732) 671-8226" }, "geometry": { "type": "Point", "coordinates": [ -74.1103121, 40.3987716 ] } },
{ "type": "Feature", "properties": { "id": "105", "title": "Norco (Temp Hrs)", "street": "1295 Hamner Ave", "city": "Norco", "state": "CA", "postal_code": "92860", "latitude": "33.9001593", "longitude": "-117.5616753", "phone": "(951) 270-0526" }, "geometry": { "type": "Point", "coordinates": [ -117.5616753, 33.9001593 ] } },
{ "type": "Feature", "properties": { "id": "81", "title": "Northfield at Stapleton", "street": "7980 E. 49th Ave", "city": "Denver", "state": "CO", "postal_code": "80238", "latitude": "39.785478", "longitude": "-104.8955228", "phone": "(303) 574-0466" }, "geometry": { "type": "Point", "coordinates": [ -104.8955228, 39.785478 ] } },
{ "type": "Feature", "properties": { "id": "74", "title": "Ontario International Airport", "street": "Terminal 4", "city": "Ontario", "state": "CA", "postal_code": "91761", "latitude": "34.0602799", "longitude": "-117.5872622", "phone": "" }, "geometry": { "type": "Point", "coordinates": [ -117.5872622, 34.0602799 ] } },
{ "type": "Feature", "properties": { "id": "102", "title": "Orange (Temp Hrs)", "street": "234 W. Chapman Ave.", "city": "Orange", "state": "CA", "postal_code": "92866", "latitude": "33.7876351", "longitude": "-117.8548592", "phone": "(714) 289-1579" }, "geometry": { "type": "Point", "coordinates": [ -117.8548592, 33.7876351 ] } },
{ "type": "Feature", "properties": { "id": "79", "title": "Park Meadows", "street": "9617 E. County Line Rd #A", "city": "Engelwood", "state": "CO", "postal_code": "80112", "latitude": "39.5674054", "longitude": "-104.8760648", "phone": "(303) 662-8226" }, "geometry": { "type": "Point", "coordinates": [ -104.8760648, 39.5674054 ] } },
{ "type": "Feature", "properties": { "id": "106", "title": "Rancho Cucamonga (Temp Hrs)", "street": "11561 Foothill Blvd Ste 101", "city": "Rancho Cucamonga", "state": "CA", "postal_code": "91730", "latitude": "34.1060605", "longitude": "-117.552331", "phone": "(909) 948-6949" }, "geometry": { "type": "Point", "coordinates": [ -117.552331, 34.1060605 ] } },
{ "type": "Feature", "properties": { "id": "91", "title": "San Clemente (Temp Hrs)", "street": "641 Camino de los Mares #A100", "city": "San Clemente", "state": "CA", "postal_code": "92673", "latitude": "33.4594165", "longitude": "-117.6505433", "phone": "(949) 487-6995" }, "geometry": { "type": "Point", "coordinates": [ -117.6505433, 33.4594165 ] } },
{ "type": "Feature", "properties": { "id": "96", "title": "South Coast Plaza (Temp Hrs)", "street": "3333 Bear St #211", "city": "Costa Mesa", "state": "CA", "postal_code": "92626", "latitude": "33.6924446", "longitude": "-117.8932716", "phone": "(714) 549-0565" }, "geometry": { "type": "Point", "coordinates": [ -117.8932716, 33.6924446 ] } },
{ "type": "Feature", "properties": { "id": "62", "title": "Temecula (Temp Hrs)", "street": "29073 Overland Drive", "city": "Temecula", "state": "CA", "postal_code": "92590", "latitude": "33.5190102", "longitude": "-117.1519952", "phone": "(951) 694-4444" }, "geometry": { "type": "Point", "coordinates": [ -117.1519952, 33.5190102 ] } },
{ "type": "Feature", "properties": { "id": "84", "title": "Tokyo", "street": "7010 H.L.N.A. Skygarden", "city": "Diver City Tokyo Plaza 7F", "state": "1-1-10 Aomi, Koto-ku", "postal_code": "135-0064 Tokyo, Japan", "latitude": "35.6246984", "longitude": "139.7748291", "phone": "" }, "geometry": { "type": "Point", "coordinates": [ 139.7748291, 35.6246984 ] } },
{ "type": "Feature", "properties": { "id": "94", "title": "Torrance (Temp Hrs)", "street": "3556 Torrance Blvd #E", "city": "Torrance", "state": "CA", "postal_code": "90503", "latitude": "33.837203", "longitude": "-118.3489799", "phone": "(310) 540-7725" }, "geometry": { "type": "Point", "coordinates": [ -118.3489799, 33.837203 ] } },
{ "type": "Feature", "properties": { "id": "90", "title": "Tustin (Temp Hrs)", "street": "13791 Newport Ave #4", "city": "Tustin", "state": "CA", "postal_code": "92780", "latitude": "33.7404424", "longitude": "-117.8201731", "phone": "(714) 544-1154" }, "geometry": { "type": "Point", "coordinates": [ -117.8201731, 33.7404424 ] } },
{ "type": "Feature", "properties": { "id": "114", "title": "UC Santa Barbara (closed temporaily)", "street": "1304 UCEN Rd", "city": "Isla Vista", "state": "CA", "postal_code": "93117", "latitude": "34.4115603", "longitude": "-119.8475683", "phone": "805-685-2582" }, "geometry": { "type": "Point", "coordinates": [ -119.8475683, 34.4115603 ] } },
{ "type": "Feature", "properties": { "id": "95", "title": "Yorba Linda (Temp Hrs)", "street": "23042 Eastpark Drive", "city": "Yorba Linda", "state": "CA", "postal_code": "92887", "latitude": "33.8718364", "longitude": "-117.7361919", "phone": "(714) 921-3051" }, "geometry": { "type": "Point", "coordinates": [ -117.7361919, 33.8718364 ] } }
]
}
