,locationID,locationTypeCode,electionID,name,address,city,state,zipCode,hours,parkingArea,isActive,isCancelled,additionalInformation,votingPeriod,latitude,longitude,waitTime,waitTimeTS,earlyVotingOpenTimeInPT,earlyVotingCloseTimeInPT,electionDayOpenTimeInPT,electionDayCloseTimeInPT,isInEarlyVotingRange,isInElectionDayRange,isWaitTimeUpdated,isOpenButNotReported,showLocationClosed,electionDate,earlyVotingStartDate,earlyVotingEndtDate,fiveDayStartDate
0,14246,3,4193,100 Thieves,6050 Jefferson Blvd,Los Angeles,CA,90016,"10/30 - 11/02: 10:00 AM to 7:00 PM, 11/03: 7:00 AM to 8:00 PM ",,,,Outdoor - Parking Lot,5,34.020498,-118.380778,8,2020-11-03T09:00:04.73,,,,,False,True,True,False,False,2020-11-03T00:00:00,2020-10-24T00:00:00,2020-11-02T00:00:00,2020-10-30T00:00:00
1,14247,3,4193,15th Street Elementary School,1527 S Mesa St,San Pedro,CA,90731,"10/30 - 11/02: 10:00 AM to 7:00 PM, 11/03: 7:00 AM to 8:00 PM ",,,,Auditorium,5,33.730121,-118.286437,8,2020-11-03T09:00:04.73,,,,,False,True,True,False,False,2020-11-03T00:00:00,2020-10-24T00:00:00,2020-11-02T00:00:00,2020-10-30T00:00:00
2,14045,3,4193,A C Bilbrew Library,150 E El Segundo Blvd,Los Angeles,CA,90061,"10/30 - 11/02: 10:00 AM to 7:00 PM, 11/03: 7:00 AM to 8:00 PM ",,,,Library Room and Lobby,5,33.916229,-118.272075,8,2020-11-03T09:00:04.653,,,,,False,True,True,False,False,2020-11-03T00:00:00,2020-10-24T00:00:00,2020-11-02T00:00:00,2020-10-30T00:00:00
3,5194,3,4193,A C Stelle Middle School,22450 Mulholland Hwy,Calabasas,CA,91302,"10/30 - 11/02: 10:00 AM to 7:00 PM, 11/03: 7:00 AM to 8:00 PM ",,,,Multi-Purpose Room,5,34.142307,-118.61324,5,2020-11-03T09:00:04.467,,,,,False,True,True,False,False,2020-11-03T00:00:00,2020-10-24T00:00:00,2020-11-02T00:00:00,2020-10-30T00:00:00
4,14139,3,4193,A V Fair and Event Center,2551 West Avenue H,Lancaster,CA,93536,"10/30 - 11/02: 10:00 AM to 7:00 PM, 11/03: 7:00 AM to 8:00 PM ",,,,H W Hunter Pavilion,5,34.719336,-118.176637,8,2020-11-03T09:00:04.687,,,,,False,True,True,False,False,2020-11-03T00:00:00,2020-10-24T00:00:00,2020-11-02T00:00:00,2020-10-30T00:00:00
5,14597,3,4193,Abraham Lincoln High School,3501 N Broadway,Los Angeles,CA,90031,"10/30 - 11/02: 10:00 AM to 7:00 PM, 11/03: 7:00 AM to 8:00 PM ",,,,Small Court Gymnasium,5,34.074291,-118.203296,8,2020-11-03T09:00:04.81,,,,,False,True,True,False,False,2020-11-03T00:00:00,2020-10-24T00:00:00,2020-11-02T00:00:00,2020-10-30T00:00:00
6,13156,3,4193,ACF Beshir Mardirossian Youth Center,75 E Santa Anita Ave,Burbank,CA,91502,"10/24 - 11/02: 10:00 AM to 7:00 PM, 11/03: 7:00 AM to 8:00 PM ",,,,Liberty Hall,11,34.176629,-118.306306,8,2020-11-03T09:00:04.59,,,,,False,True,True,False,False,2020-11-03T00:00:00,2020-10-24T00:00:00,2020-11-02T00:00:00,2020-10-30T00:00:00
7,13199,3,4193,Acton Elementary School,32248 Crown Valley Rd,Acton,CA,93510,"10/30 - 11/02: 10:00 AM to 7:00 PM, 11/03: 7:00 AM to 8:00 PM ",,,,Multi-Purpose Room,5,34.472996,-118.196376,8,2020-11-03T09:00:04.59,,,,,False,True,True,False,False,2020-11-03T00:00:00,2020-10-24T00:00:00,2020-11-02T00:00:00,2020-10-30T00:00:00
8,13923,3,4193,Acton Rehabilitation Center,30500 Arrastre Canyon Rd,Acton,CA,93510,"10/30 - 11/02: 10:00 AM to 7:00 PM, 11/03: 7:00 AM to 8:00 PM ",,,,Men's Dining Hall,5,34.449505,-118.198485,0,2020-11-03T09:00:04.64,,,,,False,True,True,False,False,2020-11-03T00:00:00,2020-10-24T00:00:00,2020-11-02T00:00:00,2020-10-30T00:00:00
9,14157,3,4193,Adat Ari El,12020 Burbank Blvd,Valley Village,CA,91607,"10/30 - 11/02: 10:00 AM to 7:00 PM, 11/03: 7:00 AM to 8:00 PM ",,,,Jacoby Social & Sisterhood Lounge,5,34.171434,-118.395534,8,2020-11-03T09:00:04.697,,,,,False,True,True,False,False,2020-11-03T00:00:00,2020-10-24T00:00:00,2020-11-02T00:00:00,2020-10-30T00:00:00
10,14140,3,4193,Agoura Hills/Calabasas Community Center,27040 Malibu Hills Rd,Calabasas,CA,91301,"10/24 - 11/02: 10:00 AM to 7:00 PM, 11/03: 7:00 AM to 8:00 PM ",,,,"Agoura, Las Virgenes & Calabasas Rooms",11,34.136251,-118.71299,8,2020-11-03T09:00:04.687,,,,,False,True,True,False,False,2020-11-03T00:00:00,2020-10-24T00:00:00,2020-11-02T00:00:00,2020-10-30T00:00:00
11,14589,3,4193,Agua Dulce Airpark,33638 Agua Dulce Canyon Rd,Santa Clarita,CA,91390,"10/30 - 11/02: 10:00 AM to 7:00 PM, 11/03: 7:00 AM to 8:00 PM ",,,,Air Hangar,5,34.50312,-118.315458,8,2020-11-03T09:00:04.81,,,,,False,True,True,False,False,2020-11-03T00:00:00,2020-10-24T00:00:00,2020-11-02T00:00:00,2020-10-30T00:00:00
12,14253,3,4193,Alcott Elementary School,1600 S Towne Ave,Pomona,CA,91766,"10/30 - 11/02: 10:00 AM to 7:00 PM, 11/03: 7:00 AM to 8:00 PM ",,,,Auditorium,5,34.042905,-117.74082,23,2020-11-03T09:00:04.73,,,,,False,True,True,False,False,2020-11-03T00:00:00,2020-10-24T00:00:00,2020-11-02T00:00:00,2020-10-30T00:00:00
13,1883,3,4193,Alfred B Nobel Charter Middle School,9950 Tampa Ave,Northridge,CA,91324,"10/30 - 11/02: 10:00 AM to 7:00 PM, 11/03: 7:00 AM to 8:00 PM ",,,,Multi-Purpose Room,5,34.250663,-118.552722,4,2020-11-03T09:00:04.387,,,,,False,True,True,False,False,2020-11-03T00:00:00,2020-10-24T00:00:00,2020-11-02T00:00:00,2020-10-30T00:00:00
14,13181,3,4193,Alondra Community Regional Park,3535 Redondo Beach  Blvd,Torrance,CA,90260,"10/24 - 11/02: 10:00 AM to 7:00 PM, 11/03: 7:00 AM to 8:00 PM ",,,,Gymnasium,11,33.880741,-118.334304,8,2020-11-03T09:00:04.59,,,,,False,True,True,False,False,2020-11-03T00:00:00,2020-10-24T00:00:00,2020-11-02T00:00:00,2020-10-30T00:00:00
15,14141,3,4193,Alondra Middle School,16200 Downey Ave,Paramount,CA,90723,"10/30 - 11/02: 10:00 AM to 7:00 PM, 11/03: 7:00 AM to 8:00 PM ",,,,Gym,5,33.887273,-118.151322,2,2020-11-03T09:00:04.687,,,,,False,True,True,False,False,2020-11-03T00:00:00,2020-10-24T00:00:00,2020-11-02T00:00:00,2020-10-30T00:00:00
16,13203,3,4193,Altadena Senior Center,560 E Mariposa St,Altadena,CA,91001,"10/30 - 11/02: 10:00 AM to 7:00 PM, 11/03: 7:00 AM to 8:00 PM ",,,,Multi-Purpose Room,5,34.18955,-118.137896,4,2020-11-03T09:00:04.607,,,,,False,True,True,False,False,2020-11-03T00:00:00,2020-10-24T00:00:00,2020-11-02T00:00:00,2020-10-30T00:00:00
17,14255,3,4193,Alvarado Intermediate School,1901 Desire Ave,Rowland Heights,CA,91748,"10/30 - 11/02: 10:00 AM to 7:00 PM, 11/03: 7:00 AM to 8:00 PM ",,,,Multi-Purpose Room,5,33.98349,-117.895462,8,2020-11-03T09:00:04.73,,,,,False,True,True,False,False,2020-11-03T00:00:00,2020-10-24T00:00:00,2020-11-02T00:00:00,2020-10-30T00:00:00
18,14142,3,4193,Amargosa Creek Middle School,44333 27th Street West,Lancaster,CA,93534,"10/30 - 11/02: 10:00 AM to 7:00 PM, 11/03: 7:00 AM to 8:00 PM ",,,,Gymnasium,5,34.688512,-118.180185,8,2020-11-03T09:00:04.69,,,,,False,True,True,False,False,2020-11-03T00:00:00,2020-10-24T00:00:00,2020-11-02T00:00:00,2020-10-30T00:00:00
19,1760,3,4193,American Gold Star Manor,3021 N Gold Star Dr,Long Beach,CA,90810,"10/24 - 11/02: 10:00 AM to 7:00 PM, 11/03: 7:00 AM to 8:00 PM ",,,,Capt Leonard Rec Hall,11,33.814324,-118.217617,8,2020-11-03T09:00:04.387,,,,,False,True,True,False,False,2020-11-03T00:00:00,2020-10-24T00:00:00,2020-11-02T00:00:00,2020-10-30T00:00:00
20,14046,3,4193,Anderson W Clark Magnet High School,4747 New York Ave,Glendale,CA,91214,"10/30 - 11/02: 10:00 AM to 7:00 PM, 11/03: 7:00 AM to 8:00 PM ",,,,Auditeria,5,34.236922,-118.253067,8,2020-11-03T09:00:04.653,,,,,False,True,True,False,False,2020-11-03T00:00:00,2020-10-24T00:00:00,2020-11-02T00:00:00,2020-10-30T00:00:00
21,14143,3,4193,Animo Florence-Firestone Charter School,8255 Beach St,Los Angeles,CA,90001,"10/30 - 11/02: 10:00 AM to 7:00 PM, 11/03: 7:00 AM to 8:00 PM ",,,,Gymnasium,5,33.962702,-118.242236,8,2020-11-03T09:00:04.69,,,,,False,True,True,False,False,2020-11-03T00:00:00,2020-10-24T00:00:00,2020-11-02T00:00:00,2020-10-30T00:00:00
22,14256,3,4193,Animo Pat Brown Charter High School,8205 Beach St,Los Angeles,CA,90001,"10/30 - 11/02: 10:00 AM to 7:00 PM, 11/03: 7:00 AM to 8:00 PM ",,,,Gymnasium,5,33.964124,-118.242243,8,2020-11-03T09:00:04.73,,,,,False,True,True,False,False,2020-11-03T00:00:00,2020-10-24T00:00:00,2020-11-02T00:00:00,2020-10-30T00:00:00
23,14047,3,4193,Antelope Valley Church of God in Christ,37827 97th Street East,Littlerock,CA,93543,"10/30 - 11/02: 10:00 AM to 7:00 PM, 11/03: 7:00 AM to 8:00 PM ",,,,Sanctuary,5,34.569531,-117.956954,8,2020-11-03T09:00:04.653,,,,,False,True,True,False,False,2020-11-03T00:00:00,2020-10-24T00:00:00,2020-11-02T00:00:00,2020-10-30T00:00:00
24,14601,3,4193,Applied Technology Center High School,1200 W Mines Ave,Montebello,CA,90640,"10/30 - 11/02: 10:00 AM to 7:00 PM, 11/03: 7:00 AM to 8:00 PM ",,,,Multi-Purpose Room and Bistro,5,34.004009,-118.115866,8,2020-11-03T09:00:04.81,,,,,False,True,True,False,False,2020-11-03T00:00:00,2020-10-24T00:00:00,2020-11-02T00:00:00,2020-10-30T00:00:00
25,4403,3,4193,Arlington Heights Elementary School,1717 7th Ave,Los Angeles,CA,90019,"10/30 - 11/02: 10:00 AM to 7:00 PM, 11/03: 7:00 AM to 8:00 PM ",,,,Auditorium,5,34.041208,-118.325185,0,2020-11-03T09:00:04.45,,,,,False,True,True,False,False,2020-11-03T00:00:00,2020-10-24T00:00:00,2020-11-02T00:00:00,2020-10-30T00:00:00
26,12803,3,4193,Armenian Cilicia Evangelical Church,339 S Santa Anita Ave,Pasadena,CA,91107,"10/30 - 11/02: 10:00 AM to 7:00 PM, 11/03: 7:00 AM to 8:00 PM ",,,,Derian Hall,5,34.140276,-118.098955,3,2020-11-03T09:00:04.59,,,,,False,True,True,False,False,2020-11-03T00:00:00,2020-10-24T00:00:00,2020-11-02T00:00:00,2020-10-30T00:00:00
27,4656,3,4193,Armstrong Elementary School,22750 Beaverhead Dr,Diamond Bar,CA,91765,"10/30 - 11/02: 10:00 AM to 7:00 PM, 11/03: 7:00 AM to 8:00 PM ",,,,Multi-Purpose Room,5,34.021386,-117.818493,8,2020-11-03T09:00:04.45,,,,,False,True,True,False,False,2020-11-03T00:00:00,2020-10-24T00:00:00,2020-11-02T00:00:00,2020-10-30T00:00:00
28,14584,3,4193,Artesia DES Portuguese Hall,11903 Ashworth St,Artesia,CA,90701,"10/24 - 11/02: 10:00 AM to 7:00 PM, 11/03: 7:00 AM to 8:00 PM ",,,,South DES Hall,11,33.868976,-118.07935,8,2020-11-03T09:00:04.807,,,,,False,True,True,False,False,2020-11-03T00:00:00,2020-10-24T00:00:00,2020-11-02T00:00:00,2020-10-30T00:00:00
29,14260,3,4193,Athens Park,12603 S Broadway,Los Angeles,CA,90061,"10/24 - 11/02: 10:00 AM to 7:00 PM, 11/03: 7:00 AM to 8:00 PM ",,,,Multi-Purpose Room and Tiny Tot Room,11,33.919755,-118.278632,8,2020-11-03T09:00:04.73,,,,,False,True,True,False,False,2020-11-03T00:00:00,2020-10-24T00:00:00,2020-11-02T00:00:00,2020-10-30T00:00:00
30,2569,3,4193,Atwater Avenue Elementary School,3271 Silver Lake Blvd,Los Angeles,CA,90039,"10/30 - 11/02: 10:00 AM to 7:00 PM, 11/03: 7:00 AM to 8:00 PM ",,,,Auditorium,5,34.114637,-118.253917,4,2020-11-03T09:00:04.42,,,,,False,True,True,False,False,2020-11-03T00:00:00,2020-10-24T00:00:00,2020-11-02T00:00:00,2020-10-30T00:00:00
31,14525,3,4193,Augustus Hawkins High School,825 W 60th St,Los Angeles,CA,90044,"10/30 - 11/02: 10:00 AM to 7:00 PM, 11/03: 7:00 AM to 8:00 PM ",,,,Small Gymnasium,5,33.98581,-118.288052,7,2020-11-03T09:00:04.777,,,,,False,True,True,False,False,2020-11-03T00:00:00,2020-10-24T00:00:00,2020-11-02T00:00:00,2020-10-30T00:00:00
32,14553,3,4193,Avenue of the Stars,10050 Constellation Blvd,Los Angeles,CA,90067,"10/30 - 11/02: 10:00 AM to 7:00 PM, 11/03: 7:00 AM to 8:00 PM ",,,,Suite 60,5,34.05887,-118.415199,8,2020-11-03T09:00:04.79,,,,,False,True,True,False,False,2020-11-03T00:00:00,2020-10-24T00:00:00,2020-11-02T00:00:00,2020-10-30T00:00:00
33,13821,3,4193,Aviation Gymnasium,1935 Manhattan Beach Blvd,Redondo Beach,CA,90278,"10/30 - 11/02: 10:00 AM to 7:00 PM, 11/03: 7:00 AM to 8:00 PM ",,,,Large Gymnasium,5,33.887499,-118.378103,8,2020-11-03T09:00:04.623,,,,,False,True,True,False,False,2020-11-03T00:00:00,2020-10-24T00:00:00,2020-11-02T00:00:00,2020-10-30T00:00:00
34,14145,3,4193,Awaken LA Church,5853 Laurel Canyon Blvd,Valley Village,CA,91607,"10/30 - 11/02: 10:00 AM to 7:00 PM, 11/03: 7:00 AM to 8:00 PM ",,,,Fellowship Room,5,34.1771,-118.396931,8,2020-11-03T09:00:04.69,,,,,False,True,True,False,False,2020-11-03T00:00:00,2020-10-24T00:00:00,2020-11-02T00:00:00,2020-10-30T00:00:00
35,11533,3,4193,Azusa Women's Club,1003 N Azusa Ave,Azusa,CA,91702,"10/24 - 11/02: 10:00 AM to 7:00 PM, 11/03: 7:00 AM to 8:00 PM ",,,,Banquet Room,11,34.139122,-117.907556,8,2020-11-03T09:00:04.56,,,,,False,True,True,False,False,2020-11-03T00:00:00,2020-10-24T00:00:00,2020-11-02T00:00:00,2020-10-30T00:00:00
36,14550,3,4193,Baldwin Park Library,4181 Baldwin Park Blvd,Baldwin Park,CA,91706,"10/30 - 11/02: 10:00 AM to 7:00 PM, 11/03: 7:00 AM to 8:00 PM ",,,,Meeting Room and Teen Area,5,34.088062,-117.965424,9,2020-11-03T09:00:04.79,,,,,False,True,True,False,False,2020-11-03T00:00:00,2020-10-24T00:00:00,2020-11-02T00:00:00,2020-10-30T00:00:00
37,13803,3,4193,Banc of California Stadium,3939 S Figueroa St,Los Angeles,CA,90037,"10/30 - 11/02: 10:00 AM to 7:00 PM, 11/03: 7:00 AM to 8:00 PM ",,,,West Concourse,5,34.011733,-118.282958,4,2020-11-03T09:00:04.607,,,,,False,True,True,False,False,2020-11-03T00:00:00,2020-10-24T00:00:00,2020-11-02T00:00:00,2020-10-30T00:00:00
38,6867,3,4193,Banning Recreation Center,1331 Eubank Ave,Wilmington,CA,90744,"10/30 - 11/02: 10:00 AM to 7:00 PM, 11/03: 7:00 AM to 8:00 PM ",,,,Main Gymnasium,5,33.790186,-118.256248,8,2020-11-03T09:00:04.497,,,,,False,True,True,False,False,2020-11-03T00:00:00,2020-10-24T00:00:00,2020-11-02T00:00:00,2020-10-30T00:00:00
39,10308,3,4193,Barker Hangar,3021 Airport Ave Suite 203,Santa Monica,CA,90405,"10/30 - 11/02: 10:00 AM to 7:00 PM, 11/03: 7:00 AM to 8:00 PM ",,,,Hangar,5,34.014752,-118.449556,8,2020-11-03T09:00:04.543,,,,,False,True,True,False,False,2020-11-03T00:00:00,2020-10-24T00:00:00,2020-11-02T00:00:00,2020-10-30T00:00:00
40,9733,3,4193,Barrington Recreation Center,333 S Barrington Ave,Los Angeles,CA,90049,"10/30 - 11/02: 10:00 AM to 7:00 PM, 11/03: 7:00 AM to 8:00 PM ",,,,Gymnasium,5,34.061348,-118.468867,4,2020-11-03T09:00:04.53,,,,,False,True,True,False,False,2020-11-03T00:00:00,2020-10-24T00:00:00,2020-11-02T00:00:00,2020-10-30T00:00:00
41,8746,3,4193,Barrio Action Youth and Family Center,4927 Huntington Dr N Unit 200,Los Angeles,CA,90032,"10/30 - 11/02: 10:00 AM to 7:00 PM, 11/03: 7:00 AM to 8:00 PM ",,,,Gymnasium,5,34.08745,-118.176412,8,2020-11-03T09:00:04.513,,,,,False,True,True,False,False,2020-11-03T00:00:00,2020-10-24T00:00:00,2020-11-02T00:00:00,2020-10-30T00:00:00
42,14526,3,4193,Barton Hill Elementary School,423 N Pacific Ave,San Pedro,CA,90731,"10/30 - 11/02: 10:00 AM to 7:00 PM, 11/03: 7:00 AM to 8:00 PM ",,,,Auditorium,5,33.746513,-118.288261,8,2020-11-03T09:00:04.777,,,,,False,True,True,False,False,2020-11-03T00:00:00,2020-10-24T00:00:00,2020-11-02T00:00:00,2020-10-30T00:00:00
43,12366,3,4193,Bassett Adult School,943 N Sunkist Ave,La Puente,CA,91746,"10/30 - 11/02: 10:00 AM to 7:00 PM, 11/03: 7:00 AM to 8:00 PM ",,,,Auditorium,5,34.051236,-117.969671,8,2020-11-03T09:00:04.577,,,,,False,True,True,False,False,2020-11-03T00:00:00,2020-10-24T00:00:00,2020-11-02T00:00:00,2020-10-30T00:00:00
44,6051,3,4193,Bassett Street Elementary School,15756 Bassett St,Van Nuys,CA,91406,"10/30 - 11/02: 10:00 AM to 7:00 PM, 11/03: 7:00 AM to 8:00 PM ",,,,Auditorium,5,34.195507,-118.476705,4,2020-11-03T09:00:04.48,,,,,False,True,True,False,False,2020-11-03T00:00:00,2020-10-24T00:00:00,2020-11-02T00:00:00,2020-10-30T00:00:00
45,310,3,4193,Bateman Hall,11331 Ernestine Ave,Lynwood,CA,90262,"10/30 - 11/02: 10:00 AM to 7:00 PM, 11/03: 7:00 AM to 8:00 PM ",,,,Thompson Auditorium,5,33.926927,-118.19757,8,2020-11-03T09:00:04.37,,,,,False,True,True,False,False,2020-11-03T00:00:00,2020-10-24T00:00:00,2020-11-02T00:00:00,2020-10-30T00:00:00
46,12532,3,4193,Bay Shore Comm Congregational Church,5100 E The Toledo,Long Beach,CA,90803,"10/30 - 11/02: 10:00 AM to 7:00 PM, 11/03: 7:00 AM to 8:00 PM ",,,,Gymnasium,5,33.763043,-118.133919,15,2020-11-03T09:00:04.577,,,,,False,True,True,False,False,2020-11-03T00:00:00,2020-10-24T00:00:00,2020-11-02T00:00:00,2020-10-30T00:00:00
47,14543,3,4193,Beardslee Elementary School,1212 Kellwill Way,Duarte,CA,91010,"10/30 - 11/02: 10:00 AM to 7:00 PM, 11/03: 7:00 AM to 8:00 PM ",,,,Multi-Purpose Room,5,34.128626,-117.979297,8,2020-11-03T09:00:04.79,,,,,False,True,True,False,False,2020-11-03T00:00:00,2020-10-24T00:00:00,2020-11-02T00:00:00,2020-10-30T00:00:00
48,450,3,4193,Bell Community Center,6250 Pine Ave,Bell,CA,90201,"10/30 - 11/02: 10:00 AM to 7:00 PM, 11/03: 7:00 AM to 8:00 PM ",,,,Big Hall,5,33.979958,-118.188764,8,2020-11-03T09:00:04.37,,,,,False,True,True,False,False,2020-11-03T00:00:00,2020-10-24T00:00:00,2020-11-02T00:00:00,2020-10-30T00:00:00
49,14604,3,4193,Bell Gardens High School,6119 Agra St,Bell Gardens,CA,90201,"10/30 - 11/02: 10:00 AM to 7:00 PM, 11/03: 7:00 AM to 8:00 PM ",,,,Gymnasium,5,33.97563,-118.154203,8,2020-11-03T09:00:04.81,,,,,False,True,True,False,False,2020-11-03T00:00:00,2020-10-24T00:00:00,2020-11-02T00:00:00,2020-10-30T00:00:00
50,416,3,4193,Bell Gardens Veterans Park,6662 Loveland St,Bell Gardens,CA,90201,"10/30 - 11/02: 10:00 AM to 7:00 PM, 11/03: 7:00 AM to 8:00 PM ",,,,Auditorium,5,33.968264,-118.143989,6,2020-11-03T09:00:04.37,,,,,False,True,True,False,False,2020-11-03T00:00:00,2020-10-24T00:00:00,2020-11-02T00:00:00,2020-10-30T00:00:00
51,14665,3,4193,Belvedere Park,4914 E. Cesar Chavez,Los Angeles,CA,90022,"10/30 - 11/02: 10:00 AM to 7:00 PM, 11/03: 7:00 AM to 8:00 PM ",,,,Gymnasium,5,34.039041,-118.158675,8,2020-11-03T09:00:04.823,,,,,False,True,True,False,False,2020-11-03T00:00:00,2020-10-24T00:00:00,2020-11-02T00:00:00,2020-10-30T00:00:00
52,11752,3,4193,Bethel AME Church LA,7900 S Western Ave,Los Angeles,CA,90047,"10/24 - 11/02: 10:00 AM to 7:00 PM, 11/03: 7:00 AM to 8:00 PM ",,,,AA Morgan Fellowship Hall,11,33.967233,-118.308963,8,2020-11-03T09:00:04.56,,,,,False,True,True,False,False,2020-11-03T00:00:00,2020-10-24T00:00:00,2020-11-02T00:00:00,2020-10-30T00:00:00
53,14666,3,4193,Bethesda Presbyterian Church ,14420 Crenshaw Blvd,Gardena,CA,90249,"10/30 - 11/02: 10:00 AM to 7:00 PM, 11/03: 7:00 AM to 8:00 PM ",,,,Chapel,5,33.900403,-118.326331,8,2020-11-03T09:00:04.823,,,,,False,True,True,False,False,2020-11-03T00:00:00,2020-10-24T00:00:00,2020-11-02T00:00:00,2020-10-30T00:00:00
54,13357,3,4193,Betty Hill Senior Citizen Center,3570 S Denker Ave,Los Angeles,CA,90018,"10/30 - 11/02: 10:00 AM to 7:00 PM, 11/03: 7:00 AM to 8:00 PM ",,,,Small Classroom,5,34.023024,-118.304423,8,2020-11-03T09:00:04.607,,,,,False,True,True,False,False,2020-11-03T00:00:00,2020-10-24T00:00:00,2020-11-02T00:00:00,2020-10-30T00:00:00
55,13844,3,4193,Beverly Hills City Hall,450 N Crescent Dr,Beverly Hills,CA,90210,"10/24 - 11/02: 10:00 AM to 7:00 PM, 11/03: 7:00 AM to 8:00 PM ",,,,Outdoor - Crescent Parking Garage,11,34.07266,-118.400312,8,2020-11-03T09:00:04.623,,,,,False,True,True,False,False,2020-11-03T00:00:00,2020-10-24T00:00:00,2020-11-02T00:00:00,2020-10-30T00:00:00
56,14148,3,4193,Beverly Hills Women's Club,1700 Chevy Chase Dr,Beverly Hills,CA,90210,"10/30 - 11/02: 10:00 AM to 7:00 PM, 11/03: 7:00 AM to 8:00 PM ",,,,Ballroom and Garden Room,5,34.084158,-118.421733,8,2020-11-03T09:00:04.69,,,,,False,True,True,False,False,2020-11-03T00:00:00,2020-10-24T00:00:00,2020-11-02T00:00:00,2020-10-30T00:00:00
57,4506,3,4193,Birdielee V Bright Elementary School,1771 W 36th St,Los Angeles,CA,90018,"10/30 - 11/02: 10:00 AM to 7:00 PM, 11/03: 7:00 AM to 8:00 PM ",,,,Auditorium,5,34.022879,-118.311046,8,2020-11-03T09:00:04.45,,,,,False,True,True,False,False,2020-11-03T00:00:00,2020-10-24T00:00:00,2020-11-02T00:00:00,2020-10-30T00:00:00
58,13951,3,4193,Birmingham Comm Charter High School,17000 Haynes St,Van Nuys,CA,91406,"10/30 - 11/02: 10:00 AM to 7:00 PM, 11/03: 7:00 AM to 8:00 PM ",,,,Main Gymnasium,5,34.188813,-118.504561,8,2020-11-03T09:00:04.64,,,,,False,True,True,False,False,2020-11-03T00:00:00,2020-10-24T00:00:00,2020-11-02T00:00:00,2020-10-30T00:00:00
59,13159,3,4193,Blair High School,1201 S Marengo Ave,Pasadena,CA,91106,"10/30 - 11/02: 10:00 AM to 7:00 PM, 11/03: 7:00 AM to 8:00 PM ",,,,Gymnasium,5,34.126277,-118.146361,8,2020-11-03T09:00:04.59,,,,,False,True,True,False,False,2020-11-03T00:00:00,2020-10-24T00:00:00,2020-11-02T00:00:00,2020-10-30T00:00:00
60,1803,3,4193,Blandford Elementary School,2601 Blandford Dr,Rowland Heights,CA,91748,"10/30 - 11/02: 10:00 AM to 7:00 PM, 11/03: 7:00 AM to 8:00 PM ",,,,Cafeteria,5,33.97236,-117.897604,8,2020-11-03T09:00:04.387,,,,,False,True,True,False,False,2020-11-03T00:00:00,2020-10-24T00:00:00,2020-11-02T00:00:00,2020-10-30T00:00:00
61,8754,3,4193,Bnai David Judea,8906 W Pico Blvd,Los Angeles,CA,90035,"10/30 - 11/02: 10:00 AM to 7:00 PM, 11/03: 7:00 AM to 8:00 PM ",,,,Lobby,5,34.055015,-118.385888,7,2020-11-03T09:00:04.513,,,,,False,True,True,False,False,2020-11-03T00:00:00,2020-10-24T00:00:00,2020-11-02T00:00:00,2020-10-30T00:00:00
62,13837,3,4193,Bob Hope Patriotic Hall,1816 S Figueroa St,Los Angeles,CA,90015,"10/30 - 11/02: 10:00 AM to 7:00 PM, 11/03: 7:00 AM to 8:00 PM ",,,,Main Lobby,5,34.035262,-118.271255,8,2020-11-03T09:00:04.623,,,,,False,True,True,False,False,2020-11-03T00:00:00,2020-10-24T00:00:00,2020-11-02T00:00:00,2020-10-30T00:00:00
63,13304,3,4193,Bouquet Canyon Elementary,28110 Wellston Dr,Saugus,CA,91350,"10/30 - 11/02: 10:00 AM to 7:00 PM, 11/03: 7:00 AM to 8:00 PM ",,,,Multi-Purpose Room,5,34.452776,-118.503557,0,2020-11-03T09:00:04.607,,,,,False,True,True,False,False,2020-11-03T00:00:00,2020-10-24T00:00:00,2020-11-02T00:00:00,2020-10-30T00:00:00
64,10834,3,4193,Boyle Heights Senior Center,2839 E 3rd St,Los Angeles,CA,90033,"10/30 - 11/02: 10:00 AM to 7:00 PM, 11/03: 7:00 AM to 8:00 PM ",,,,Art Room,5,34.039232,-118.206196,2,2020-11-03T09:00:04.543,,,,,False,True,True,False,False,2020-11-03T00:00:00,2020-10-24T00:00:00,2020-11-02T00:00:00,2020-10-30T00:00:00
65,13193,3,4193,Bradley Multi Purpose Room,10957 S Central Ave,Los Angeles,CA,90059,"10/30 - 11/02: 10:00 AM to 7:00 PM, 11/03: 7:00 AM to 8:00 PM ",,,,Dining Room,5,33.935579,-118.254396,8,2020-11-03T09:00:04.59,,,,,False,True,True,False,False,2020-11-03T00:00:00,2020-10-24T00:00:00,2020-11-02T00:00:00,2020-10-30T00:00:00
66,13956,3,4193,Branford Recreation Center,13306 Branford St,Arleta,CA,91331,"10/30 - 11/02: 10:00 AM to 7:00 PM, 11/03: 7:00 AM to 8:00 PM ",,,,Gymnasium,5,34.233173,-118.423118,8,2020-11-03T09:00:04.64,,,,,False,True,True,False,False,2020-11-03T00:00:00,2020-10-24T00:00:00,2020-11-02T00:00:00,2020-10-30T00:00:00
67,13838,3,4193,Brenda Villa Aquatic Center,5600 Harbor St,Commerce,CA,90040,"10/24 - 11/02: 10:00 AM to 7:00 PM, 11/03: 7:00 AM to 8:00 PM ",,,,Meeting Room,11,34.00307,-118.156271,4,2020-11-03T09:00:04.623,,,,,False,True,True,False,False,2020-11-03T00:00:00,2020-10-24T00:00:00,2020-11-02T00:00:00,2020-10-30T00:00:00
68,2530,3,4193,Bret Harte Middle School,9301 S Hoover St,Los Angeles,CA,90044,"10/30 - 11/02: 10:00 AM to 7:00 PM, 11/03: 7:00 AM to 8:00 PM ",,,,Boys Gymnasium,5,33.951711,-118.287281,3,2020-11-03T09:00:04.4,,,,,False,True,True,False,False,2020-11-03T00:00:00,2020-10-24T00:00:00,2020-11-02T00:00:00,2020-10-30T00:00:00
69,3776,3,4193,Bridges Academy,3921 Laurel Canyon Blvd,Studio City,CA,91604,"10/30 - 11/02: 10:00 AM to 7:00 PM, 11/03: 7:00 AM to 8:00 PM ",,,,Auditorium,5,34.141408,-118.394796,0,2020-11-03T09:00:04.433,,,,,False,True,True,False,False,2020-11-03T00:00:00,2020-10-24T00:00:00,2020-11-02T00:00:00,2020-10-30T00:00:00
70,2262,3,4193,Brightwood Elementary School,1701 Brightwood St,Monterey Park,CA,91754,"10/30 - 11/02: 10:00 AM to 7:00 PM, 11/03: 7:00 AM to 8:00 PM ",,,,Cafeteria,5,34.046104,-118.152388,4,2020-11-03T09:00:04.4,,,,,False,True,True,False,False,2020-11-03T00:00:00,2020-10-24T00:00:00,2020-11-02T00:00:00,2020-10-30T00:00:00
71,7358,3,4193,Brockton Avenue Elementary School,1309 Armacost Ave,Los Angeles,CA,90025,"10/30 - 11/02: 10:00 AM to 7:00 PM, 11/03: 7:00 AM to 8:00 PM ",,,,Auditorium,5,34.044545,-118.462742,6,2020-11-03T09:00:04.497,,,,,False,True,True,False,False,2020-11-03T00:00:00,2020-10-24T00:00:00,2020-11-02T00:00:00,2020-10-30T00:00:00
72,14149,3,4193,Bud Carson Middle School,13838 Yukon Ave,Hawthorne,CA,90250,"10/30 - 11/02: 10:00 AM to 7:00 PM, 11/03: 7:00 AM to 8:00 PM ",,,,Gymnasium,5,33.906393,-118.334895,8,2020-11-03T09:00:04.69,,,,,False,True,True,False,False,2020-11-03T00:00:00,2020-10-24T00:00:00,2020-11-02T00:00:00,2020-10-30T00:00:00
73,9859,3,4193,Buena Vista Branch Library,300 N Buena Vista St,Burbank,CA,91505,"10/30 - 11/02: 10:00 AM to 7:00 PM, 11/03: 7:00 AM to 8:00 PM ",,,,Meeting Room,5,34.163498,-118.330628,11,2020-11-03T09:00:04.53,,,,,False,True,True,False,False,2020-11-03T00:00:00,2020-10-24T00:00:00,2020-11-02T00:00:00,2020-10-30T00:00:00
74,14274,3,4193,Burbank High School,902 N 3rd St,Burbank,CA,91502,"10/30 - 11/02: 10:00 AM to 7:00 PM, 11/03: 7:00 AM to 8:00 PM ",,,,Gymnasium,5,34.188192,-118.315538,8,2020-11-03T09:00:04.73,,,,,False,True,True,False,False,2020-11-03T00:00:00,2020-10-24T00:00:00,2020-11-02T00:00:00,2020-10-30T00:00:00
75,13359,3,4193,Burton Chace Park,13650 Mindanao Way,Marina Del Rey,CA,90292,"10/30 - 11/02: 10:00 AM to 7:00 PM, 11/03: 7:00 AM to 8:00 PM ",,,,Community Building,5,33.978898,-118.442847,21,2020-11-03T09:00:04.607,,,,,False,True,True,False,False,2020-11-03T00:00:00,2020-10-24T00:00:00,2020-11-02T00:00:00,2020-10-30T00:00:00
76,11774,3,4193,C Robert Lee Activity Center,21815 Pioneer Blvd,Hawaiian Gardens,CA,90716,"10/24 - 11/02: 10:00 AM to 7:00 PM, 11/03: 7:00 AM to 8:00 PM ",,,,Multi-Purpose Room A & B,11,33.829081,-118.082316,0,2020-11-03T09:00:04.577,,,,,False,True,True,False,False,2020-11-03T00:00:00,2020-10-24T00:00:00,2020-11-02T00:00:00,2020-10-30T00:00:00
77,5943,3,4193,Cabrillo Avenue Elementary School,732 S Cabrillo Ave,San Pedro,CA,90731,"10/30 - 11/02: 10:00 AM to 7:00 PM, 11/03: 7:00 AM to 8:00 PM ",,,,Auditorium,5,33.73743,-118.29421,8,2020-11-03T09:00:04.48,,,,,False,True,True,False,False,2020-11-03T00:00:00,2020-10-24T00:00:00,2020-11-02T00:00:00,2020-10-30T00:00:00
78,8627,3,4193,Cabrillo High School,2001 Santa Fe Ave,Long Beach,CA,90810,"10/30 - 11/02: 10:00 AM to 7:00 PM, 11/03: 7:00 AM to 8:00 PM ",,,,North Gymnasium,5,33.793939,-118.216016,8,2020-11-03T09:00:04.513,,,,,False,True,True,False,False,2020-11-03T00:00:00,2020-10-24T00:00:00,2020-11-02T00:00:00,2020-10-30T00:00:00
79,3820,3,4193,Cahuenga Elementary School,220 S Hobart Blvd,Los Angeles,CA,90004,"10/30 - 11/02: 10:00 AM to 7:00 PM, 11/03: 7:00 AM to 8:00 PM ",,,,Multi-Purpose Room,5,34.070701,-118.305109,7,2020-11-03T09:00:04.433,,,,,False,True,True,False,False,2020-11-03T00:00:00,2020-10-24T00:00:00,2020-11-02T00:00:00,2020-10-30T00:00:00
80,14520,3,4193,"Cal State Poly University, Pomona",3801 W Temple Ave,Pomona,CA,91768,"10/24 - 11/02: 10:00 AM to 7:00 PM, 11/03: 7:00 AM to 8:00 PM ",,,,Kellogg Arena,11,34.058981,-117.819521,8,2020-11-03T09:00:04.777,,,,,False,True,True,False,False,2020-11-03T00:00:00,2020-10-24T00:00:00,2020-11-02T00:00:00,2020-10-30T00:00:00
81,14052,3,4193,"Cal State University, Dominguez Hills",1000 E Victoria St,Carson,CA,90747,"10/24 - 11/02: 10:00 AM to 7:00 PM, 11/03: 7:00 AM to 8:00 PM ",,,,Room E1213 and Room E1218,11,33.864388,-118.255985,0,2020-11-03T09:00:04.653,,,,,False,True,True,False,False,2020-11-03T00:00:00,2020-10-24T00:00:00,2020-11-02T00:00:00,2020-10-30T00:00:00
82,14150,3,4193,"Cal State University, Long Beach",6200 Atherton St,Long Beach,CA,90815,"10/24 - 11/02: 10:00 AM to 7:00 PM, 11/03: 7:00 AM to 8:00 PM ",,,,Carpenter Performing Arts Center Lobby,11,33.788371,-118.112724,4,2020-11-03T09:00:04.69,,,,,False,True,True,False,False,2020-11-03T00:00:00,2020-10-24T00:00:00,2020-11-02T00:00:00,2020-10-30T00:00:00
83,13799,3,4193,"Cal State University, Los Angeles",5151 State University Dr,Los Angeles,CA,90032,"10/24 - 11/02: 10:00 AM to 7:00 PM, 11/03: 7:00 AM to 8:00 PM ",,,,University Gymnasium,11,34.062769,-118.170922,8,2020-11-03T09:00:04.607,,,,,False,True,True,False,False,2020-11-03T00:00:00,2020-10-24T00:00:00,2020-11-02T00:00:00,2020-10-30T00:00:00
84,11778,3,4193,"Cal State University, Northridge",18111 Nordhoff St,Northridge,CA,91330,"10/24 - 11/02: 10:00 AM to 7:00 PM, 11/03: 7:00 AM to 8:00 PM ",,,,Redwood Hall - Activities Center,11,34.241944,-118.526261,8,2020-11-03T09:00:04.577,,,,,False,True,True,False,False,2020-11-03T00:00:00,2020-10-24T00:00:00,2020-11-02T00:00:00,2020-10-30T00:00:00
85,14051,3,4193,CalArts,24700 McBean Pkwy,Valencia,CA,91355,"10/30 - 11/02: 10:00 AM to 7:00 PM, 11/03: 7:00 AM to 8:00 PM ",,,,Main Gallery,5,34.392939,-118.567235,8,2020-11-03T09:00:04.653,,,,,False,True,True,False,False,2020-11-03T00:00:00,2020-10-24T00:00:00,2020-11-02T00:00:00,2020-10-30T00:00:00
86,11749,3,4193,Calvary Chapel Golden Springs,22324 Golden Springs Dr,Diamond Bar,CA,91765,"10/30 - 11/02: 10:00 AM to 7:00 PM, 11/03: 7:00 AM to 8:00 PM ",,,,Fellowship Hall,5,34.00303,-117.823118,0,2020-11-03T09:00:04.56,,,,,False,True,True,False,False,2020-11-03T00:00:00,2020-10-24T00:00:00,2020-11-02T00:00:00,2020-10-30T00:00:00
87,2901,3,4193,Calvary Grace Church,2520 Peck Rd,Monrovia,CA,91016,"10/24 - 11/02: 10:00 AM to 7:00 PM, 11/03: 7:00 AM to 8:00 PM ",,,,Fellowship Hall,11,34.118676,-118.003637,4,2020-11-03T09:00:04.42,,,,,False,True,True,False,False,2020-11-03T00:00:00,2020-10-24T00:00:00,2020-11-02T00:00:00,2020-10-30T00:00:00
88,8226,3,4193,Cameron Park Community Center,1305 E Cameron Ave,West Covina,CA,91790,"10/30 - 11/02: 10:00 AM to 7:00 PM, 11/03: 7:00 AM to 8:00 PM ",,,,Multi-Purpose Room,5,34.06187,-117.918287,5,2020-11-03T09:00:04.513,,,,,False,True,True,False,False,2020-11-03T00:00:00,2020-10-24T00:00:00,2020-11-02T00:00:00,2020-10-30T00:00:00
89,14527,3,4193,Canoga Park High School,6850 Topanga Canyon Blvd,Canoga Park,CA,91303,"10/30 - 11/02: 10:00 AM to 7:00 PM, 11/03: 7:00 AM to 8:00 PM ",,,,Large Gymnasium,5,34.195682,-118.605315,8,2020-11-03T09:00:04.777,,,,,False,True,True,False,False,2020-11-03T00:00:00,2020-10-24T00:00:00,2020-11-02T00:00:00,2020-10-30T00:00:00
90,14279,3,4193,Canyon Center,19361 Soledad Canyon Rd,Santa Clarita,CA,91351,"10/30 - 11/02: 10:00 AM to 7:00 PM, 11/03: 7:00 AM to 8:00 PM ",,,,Unit D4,5,34.416251,-118.474661,8,2020-11-03T09:00:04.73,,,,,False,True,True,False,False,2020-11-03T00:00:00,2020-10-24T00:00:00,2020-11-02T00:00:00,2020-10-30T00:00:00
91,6448,3,4193,Canyon Club Dinner Theater,28912 Roadside Dr,Agoura Hills,CA,91301,"10/30 - 11/02: 10:00 AM to 7:00 PM, 11/03: 7:00 AM to 8:00 PM ",,,,Main Room,5,34.144003,-118.755006,8,2020-11-03T09:00:04.48,,,,,False,True,True,False,False,2020-11-03T00:00:00,2020-10-24T00:00:00,2020-11-02T00:00:00,2020-10-30T00:00:00
92,11732,3,4193,Caravalho Santa Clarita Sports Complex,20870 Centre Pointe Pkwy,Santa Clarita,CA,91350,"10/24 - 11/02: 10:00 AM to 7:00 PM, 11/03: 7:00 AM to 8:00 PM ",,,,Gymnasium,11,34.410201,-118.499765,2,2020-11-03T09:00:04.56,,,,,False,True,True,False,False,2020-11-03T00:00:00,2020-10-24T00:00:00,2020-11-02T00:00:00,2020-10-30T00:00:00
93,14152,3,4193,Caravan 4 Justice,646 W Pacific Coast Hwy,Long Beach,CA,90806,"10/30 - 11/02: 10:00 AM to 7:00 PM, 11/03: 7:00 AM to 8:00 PM ",,,,Warehouse,5,33.789548,-118.200403,0,2020-11-03T09:00:04.693,,,,,False,True,True,False,False,2020-11-03T00:00:00,2020-10-24T00:00:00,2020-11-02T00:00:00,2020-10-30T00:00:00
94,10948,3,4193,Carmelitos Community Center,851 Via Carmelitos,Long Beach,CA,90805,"10/24 - 11/02: 10:00 AM to 7:00 PM, 11/03: 7:00 AM to 8:00 PM ",,,,Multi-Purpose Room,11,33.849109,-118.181859,8,2020-11-03T09:00:04.543,,,,,False,True,True,False,False,2020-11-03T00:00:00,2020-10-24T00:00:00,2020-11-02T00:00:00,2020-10-30T00:00:00
95,6131,3,4193,Carmenita Middle School,13435 166th St,Cerritos,CA,90703,"10/30 - 11/02: 10:00 AM to 7:00 PM, 11/03: 7:00 AM to 8:00 PM ",,,,Multi-Purpose Room,5,33.880806,-118.04536,8,2020-11-03T09:00:04.48,,,,,False,True,True,False,False,2020-11-03T00:00:00,2020-10-24T00:00:00,2020-11-02T00:00:00,2020-10-30T00:00:00
96,10949,3,4193,Carpenters Local Union 562,341 E Wardlow Rd,Long Beach,CA,90807,"10/30 - 11/02: 10:00 AM to 7:00 PM, 11/03: 7:00 AM to 8:00 PM ",,,,Meeting Hall,5,33.819146,-118.188286,23,2020-11-03T09:00:04.543,,,,,False,True,True,False,False,2020-11-03T00:00:00,2020-10-24T00:00:00,2020-11-02T00:00:00,2020-10-30T00:00:00
97,14151,3,4193,Carson Civic Center,801 E Carson St,Carson,CA,90745,"10/30 - 11/02: 10:00 AM to 7:00 PM, 11/03: 7:00 AM to 8:00 PM ",,,,Carson Dominguez Room,5,33.832801,-118.261275,8,2020-11-03T09:00:04.693,,,,,False,True,True,False,False,2020-11-03T00:00:00,2020-10-24T00:00:00,2020-11-02T00:00:00,2020-10-30T00:00:00
98,4240,3,4193,Carson High School,22328 S Main St,Carson,CA,90745,"10/30 - 11/02: 10:00 AM to 7:00 PM, 11/03: 7:00 AM to 8:00 PM ",,,,Multi-Purpose Room,5,33.823827,-118.275476,8,2020-11-03T09:00:04.45,,,,,False,True,True,False,False,2020-11-03T00:00:00,2020-10-24T00:00:00,2020-11-02T00:00:00,2020-10-30T00:00:00
99,14282,3,4193,Carver Elementary School,1425 E 120th St,Los Angeles,CA,90059,"10/30 - 11/02: 10:00 AM to 7:00 PM, 11/03: 7:00 AM to 8:00 PM ",,,,Multi-Purpose Room,5,33.923803,-118.249839,8,2020-11-03T09:00:04.73,,,,,False,True,True,False,False,2020-11-03T00:00:00,2020-10-24T00:00:00,2020-11-02T00:00:00,2020-10-30T00:00:00
100,7524,3,4193,Castaic Middle School,28900 Hillcrest Pkwy,Castaic,CA,91384,"10/30 - 11/02: 10:00 AM to 7:00 PM, 11/03: 7:00 AM to 8:00 PM ",,,,Multi-Purpose Room,5,34.472175,-118.640027,4,2020-11-03T09:00:04.497,,,,,False,True,True,False,False,2020-11-03T00:00:00,2020-10-24T00:00:00,2020-11-02T00:00:00,2020-10-30T00:00:00
101,13913,3,4193,Castaic Sports Complex,31230 Castaic Rd,Castaic,CA,91384,"10/24 - 11/02: 10:00 AM to 7:00 PM, 11/03: 7:00 AM to 8:00 PM ",,,,Gymnasium,11,34.486137,-118.614754,8,2020-11-03T09:00:04.64,,,,,False,True,True,False,False,2020-11-03T00:00:00,2020-10-24T00:00:00,2020-11-02T00:00:00,2020-10-30T00:00:00
102,6404,3,4193,Castelar Elementary School,840 Yale St,Los Angeles,CA,90012,"10/30 - 11/02: 10:00 AM to 7:00 PM, 11/03: 7:00 AM to 8:00 PM ",,,,Auditorium,5,34.064179,-118.239868,8,2020-11-03T09:00:04.48,,,,,False,True,True,False,False,2020-11-03T00:00:00,2020-10-24T00:00:00,2020-11-02T00:00:00,2020-10-30T00:00:00
103,9851,3,4193,Castlebay Lane Charter Elementary,19010 Castlebay Ln,Porter Ranch,CA,91326,"10/30 - 11/02: 10:00 AM to 7:00 PM, 11/03: 7:00 AM to 8:00 PM ",,,,Performing Arts Center,5,34.293955,-118.547691,4,2020-11-03T09:00:04.53,,,,,False,True,True,False,False,2020-11-03T00:00:00,2020-10-24T00:00:00,2020-11-02T00:00:00,2020-10-30T00:00:00
104,13988,3,4193,Catalina Casino,1 Casino Way,Avalon,CA,90704,"10/30 - 11/02: 10:00 AM to 7:00 PM, 11/03: 7:00 AM to 8:00 PM ",,,,Casino Ballroom,5,33.348717,-118.326035,8,2020-11-03T09:00:04.64,,,,,False,True,True,False,False,2020-11-03T00:00:00,2020-10-24T00:00:00,2020-11-02T00:00:00,2020-10-30T00:00:00
105,471,3,4193,Cathy Hensel Youth Center,236 George Hensel Dr,Montebello,CA,90640,"10/24 - 11/02: 10:00 AM to 7:00 PM, 11/03: 7:00 AM to 8:00 PM ",,,,Gymnasium,11,34.008127,-118.114305,8,2020-11-03T09:00:04.37,,,,,False,True,True,False,False,2020-11-03T00:00:00,2020-10-24T00:00:00,2020-11-02T00:00:00,2020-10-30T00:00:00
106,12561,3,4193,Center of Hope,9550 Crenshaw Blvd,Inglewood,CA,90305,"10/30 - 11/02: 10:00 AM to 7:00 PM, 11/03: 7:00 AM to 8:00 PM ",,,,Fellowship Hall and Gymnasium,5,33.949834,-118.326433,8,2020-11-03T09:00:04.577,,,,,False,True,True,False,False,2020-11-03T00:00:00,2020-10-24T00:00:00,2020-11-02T00:00:00,2020-10-30T00:00:00
107,10606,3,4193,Centinela Elementary School,1123 N Marlborough Ave,Inglewood,CA,90302,"10/30 - 11/02: 10:00 AM to 7:00 PM, 11/03: 7:00 AM to 8:00 PM ",,,,Multi-Purpose Room,5,33.978153,-118.346583,8,2020-11-03T09:00:04.543,,,,,False,True,True,False,False,2020-11-03T00:00:00,2020-10-24T00:00:00,2020-11-02T00:00:00,2020-10-30T00:00:00
108,14153,3,4193,Central City Neighborhood Partners,501 S Bixel St,Los Angeles,CA,90017,"10/30 - 11/02: 10:00 AM to 7:00 PM, 11/03: 7:00 AM to 8:00 PM ",,,,Atrium,5,34.054842,-118.261689,8,2020-11-03T09:00:04.693,,,,,False,True,True,False,False,2020-11-03T00:00:00,2020-10-24T00:00:00,2020-11-02T00:00:00,2020-10-30T00:00:00
109,14054,3,4193,Central Lutheran Church,6425 Tyrone Ave,Van Nuys,CA,91401,"10/30 - 11/02: 10:00 AM to 7:00 PM, 11/03: 7:00 AM to 8:00 PM ",,,,Fellowship Hall,5,34.187197,-118.444481,8,2020-11-03T09:00:04.653,,,,,False,True,True,False,False,2020-11-03T00:00:00,2020-10-24T00:00:00,2020-11-02T00:00:00,2020-10-30T00:00:00
110,14671,3,4193,Centro de Vida Victoriosa AG,715 Brady Ave,Los Angeles,CA,90022,"10/30 - 11/02: 10:00 AM to 7:00 PM, 11/03: 7:00 AM to 8:00 PM ",,,,Main Hallway,5,34.018299,-118.137693,0,2020-11-03T09:00:04.823,,,,,False,True,True,False,False,2020-11-03T00:00:00,2020-10-24T00:00:00,2020-11-02T00:00:00,2020-10-30T00:00:00
111,9373,3,4193,Century Villages at Cabrillo,2001 River Ave,Long Beach,CA,90810,"10/30 - 11/02: 10:00 AM to 7:00 PM, 11/03: 7:00 AM to 8:00 PM ",,,,Social Hall,5,33.792274,-118.222421,8,2020-11-03T09:00:04.53,,,,,False,True,True,False,False,2020-11-03T00:00:00,2020-10-24T00:00:00,2020-11-02T00:00:00,2020-10-30T00:00:00
112,14155,3,4193,Cesar Chavez Alternative School,12501 Wilmington Ave,Compton,CA,90222,"10/30 - 11/02: 10:00 AM to 7:00 PM, 11/03: 7:00 AM to 8:00 PM ",,,,Multi-Purpose Room,5,33.918647,-118.239489,8,2020-11-03T09:00:04.693,,,,,False,True,True,False,False,2020-11-03T00:00:00,2020-10-24T00:00:00,2020-11-02T00:00:00,2020-10-30T00:00:00
113,14285,3,4193,Cesar Chavez Elementary School,12110 Walnut St,Norwalk,CA,90650,"10/30 - 11/02: 10:00 AM to 7:00 PM, 11/03: 7:00 AM to 8:00 PM ",,,,Multi-Purpose Room,5,33.903511,-118.075082,8,2020-11-03T09:00:04.73,,,,,False,True,True,False,False,2020-11-03T00:00:00,2020-10-24T00:00:00,2020-11-02T00:00:00,2020-10-30T00:00:00
114,3347,3,4193,Cesar E Chavez Park,401 Golden Ave,Long Beach,CA,90802,"10/30 - 11/02: 10:00 AM to 7:00 PM, 11/03: 7:00 AM to 8:00 PM ",,,,Social Hall,5,33.771859,-118.202324,8,2020-11-03T09:00:04.433,,,,,False,True,True,False,False,2020-11-03T00:00:00,2020-10-24T00:00:00,2020-11-02T00:00:00,2020-10-30T00:00:00
115,11750,3,4193,Chaparral Middle School,1405 Spruce Tree Dr,Diamond Bar,CA,91765,"10/30 - 11/02: 10:00 AM to 7:00 PM, 11/03: 7:00 AM to 8:00 PM ",,,,Multi-Purpose Room,5,33.995503,-117.818474,8,2020-11-03T09:00:04.56,,,,,False,True,True,False,False,2020-11-03T00:00:00,2020-10-24T00:00:00,2020-11-02T00:00:00,2020-10-30T00:00:00
116,4147,3,4193,Charles Kim Elementary School,225 S Oxford Ave,Los Angeles,CA,90004,"10/30 - 11/02: 10:00 AM to 7:00 PM, 11/03: 7:00 AM to 8:00 PM ",,,,Multi-Purpose Room,5,34.070323,-118.308269,8,2020-11-03T09:00:04.45,,,,,False,True,True,False,False,2020-11-03T00:00:00,2020-10-24T00:00:00,2020-11-02T00:00:00,2020-10-30T00:00:00
117,6,3,4193,Chevy Chase Branch Library,3301 E Chevy Chase Dr,Glendale,CA,91206,"10/30 - 11/02: 10:00 AM to 7:00 PM, 11/03: 7:00 AM to 8:00 PM ",,,,Main Room,5,34.173792,-118.199986,8,2020-11-03T09:00:04.357,,,,,False,True,True,False,False,2020-11-03T00:00:00,2020-10-24T00:00:00,2020-11-02T00:00:00,2020-10-30T00:00:00
118,14291,3,4193,Chevy Chase Country Club,3067 E Chevy Chase Dr,Glendale,CA,91206,"10/30 - 11/02: 10:00 AM to 7:00 PM, 11/03: 7:00 AM to 8:00 PM ",,,,Cypress Hall,5,34.170762,-118.203641,4,2020-11-03T09:00:04.73,,,,,False,True,True,False,False,2020-11-03T00:00:00,2020-10-24T00:00:00,2020-11-02T00:00:00,2020-10-30T00:00:00
119,14009,3,4193,Chimbole Cultural Center,38350 Sierra Hwy,Palmdale,CA,93550,"10/24 - 11/02: 10:00 AM to 7:00 PM, 11/03: 7:00 AM to 8:00 PM ",,,,Manzanita Ballroom,11,34.578516,-118.116406,8,2020-11-03T09:00:04.653,,,,,False,True,True,False,False,2020-11-03T00:00:00,2020-10-24T00:00:00,2020-11-02T00:00:00,2020-10-30T00:00:00
120,5140,3,4193,Christ Temple Church,3125 W 54th St,Los Angeles,CA,90043,"10/30 - 11/02: 10:00 AM to 7:00 PM, 11/03: 7:00 AM to 8:00 PM ",,,,Fellowship Hall,5,33.993299,-118.327688,2,2020-11-03T09:00:04.467,,,,,False,True,True,False,False,2020-11-03T00:00:00,2020-10-24T00:00:00,2020-11-02T00:00:00,2020-10-30T00:00:00
121,4763,3,4193,Christ The Good Shepherd Chr,3303 W Vernon Ave,Los Angeles,CA,90008,"10/30 - 11/02: 10:00 AM to 7:00 PM, 11/03: 7:00 AM to 8:00 PM ",,,,Parish Hall,5,34.004319,-118.329734,8,2020-11-03T09:00:04.45,,,,,False,True,True,False,False,2020-11-03T00:00:00,2020-10-24T00:00:00,2020-11-02T00:00:00,2020-10-30T00:00:00
122,14292,3,4193,Christ the King School,617 N Arden Blvd,Los Angeles,CA,90004,"10/30 - 11/02: 10:00 AM to 7:00 PM, 11/03: 7:00 AM to 8:00 PM ",,,,Parish Hall,5,34.082171,-118.326065,8,2020-11-03T09:00:04.73,,,,,False,True,True,False,False,2020-11-03T00:00:00,2020-10-24T00:00:00,2020-11-02T00:00:00,2020-10-30T00:00:00
123,8268,3,4193,Christian Life Church,3400 Pacific Ave,Long Beach,CA,90807,"10/24 - 11/02: 10:00 AM to 7:00 PM, 11/03: 7:00 AM to 8:00 PM ",,,,Fellowship Hall,11,33.819392,-118.193308,8,2020-11-03T09:00:04.513,,,,,False,True,True,False,False,2020-11-03T00:00:00,2020-10-24T00:00:00,2020-11-02T00:00:00,2020-10-30T00:00:00
124,14522,3,4193,Christian Science Church-Malibu,28635 Pacific Coast Hwy,Malibu,CA,90265,"10/30 - 11/02: 10:00 AM to 7:00 PM, 11/03: 7:00 AM to 8:00 PM ",,,,Sunday School Building,5,34.021455,-118.795863,4,2020-11-03T09:00:04.777,,,,,False,True,True,False,False,2020-11-03T00:00:00,2020-10-24T00:00:00,2020-11-02T00:00:00,2020-10-30T00:00:00
125,13842,3,4193,Citizens of Zion Missionary Church,12930 S Lime Ave,Los Angeles,CA,90059,"10/30 - 11/02: 10:00 AM to 7:00 PM, 11/03: 7:00 AM to 8:00 PM ",,,,Fellowship Hall,5,33.904092,-118.192719,8,2020-11-03T09:00:04.623,,,,,False,True,True,False,False,2020-11-03T00:00:00,2020-10-24T00:00:00,2020-11-02T00:00:00,2020-10-30T00:00:00
126,9145,3,4193,City of Refuge,14527 San Pedro St,Gardena,CA,90248,"10/30 - 11/02: 10:00 AM to 7:00 PM, 11/03: 7:00 AM to 8:00 PM ",,,,Lobby,5,33.899114,-118.268782,8,2020-11-03T09:00:04.53,,,,,False,True,True,False,False,2020-11-03T00:00:00,2020-10-24T00:00:00,2020-11-02T00:00:00,2020-10-30T00:00:00
127,6805,3,4193,Claremont Center for Spiritual Living,509 S College Ave,Claremont,CA,91711,"10/30 - 11/02: 10:00 AM to 7:00 PM, 11/03: 7:00 AM to 8:00 PM ",,,,Holmes Social Hall,5,34.086444,-117.715774,8,2020-11-03T09:00:04.497,,,,,False,True,True,False,False,2020-11-03T00:00:00,2020-10-24T00:00:00,2020-11-02T00:00:00,2020-10-30T00:00:00
128,13899,3,4193,Claremont Helen Renwick Library,208 N Harvard Ave,Claremont,CA,91711,"10/30 - 11/02: 10:00 AM to 7:00 PM, 11/03: 7:00 AM to 8:00 PM ",,,,Meeting Room 1 and 2,5,34.096066,-117.715987,3,2020-11-03T09:00:04.64,,,,,False,True,True,False,False,2020-11-03T00:00:00,2020-10-24T00:00:00,2020-11-02T00:00:00,2020-10-30T00:00:00
129,11527,3,4193,Clark Building,861 Valley Dr,Hermosa Beach,CA,90254,"10/30 - 11/02: 10:00 AM to 7:00 PM, 11/03: 7:00 AM to 8:00 PM ",,,,Clark Room,5,33.860961,-118.394571,8,2020-11-03T09:00:04.56,,,,,False,True,True,False,False,2020-11-03T00:00:00,2020-10-24T00:00:00,2020-11-02T00:00:00,2020-10-30T00:00:00
130,14254,3,4193,CLOSED - Alliance Alice M Baxter College Ready,461 W 9th St,San Pedro,CA,90731,"10/30 - 11/02: 10:00 AM to 7:00 PM, 11/03: 7:00 AM to 8:00 PM ",,,,"<span style=""color: red"">CLOSED</span> - This location is no longer serving as a Vote Center in the Presidential General Election",5,33.735917,-118.287014,0,2020-11-03T09:00:04.73,,,,,False,True,True,False,False,2020-11-03T00:00:00,2020-10-24T00:00:00,2020-11-02T00:00:00,2020-10-30T00:00:00
131,13848,3,4193,CLOSED - Debbie Allen Dance Academy,3791 Santa Rosalia Dr,Los Angeles,CA,90008,"10/30 - 11/02: 10:00 AM to 7:00 PM, 11/03: 7:00 AM to 8:00 PM ",,,,"<span style=""color: red"">CLOSED</span> - This location is no longer serving as a Vote Center in the Presidential General Election",5,34.010379,-118.339338,0,2020-11-03T09:00:04.623,,,,,False,True,True,False,False,2020-11-03T00:00:00,2020-10-24T00:00:00,2020-11-02T00:00:00,2020-10-30T00:00:00
132,14203,3,4193,CLOSED - La Quinta Inn and Suites by Wyndham LAX,5249 West Century Blvd,Los Angeles,CA,90045,"10/30 - 11/02: 10:00 AM to 7:00 PM, 11/03: 7:00 AM to 8:00 PM ",,,,"<span style=""color: red"">CLOSED</span> - This location is no longer serving as a Vote Center in the Presidential General Election",5,33.945581,-118.371965,0,2020-11-03T09:00:04.717,,,,,False,True,True,False,False,2020-11-03T00:00:00,2020-10-24T00:00:00,2020-11-02T00:00:00,2020-10-30T00:00:00
133,14156,3,4193,Cloverly Elementary School,5476 Cloverly Ave,Temple City,CA,91780,"10/30 - 11/02: 10:00 AM to 7:00 PM, 11/03: 7:00 AM to 8:00 PM ",,,,Cafeteria,5,34.099472,-118.062274,4,2020-11-03T09:00:04.693,,,,,False,True,True,False,False,2020-11-03T00:00:00,2020-10-24T00:00:00,2020-11-02T00:00:00,2020-10-30T00:00:00
134,13843,3,4193,College of the Canyons,26455 Rockwell Canyon Rd,Santa Clarita,CA,91355,"10/24 - 11/02: 10:00 AM to 7:00 PM, 11/03: 7:00 AM to 8:00 PM ",,,,East Gymnasium,11,34.40275,-118.569139,0,2020-11-03T09:00:04.623,,,,,False,True,True,False,False,2020-11-03T00:00:00,2020-10-24T00:00:00,2020-11-02T00:00:00,2020-10-30T00:00:00
135,14059,3,4193,Columbia College Hollywood,18618 W Oxnard St,Tarzana,CA,91356,"10/30 - 11/02: 10:00 AM to 7:00 PM, 11/03: 7:00 AM to 8:00 PM ",,,,Outdoor - Parking Lot,5,34.179422,-118.538907,5,2020-11-03T09:00:04.653,,,,,False,True,True,False,False,2020-11-03T00:00:00,2020-10-24T00:00:00,2020-11-02T00:00:00,2020-10-30T00:00:00
136,6945,3,4193,Columbia Elementary School,3400 California Ave,El Monte,CA,91731,"10/30 - 11/02: 10:00 AM to 7:00 PM, 11/03: 7:00 AM to 8:00 PM ",,,,Multi-Purpose Room Hall 123,5,34.070864,-118.033263,0,2020-11-03T09:00:04.497,,,,,False,True,True,False,False,2020-11-03T00:00:00,2020-10-24T00:00:00,2020-11-02T00:00:00,2020-10-30T00:00:00
137,7831,3,4193,Columbus Middle School,22250 Elkwood St,Canoga Park,CA,91304,"10/30 - 11/02: 10:00 AM to 7:00 PM, 11/03: 7:00 AM to 8:00 PM ",,,,Library,5,34.211901,-118.611955,6,2020-11-03T09:00:04.497,,,,,False,True,True,False,False,2020-11-03T00:00:00,2020-10-24T00:00:00,2020-11-02T00:00:00,2020-10-30T00:00:00
138,14660,3,4193,Community Christian Church,10193 Tujunga Canyon Blvd,Tujunga,CA,91042,"10/30 - 11/02: 10:00 AM to 7:00 PM, 11/03: 7:00 AM to 8:00 PM ",,,,Coffee House and Sanctuary,5,34.251043,-118.290791,8,2020-11-03T09:00:04.823,,,,,False,True,True,False,False,2020-11-03T00:00:00,2020-10-24T00:00:00,2020-11-02T00:00:00,2020-10-30T00:00:00
139,12880,3,4193,Community Church of Los Angeles,10611 S Hoover St,Los Angeles,CA,90044,"10/30 - 11/02: 10:00 AM to 7:00 PM, 11/03: 7:00 AM to 8:00 PM ",,,,Fellowship Hall,5,33.939497,-118.287206,7,2020-11-03T09:00:04.59,,,,,False,True,True,False,False,2020-11-03T00:00:00,2020-10-24T00:00:00,2020-11-02T00:00:00,2020-10-30T00:00:00
140,14060,3,4193,Compton College,1111 E Artesia Blvd,Compton,CA,90221,"10/24 - 11/02: 10:00 AM to 7:00 PM, 11/03: 7:00 AM to 8:00 PM ",,,,Gymnasium,11,33.877393,-118.209863,8,2020-11-03T09:00:04.653,,,,,False,True,True,False,False,2020-11-03T00:00:00,2020-10-24T00:00:00,2020-11-02T00:00:00,2020-10-30T00:00:00
141,14653,3,4193,Coolidge Elementary School,421 N Mission Dr,San Gabriel,CA,91775,"10/30 - 11/02: 10:00 AM to 7:00 PM, 11/03: 7:00 AM to 8:00 PM ",,,,Cafeteria,5,34.109038,-118.111637,8,2020-11-03T09:00:04.823,,,,,False,True,True,False,False,2020-11-03T00:00:00,2020-10-24T00:00:00,2020-11-02T00:00:00,2020-10-30T00:00:00
142,3577,3,4193,Cortada Elementary School,3111 Potrero Ave,El Monte,CA,91733,"10/30 - 11/02: 10:00 AM to 7:00 PM, 11/03: 7:00 AM to 8:00 PM ",,,,Multi-Purpose Room,5,34.065369,-118.056769,8,2020-11-03T09:00:04.433,,,,,False,True,True,False,False,2020-11-03T00:00:00,2020-10-24T00:00:00,2020-11-02T00:00:00,2020-10-30T00:00:00
143,5340,3,4193,Cortez Park Community and Senior Center,2501 E Cortez St,West Covina,CA,91791,"10/30 - 11/02: 10:00 AM to 7:00 PM, 11/03: 7:00 AM to 8:00 PM ",,,,North Wing,5,34.064628,-117.892099,8,2020-11-03T09:00:04.467,,,,,False,True,True,False,False,2020-11-03T00:00:00,2020-10-24T00:00:00,2020-11-02T00:00:00,2020-10-30T00:00:00
144,14301,3,4193,Corvallis Middle School,11032 Leffingwell Rd,Norwalk,CA,90650,"10/30 - 11/02: 10:00 AM to 7:00 PM, 11/03: 7:00 AM to 8:00 PM ",,,,Multi-Purpose Room,5,33.90688,-118.097858,8,2020-11-03T09:00:04.73,,,,,False,True,True,False,False,2020-11-03T00:00:00,2020-10-24T00:00:00,2020-11-02T00:00:00,2020-10-30T00:00:00
145,14592,3,4193,Courtyard by Marriott LA West Side,6333 Bristol Pkwy,Culver City,CA,90230,"10/30 - 11/02: 10:00 AM to 7:00 PM, 11/03: 7:00 AM to 8:00 PM ",,,,Palisades Room,5,33.981736,-118.392394,0,2020-11-03T09:00:04.81,,,,,False,True,True,False,False,2020-11-03T00:00:00,2020-10-24T00:00:00,2020-11-02T00:00:00,2020-10-30T00:00:00
146,14235,3,4193,Courtyard Thousand Oaks - Agoura Hills,29505 Agoura Rd,Agoura Hills,CA,91301,"10/24 - 11/02: 10:00 AM to 7:00 PM, 11/03: 7:00 AM to 8:00 PM ",,,,Ocaso Ballroom and Sierra Ballroom,11,34.145214,-118.769285,8,2020-11-03T09:00:04.73,,,,,False,True,True,False,False,2020-11-03T00:00:00,2020-10-24T00:00:00,2020-11-02T00:00:00,2020-10-30T00:00:00
147,10995,3,4193,Covina Senior and Community Center,815 N Barranca Ave,Covina,CA,91723,"10/30 - 11/02: 10:00 AM to 7:00 PM, 11/03: 7:00 AM to 8:00 PM ",,,,"California Rooms 1, 2 and 3",5,34.094244,-117.88233,4,2020-11-03T09:00:04.56,,,,,False,True,True,False,False,2020-11-03T00:00:00,2020-10-24T00:00:00,2020-11-02T00:00:00,2020-10-30T00:00:00
148,10993,3,4193,Covina Woman's Club,128 S San Jose Ave,Covina,CA,91723,"10/24 - 11/02: 10:00 AM to 7:00 PM, 11/03: 7:00 AM to 8:00 PM ",,,,Hall,11,34.085136,-117.883164,5,2020-11-03T09:00:04.543,,,,,False,True,True,False,False,2020-11-03T00:00:00,2020-10-24T00:00:00,2020-11-02T00:00:00,2020-10-30T00:00:00
149,11729,3,4193,Crenshaw High School,5010 11th Ave,Los Angeles,CA,90043,"10/30 - 11/02: 10:00 AM to 7:00 PM, 11/03: 7:00 AM to 8:00 PM ",,,,South Side Gymnasium,5,33.996948,-118.328985,8,2020-11-03T09:00:04.56,,,,,False,True,True,False,False,2020-11-03T00:00:00,2020-10-24T00:00:00,2020-11-02T00:00:00,2020-10-30T00:00:00
150,14556,3,4193,Crescenta Valley High School,2900 Community Ave,La Crescenta,CA,91214,"10/30 - 11/02: 10:00 AM to 7:00 PM, 11/03: 7:00 AM to 8:00 PM ",,,,Varsity Gymnasium,5,34.223659,-118.24221,4,2020-11-03T09:00:04.79,,,,,False,True,True,False,False,2020-11-03T00:00:00,2020-10-24T00:00:00,2020-11-02T00:00:00,2020-10-30T00:00:00
151,395,3,4193,Crowther Teen and Family Center,241 W Dawson Ave,Glendora,CA,91741,"10/30 - 11/02: 10:00 AM to 7:00 PM, 11/03: 7:00 AM to 8:00 PM ",,,,Gymnasium,5,34.117628,-117.866698,8,2020-11-03T09:00:04.37,,,,,False,True,True,False,False,2020-11-03T00:00:00,2020-10-24T00:00:00,2020-11-02T00:00:00,2020-10-30T00:00:00
152,14159,3,4193,Crozier Middle School,120 W Regent St,Inglewood,CA,90301,"10/30 - 11/02: 10:00 AM to 7:00 PM, 11/03: 7:00 AM to 8:00 PM ",,,,Gymnasium,5,33.963881,-118.356303,0,2020-11-03T09:00:04.697,,,,,False,True,True,False,False,2020-11-03T00:00:00,2020-10-24T00:00:00,2020-11-02T00:00:00,2020-10-30T00:00:00
153,14198,3,4193,Culver City Julian Dixon Library,4975 Overland Ave,Culver City,CA,90230,"10/30 - 11/02: 10:00 AM to 7:00 PM, 11/03: 7:00 AM to 8:00 PM ",,,,Homework Center and Meeting Room,5,34.007504,-118.39715,8,2020-11-03T09:00:04.713,,,,,False,True,True,False,False,2020-11-03T00:00:00,2020-10-24T00:00:00,2020-11-02T00:00:00,2020-10-30T00:00:00
154,14528,3,4193,Curtiss Middle School,1254 E Helmick St,Carson,CA,90746,"10/30 - 11/02: 10:00 AM to 7:00 PM, 11/03: 7:00 AM to 8:00 PM ",,,,Gymnasium,5,33.851154,-118.250718,0,2020-11-03T09:00:04.777,,,,,False,True,True,False,False,2020-11-03T00:00:00,2020-10-24T00:00:00,2020-11-02T00:00:00,2020-10-30T00:00:00
155,11742,3,4193,Cyrus J Morris Elementary School,19875 E Calle Baja Dr,Walnut,CA,91789,"10/30 - 11/02: 10:00 AM to 7:00 PM, 11/03: 7:00 AM to 8:00 PM ",,,,Multi-Purpose Room,5,34.012429,-117.867932,8,2020-11-03T09:00:04.56,,,,,False,True,True,False,False,2020-11-03T00:00:00,2020-10-24T00:00:00,2020-11-02T00:00:00,2020-10-30T00:00:00
156,7153,3,4193,D D Johnston Elementary School,13421 Fairford Ave,Norwalk,CA,90650,"10/30 - 11/02: 10:00 AM to 7:00 PM, 11/03: 7:00 AM to 8:00 PM ",,,,Multi-Purpose Room,5,33.909011,-118.096216,8,2020-11-03T09:00:04.497,,,,,False,True,True,False,False,2020-11-03T00:00:00,2020-10-24T00:00:00,2020-11-02T00:00:00,2020-10-30T00:00:00
157,3747,3,4193,Dae Hueng Korean Presbyterian Church,15411 S Figueroa St,Gardena,CA,90248,"10/30 - 11/02: 10:00 AM to 7:00 PM, 11/03: 7:00 AM to 8:00 PM ",,,,Garage Warehouse,5,33.891393,-118.283168,8,2020-11-03T09:00:04.433,,,,,False,True,True,False,False,2020-11-03T00:00:00,2020-10-24T00:00:00,2020-11-02T00:00:00,2020-10-30T00:00:00
158,14160,3,4193,Dan Diaz Recreation Center,16053 Calle De Paseo,Irwindale,CA,91706,"10/30 - 11/02: 10:00 AM to 7:00 PM, 11/03: 7:00 AM to 8:00 PM ",,,,Gymnasium,5,34.103816,-117.932654,3,2020-11-03T09:00:04.697,,,,,False,True,True,False,False,2020-11-03T00:00:00,2020-10-24T00:00:00,2020-11-02T00:00:00,2020-10-30T00:00:00
159,4484,3,4193,Dana Middle School,5504 W 135th St,Hawthorne,CA,90250,"10/30 - 11/02: 10:00 AM to 7:00 PM, 11/03: 7:00 AM to 8:00 PM ",,,,Multi-Purpose Room,5,33.909387,-118.376674,4,2020-11-03T09:00:04.45,,,,,False,True,True,False,False,2020-11-03T00:00:00,2020-10-24T00:00:00,2020-11-02T00:00:00,2020-10-30T00:00:00
160,1855,3,4193,Daniel Webster Middle School,11330 Graham Pl,Los Angeles,CA,90064,"10/30 - 11/02: 10:00 AM to 7:00 PM, 11/03: 7:00 AM to 8:00 PM ",,,,Multi-Purpose Room,5,34.029775,-118.435319,8,2020-11-03T09:00:04.387,,,,,False,True,True,False,False,2020-11-03T00:00:00,2020-10-24T00:00:00,2020-11-02T00:00:00,2020-10-30T00:00:00
161,14305,3,4193,Dapple Gray Elementary School,3011 Palos Verdes Dr N,Rolling Hills Estates,CA,90274,"10/30 - 11/02: 10:00 AM to 7:00 PM, 11/03: 7:00 AM to 8:00 PM ",,,,Multi-Purpose Room,5,33.772964,-118.33878,7,2020-11-03T09:00:04.73,,,,,False,True,True,False,False,2020-11-03T00:00:00,2020-10-24T00:00:00,2020-11-02T00:00:00,2020-10-30T00:00:00
162,13845,3,4193,Darby Park,3400 W Arbor Vitae St,Inglewood,CA,90305,"10/24 - 11/02: 10:00 AM to 7:00 PM, 11/03: 7:00 AM to 8:00 PM ",,,,Gymnasium,11,33.953131,-118.329541,0,2020-11-03T09:00:04.623,,,,,False,True,True,False,False,2020-11-03T00:00:00,2020-10-24T00:00:00,2020-11-02T00:00:00,2020-10-30T00:00:00
163,2328,3,4193,Del Aire Park,12601 Isis Ave,Hawthorne,CA,90250,"10/24 - 11/02: 10:00 AM to 7:00 PM, 11/03: 7:00 AM to 8:00 PM ",,,,Gymnasium,11,33.91821,-118.374868,8,2020-11-03T09:00:04.4,,,,,False,True,True,False,False,2020-11-03T00:00:00,2020-10-24T00:00:00,2020-11-02T00:00:00,2020-10-30T00:00:00
164,14309,3,4193,DEL Records and Sony Music Latin,6400 Garfield Ave,Bell Gardens,CA,90201,"10/30 - 11/02: 10:00 AM to 7:00 PM, 11/03: 7:00 AM to 8:00 PM ",,,,Main Building,5,33.973147,-118.146866,8,2020-11-03T09:00:04.73,,,,,False,True,True,False,False,2020-11-03T00:00:00,2020-10-24T00:00:00,2020-11-02T00:00:00,2020-10-30T00:00:00
165,14064,3,4193,Destiny Christian Center International,44628 10th Street West,Lancaster,CA,93534,"10/30 - 11/02: 10:00 AM to 7:00 PM, 11/03: 7:00 AM to 8:00 PM ",,,,Admen Room,5,34.695066,-118.148013,8,2020-11-03T09:00:04.653,,,,,False,True,True,False,False,2020-11-03T00:00:00,2020-10-24T00:00:00,2020-11-02T00:00:00,2020-10-30T00:00:00
166,13903,3,4193,Diamond Bar Center,1600 Grand Ave,Diamond Bar,CA,91765,"10/24 - 11/02: 10:00 AM to 7:00 PM, 11/03: 7:00 AM to 8:00 PM ",,,,Grand Ballroom,11,33.99869,-117.797691,8,2020-11-03T09:00:04.64,,,,,False,True,True,False,False,2020-11-03T00:00:00,2020-10-24T00:00:00,2020-11-02T00:00:00,2020-10-30T00:00:00
167,3968,3,4193,Diamond Bar City Hall,21810 Copley Dr,Diamond Bar,CA,91765,"10/30 - 11/02: 10:00 AM to 7:00 PM, 11/03: 7:00 AM to 8:00 PM ",,,,Windmill Room,5,33.999104,-117.830657,8,2020-11-03T09:00:04.433,,,,,False,True,True,False,False,2020-11-03T00:00:00,2020-10-24T00:00:00,2020-11-02T00:00:00,2020-10-30T00:00:00
168,14546,3,4193,Diamond Bar High School,21400 Pathfinder Rd,Diamond Bar,CA,91765,"10/30 - 11/02: 10:00 AM to 7:00 PM, 11/03: 7:00 AM to 8:00 PM ",,,,Gymnasium,5,33.982514,-117.839035,8,2020-11-03T09:00:04.79,,,,,False,True,True,False,False,2020-11-03T00:00:00,2020-10-24T00:00:00,2020-11-02T00:00:00,2020-10-30T00:00:00
169,1926,3,4193,Disabled American Veterans #73,6543 Corbin Ave,Woodland Hills,CA,91367,"10/24 - 11/02: 10:00 AM to 7:00 PM, 11/03: 7:00 AM to 8:00 PM ",,,,Meeting Room,11,34.189851,-118.563984,8,2020-11-03T09:00:04.387,,,,,False,True,True,False,False,2020-11-03T00:00:00,2020-10-24T00:00:00,2020-11-02T00:00:00,2020-10-30T00:00:00
170,11055,3,4193,Dockweiler Youth Center,12505 Vista del Mar,Playa Del Rey,CA,90293,"10/24 - 11/02: 10:00 AM to 7:00 PM, 11/03: 7:00 AM to 8:00 PM ",,,,"Community Rooms A, B and C",11,33.922277,-118.431725,8,2020-11-03T09:00:04.56,,,,,False,True,True,False,False,2020-11-03T00:00:00,2020-10-24T00:00:00,2020-11-02T00:00:00,2020-10-30T00:00:00
171,14161,3,4193,Dodger Stadium,1000 Vin Scully Ave,Los Angeles,CA,90012,"10/30 - 11/02: 10:00 AM to 7:00 PM, 11/03: 7:00 AM to 8:00 PM ",,,,Outdoor - Upper Deck,5,34.072511,-118.246737,8,2020-11-03T09:00:04.697,,,,,False,True,True,False,False,2020-11-03T00:00:00,2020-10-24T00:00:00,2020-11-02T00:00:00,2020-10-30T00:00:00
172,14061,3,4193,Dollarhide Health Center,1108 N Oleander Ave,Compton,CA,90222,"10/30 - 11/02: 10:00 AM to 7:00 PM, 11/03: 7:00 AM to 8:00 PM ",,,,Compton Youthbuild,5,33.903467,-118.230026,8,2020-11-03T09:00:04.653,,,,,False,True,True,False,False,2020-11-03T00:00:00,2020-10-24T00:00:00,2020-11-02T00:00:00,2020-10-30T00:00:00
173,14529,3,4193,Dominguez Elementary School,21250 S Santa Fe Ave,Carson,CA,90810,"10/30 - 11/02: 10:00 AM to 7:00 PM, 11/03: 7:00 AM to 8:00 PM ",,,,Multi-Purpose Room,5,33.836293,-118.214931,8,2020-11-03T09:00:04.777,,,,,False,True,True,False,False,2020-11-03T00:00:00,2020-10-24T00:00:00,2020-11-02T00:00:00,2020-10-30T00:00:00
174,14164,3,4193,DoubleTree by Hilton LA Downtown,120 S Los Angeles St,Los Angeles,CA,90012,"10/24 - 11/02: 10:00 AM to 7:00 PM, 11/03: 7:00 AM to 8:00 PM ",,,,Golden Ballroom and California Ballroom,11,34.05092,-118.242624,8,2020-11-03T09:00:04.697,,,,,False,True,True,False,False,2020-11-03T00:00:00,2020-10-24T00:00:00,2020-11-02T00:00:00,2020-10-30T00:00:00
175,14163,3,4193,DoubleTree by Hilton LAX - El Segundo,1985 East Grand Ave,El Segundo,CA,90245,"10/30 - 11/02: 10:00 AM to 7:00 PM, 11/03: 7:00 AM to 8:00 PM ",,,,Pacific Ballroom,5,33.919761,-118.3918,8,2020-11-03T09:00:04.697,,,,,False,True,True,False,False,2020-11-03T00:00:00,2020-10-24T00:00:00,2020-11-02T00:00:00,2020-10-30T00:00:00
176,14515,3,4193,DoubleTree San Pedro Port of LA,2800 Via Cabrillo-Marina,San Pedro,CA,90731,"10/24 - 11/02: 10:00 AM to 7:00 PM, 11/03: 7:00 AM to 8:00 PM ",,,,Madeo Ballroom,11,33.718616,-118.2821,5,2020-11-03T09:00:04.777,,,,,False,True,True,False,False,2020-11-03T00:00:00,2020-10-24T00:00:00,2020-11-02T00:00:00,2020-10-30T00:00:00
177,14165,3,4193,Dr Ronald E McNair Elementary School,1450 W El Segundo Blvd,Compton,CA,90221,"10/30 - 11/02: 10:00 AM to 7:00 PM, 11/03: 7:00 AM to 8:00 PM ",,,,Multi-Purpose Room,5,33.916161,-118.246984,8,2020-11-03T09:00:04.7,,,,,False,True,True,False,False,2020-11-03T00:00:00,2020-10-24T00:00:00,2020-11-02T00:00:00,2020-10-30T00:00:00
178,6503,3,4193,Drake Park,951 Maine Ave,Long Beach,CA,90813,"10/30 - 11/02: 10:00 AM to 7:00 PM, 11/03: 7:00 AM to 8:00 PM ",,,,Social Hall,5,33.778192,-118.201363,8,2020-11-03T09:00:04.48,,,,,False,True,True,False,False,2020-11-03T00:00:00,2020-10-24T00:00:00,2020-11-02T00:00:00,2020-10-30T00:00:00
179,13811,3,4193,Duarte High School,1565 E Central Ave,Duarte,CA,91010,"10/30 - 11/02: 10:00 AM to 7:00 PM, 11/03: 7:00 AM to 8:00 PM ",,,,Gymnasium,5,34.136514,-117.971666,8,2020-11-03T09:00:04.607,,,,,False,True,True,False,False,2020-11-03T00:00:00,2020-10-24T00:00:00,2020-11-02T00:00:00,2020-10-30T00:00:00
180,4374,3,4193,Durfee Elementary School,4220 Durfee Ave,Pico Rivera,CA,90660,"10/30 - 11/02: 10:00 AM to 7:00 PM, 11/03: 7:00 AM to 8:00 PM ",,,,Cafe/Auditorium and Staff Room,5,34.01226,-118.075315,0,2020-11-03T09:00:04.45,,,,,False,True,True,False,False,2020-11-03T00:00:00,2020-10-24T00:00:00,2020-11-02T00:00:00,2020-10-30T00:00:00
181,3155,3,4193,E Whittier United Methodist Church,10005 Cole Rd,Whittier,CA,90603,"10/30 - 11/02: 10:00 AM to 7:00 PM, 11/03: 7:00 AM to 8:00 PM ",,,,Greer Hall,5,33.946072,-118.006312,8,2020-11-03T09:00:04.42,,,,,False,True,True,False,False,2020-11-03T00:00:00,2020-10-24T00:00:00,2020-11-02T00:00:00,2020-10-30T00:00:00
182,14578,3,4193,Eagle Rock Elementary School,2057 Fair Park Ave,Los Angeles,CA,90041,"10/30 - 11/02: 10:00 AM to 7:00 PM, 11/03: 7:00 AM to 8:00 PM ",,,,Multi-Purpose Room,5,34.135935,-118.21284,8,2020-11-03T09:00:04.79,,,,,False,True,True,False,False,2020-11-03T00:00:00,2020-10-24T00:00:00,2020-11-02T00:00:00,2020-10-30T00:00:00
183,1478,3,4193,Eagle Rock Plaza,2700 Colorado Blvd,Los Angeles,CA,90041,"10/30 - 11/02: 10:00 AM to 7:00 PM, 11/03: 7:00 AM to 8:00 PM ",,,,Room 108,5,34.141415,-118.226737,3,2020-11-03T09:00:04.387,,,,,False,True,True,False,False,2020-11-03T00:00:00,2020-10-24T00:00:00,2020-11-02T00:00:00,2020-10-30T00:00:00
184,379,3,4193,Eagle Rock Recreation Center,1100 Eagle Vista Dr,Los Angeles,CA,90041,"10/30 - 11/02: 10:00 AM to 7:00 PM, 11/03: 7:00 AM to 8:00 PM ",,,,Gymnasium,5,34.142936,-118.188069,8,2020-11-03T09:00:04.37,,,,,False,True,True,False,False,2020-11-03T00:00:00,2020-10-24T00:00:00,2020-11-02T00:00:00,2020-10-30T00:00:00
185,8782,3,4193,East LA Rising Youth Club,324 N McDonnell Ave,Los Angeles,CA,90022,"10/30 - 11/02: 10:00 AM to 7:00 PM, 11/03: 7:00 AM to 8:00 PM ",,,,Gymnasium,5,34.039391,-118.166795,8,2020-11-03T09:00:04.513,,,,,False,True,True,False,False,2020-11-03T00:00:00,2020-10-24T00:00:00,2020-11-02T00:00:00,2020-10-30T00:00:00
186,11770,3,4193,East Los Angeles College,1301 Avenida Cesar Chavez,Monterey Park,CA,91754,"10/24 - 11/02: 10:00 AM to 7:00 PM, 11/03: 7:00 AM to 8:00 PM ",,,,Music Bldg - Room 121,11,34.040569,-118.149812,8,2020-11-03T09:00:04.56,,,,,False,True,True,False,False,2020-11-03T00:00:00,2020-10-24T00:00:00,2020-11-02T00:00:00,2020-10-30T00:00:00
187,14315,3,4193,East Los Angeles Library,4837 E 3rd St,Los Angeles,CA,90022,"10/30 - 11/02: 10:00 AM to 7:00 PM, 11/03: 7:00 AM to 8:00 PM ",,,,Meeting Room and Childrens Area/Lobby,5,34.034019,-118.159911,8,2020-11-03T09:00:04.743,,,,,False,True,True,False,False,2020-11-03T00:00:00,2020-10-24T00:00:00,2020-11-02T00:00:00,2020-10-30T00:00:00
188,9389,3,4193,East Rancho Dominguez Park,15116 S Atlantic Ave,Compton,CA,90221,"10/24 - 11/02: 10:00 AM to 7:00 PM, 11/03: 7:00 AM to 8:00 PM ",,,,Gymnasium,11,33.895482,-118.192912,8,2020-11-03T09:00:04.53,,,,,False,True,True,False,False,2020-11-03T00:00:00,2020-10-24T00:00:00,2020-11-02T00:00:00,2020-10-30T00:00:00
189,12986,3,4193,East Whittier Middle School,14421 Whittier Blvd,Whittier,CA,90605,"10/30 - 11/02: 10:00 AM to 7:00 PM, 11/03: 7:00 AM to 8:00 PM ",,,,Gymnasium,5,33.954927,-118.016393,0,2020-11-03T09:00:04.59,,,,,False,True,True,False,False,2020-11-03T00:00:00,2020-10-24T00:00:00,2020-11-02T00:00:00,2020-10-30T00:00:00
190,14770,3,4193,Eastmont Community Center,701 Hoefner Ave,Los Angeles,CA,90022,"10/30 - 11/02: 10:00 AM to 7:00 PM, 11/03: 7:00 AM to 8:00 PM ",,,,"Room A, B, and C",5,34.021179,-118.150134,8,2020-11-03T09:00:04.823,,,,,False,True,True,False,False,2020-11-03T00:00:00,2020-10-24T00:00:00,2020-11-02T00:00:00,2020-10-30T00:00:00
191,13991,3,4193,Eastside High School,3200 East Avenue J 8,Lancaster,CA,93535,"10/30 - 11/02: 10:00 AM to 7:00 PM, 11/03: 7:00 AM to 8:00 PM ",,,,Gymnasium,5,34.68249,-118.070953,4,2020-11-03T09:00:04.64,,,,,False,True,True,False,False,2020-11-03T00:00:00,2020-10-24T00:00:00,2020-11-02T00:00:00,2020-10-30T00:00:00
192,13957,3,4193,Echo Community Center,313 Patton St,Los Angeles,CA,90026,"10/30 - 11/02: 10:00 AM to 7:00 PM, 11/03: 7:00 AM to 8:00 PM ",,,,Gymnasium,5,34.065605,-118.259064,7,2020-11-03T09:00:04.64,,,,,False,True,True,False,False,2020-11-03T00:00:00,2020-10-24T00:00:00,2020-11-02T00:00:00,2020-10-30T00:00:00
193,10862,3,4193,Edgewood Academy Elementary School,14135 Fairgrove Ave,La Puente,CA,91746,"10/30 - 11/02: 10:00 AM to 7:00 PM, 11/03: 7:00 AM to 8:00 PM ",,,,Cafeteria,5,34.055778,-117.967983,8,2020-11-03T09:00:04.543,,,,,False,True,True,False,False,2020-11-03T00:00:00,2020-10-24T00:00:00,2020-11-02T00:00:00,2020-10-30T00:00:00
194,1377,3,4193,El Camino Community College,16007 Crenshaw Blvd,Torrance,CA,90506,"10/30 - 11/02: 10:00 AM to 7:00 PM, 11/03: 7:00 AM to 8:00 PM ",,,,East Dining Room,5,33.885546,-118.32736,8,2020-11-03T09:00:04.387,,,,,False,True,True,False,False,2020-11-03T00:00:00,2020-10-24T00:00:00,2020-11-02T00:00:00,2020-10-30T00:00:00
195,2636,3,4193,El Camino High School,14625 Keese Dr,Whittier,CA,90604,"10/30 - 11/02: 10:00 AM to 7:00 PM, 11/03: 7:00 AM to 8:00 PM ",,,,Multi-Purpose Room,5,33.919889,-118.019313,8,2020-11-03T09:00:04.42,,,,,False,True,True,False,False,2020-11-03T00:00:00,2020-10-24T00:00:00,2020-11-02T00:00:00,2020-10-30T00:00:00
196,14316,3,4193,El Camino Real Charter High School,5440 Valley Circle Blvd,Woodland Hills,CA,91367,"10/30 - 11/02: 10:00 AM to 7:00 PM, 11/03: 7:00 AM to 8:00 PM ",,,,Anderson Hall,5,34.169537,-118.643069,4,2020-11-03T09:00:04.743,,,,,False,True,True,False,False,2020-11-03T00:00:00,2020-10-24T00:00:00,2020-11-02T00:00:00,2020-10-30T00:00:00
197,11791,3,4193,El Hussein Community Center,4313 Gage Ave,Bell,CA,90201,"10/24 - 11/02: 10:00 AM to 7:00 PM, 11/03: 7:00 AM to 8:00 PM ",,,,Youth Center,11,33.97875,-118.190961,8,2020-11-03T09:00:04.577,,,,,False,True,True,False,False,2020-11-03T00:00:00,2020-10-24T00:00:00,2020-11-02T00:00:00,2020-10-30T00:00:00
198,423,3,4193,El Monte Community Center,3130 Tyler Ave,El Monte,CA,91731,"10/30 - 11/02: 10:00 AM to 7:00 PM, 11/03: 7:00 AM to 8:00 PM ",,,,Grace T Black Auditorium,5,34.06572,-118.035218,8,2020-11-03T09:00:04.37,,,,,False,True,True,False,False,2020-11-03T00:00:00,2020-10-24T00:00:00,2020-11-02T00:00:00,2020-10-30T00:00:00
199,13395,3,4193,El Monte Station (LA Metro),3501 Santa Anita Ave,El Monte,CA,91731,"10/24 - 11/02: 10:00 AM to 7:00 PM, 11/03: 7:00 AM to 8:00 PM ",,,,Retail Space,11,34.071523,-118.044612,8,2020-11-03T09:00:04.607,,,,,False,True,True,False,False,2020-11-03T00:00:00,2020-10-24T00:00:00,2020-11-02T00:00:00,2020-10-30T00:00:00
200,12476,3,4193,El Roble Intermediate School,665 N Mountain Ave,Claremont,CA,91711,"10/30 - 11/02: 10:00 AM to 7:00 PM, 11/03: 7:00 AM to 8:00 PM ",,,,Multi-Purpose Room,5,34.099528,-117.729833,8,2020-11-03T09:00:04.577,,,,,False,True,True,False,False,2020-11-03T00:00:00,2020-10-24T00:00:00,2020-11-02T00:00:00,2020-10-30T00:00:00
201,14481,3,4193,El Segundo Teen Center,405 East Grand Ave,El Segundo,CA,90245,"10/30 - 11/02: 10:00 AM to 7:00 PM, 11/03: 7:00 AM to 8:00 PM ",,,,Recreation Room,5,33.91977,-118.412049,8,2020-11-03T09:00:04.76,,,,,False,True,True,False,False,2020-11-03T00:00:00,2020-10-24T00:00:00,2020-11-02T00:00:00,2020-10-30T00:00:00
202,1732,3,4193,Elizabeth Learning Center,4811 Elizabeth St,Cudahy,CA,90201,"10/30 - 11/02: 10:00 AM to 7:00 PM, 11/03: 7:00 AM to 8:00 PM ",,,,Multi-Purpose Room,5,33.963156,-118.182956,8,2020-11-03T09:00:04.387,,,,,False,True,True,False,False,2020-11-03T00:00:00,2020-10-24T00:00:00,2020-11-02T00:00:00,2020-10-30T00:00:00
203,14318,3,4193,Elks Lodge 2190,20925 Osborne St,Canoga Park,CA,91304,"10/30 - 11/02: 10:00 AM to 7:00 PM, 11/03: 7:00 AM to 8:00 PM ",,,,Main Hall,5,34.233451,-118.589497,8,2020-11-03T09:00:04.743,,,,,False,True,True,False,False,2020-11-03T00:00:00,2020-10-24T00:00:00,2020-11-02T00:00:00,2020-10-30T00:00:00
204,9291,3,4193,Elysian Masonic Lodge,1900 N Vermont Ave,Los Angeles,CA,90027,"10/30 - 11/02: 10:00 AM to 7:00 PM, 11/03: 7:00 AM to 8:00 PM ",,,,Dining Room,5,34.105615,-118.29161,8,2020-11-03T09:00:04.53,,,,,False,True,True,False,False,2020-11-03T00:00:00,2020-10-24T00:00:00,2020-11-02T00:00:00,2020-10-30T00:00:00
205,2755,3,4193,Elysian Park Therapeutic Rec Center,929 Academy Rd,Los Angeles,CA,90012,"10/30 - 11/02: 10:00 AM to 7:00 PM, 11/03: 7:00 AM to 8:00 PM ",,,,Multi-Purpose Room,5,34.080903,-118.237933,8,2020-11-03T09:00:04.42,,,,,False,True,True,False,False,2020-11-03T00:00:00,2020-10-24T00:00:00,2020-11-02T00:00:00,2020-10-30T00:00:00
206,4401,3,4193,Elysian Valley Recreation Center,1811 Ripple St,Los Angeles,CA,90039,"10/30 - 11/02: 10:00 AM to 7:00 PM, 11/03: 7:00 AM to 8:00 PM ",,,,Gymnasium,5,34.09891,-118.245098,8,2020-11-03T09:00:04.45,,,,,False,True,True,False,False,2020-11-03T00:00:00,2020-10-24T00:00:00,2020-11-02T00:00:00,2020-10-30T00:00:00
207,14167,3,4193,Embassy Suites by Hilton LAX North,9801 Airport Blvd,El Segundo,CA,90245,"10/30 - 11/02: 10:00 AM to 7:00 PM, 11/03: 7:00 AM to 8:00 PM ",,,,Pacific Ballroom,5,33.947064,-118.386059,8,2020-11-03T09:00:04.7,,,,,False,True,True,False,False,2020-11-03T00:00:00,2020-10-24T00:00:00,2020-11-02T00:00:00,2020-10-30T00:00:00
208,14591,3,4193,Embassy Suites by Hilton LAX South,1440 East Imperial Highway,El Segundo,CA,90245,"10/30 - 11/02: 10:00 AM to 7:00 PM, 11/03: 7:00 AM to 8:00 PM ",,,,Valencia/Sevilla/Madrid Ballrooms,5,33.930587,-118.400726,8,2020-11-03T09:00:04.81,,,,,False,True,True,False,False,2020-11-03T00:00:00,2020-10-24T00:00:00,2020-11-02T00:00:00,2020-10-30T00:00:00
209,14582,3,4193,Emerson Middle School,1650 Selby Ave,Los Angeles,CA,90024,"10/30 - 11/02: 10:00 AM to 7:00 PM, 11/03: 7:00 AM to 8:00 PM ",,,,Gymnasium,5,34.054008,-118.436211,23,2020-11-03T09:00:04.79,,,,,False,True,True,False,False,2020-11-03T00:00:00,2020-10-24T00:00:00,2020-11-02T00:00:00,2020-10-30T00:00:00
210,14170,3,4193,Encinita Elementary School,4515 Encinita Ave,Rosemead,CA,91770,"10/30 - 11/02: 10:00 AM to 7:00 PM, 11/03: 7:00 AM to 8:00 PM ",,,,Multi-Purpose Room,5,34.087154,-118.067713,8,2020-11-03T09:00:04.7,,,,,False,True,True,False,False,2020-11-03T00:00:00,2020-10-24T00:00:00,2020-11-02T00:00:00,2020-10-30T00:00:00
211,14171,3,4193,Endeavour Middle School,43755 45th Street West,Lancaster,CA,93536,"10/30 - 11/02: 10:00 AM to 7:00 PM, 11/03: 7:00 AM to 8:00 PM ",,,,Gymnasium,5,34.677849,-118.210323,8,2020-11-03T09:00:04.7,,,,,False,True,True,False,False,2020-11-03T00:00:00,2020-10-24T00:00:00,2020-11-02T00:00:00,2020-10-30T00:00:00
212,1823,3,4193,Enterprise Park,13055 Clovis Ave,Los Angeles,CA,90059,"10/24 - 11/02: 10:00 AM to 7:00 PM, 11/03: 7:00 AM to 8:00 PM ",,,,Gymnasium,11,33.913445,-118.257738,8,2020-11-03T09:00:04.387,,,,,False,True,True,False,False,2020-11-03T00:00:00,2020-10-24T00:00:00,2020-11-02T00:00:00,2020-10-30T00:00:00
213,14172,3,4193,Episcopal Church - The Ascension,25 E Laurel Ave,Sierra Madre,CA,91024,"10/30 - 11/02: 10:00 AM to 7:00 PM, 11/03: 7:00 AM to 8:00 PM ",,,,The Church Hall,5,34.165633,-118.051925,4,2020-11-03T09:00:04.7,,,,,False,True,True,False,False,2020-11-03T00:00:00,2020-10-24T00:00:00,2020-11-02T00:00:00,2020-10-30T00:00:00
214,13038,3,4193,Epoca Hall,6624 Atlantic Ave,Bell,CA,90201,"10/24 - 11/02: 10:00 AM to 7:00 PM, 11/03: 7:00 AM to 8:00 PM ",,,,Banquet Hall,11,33.975558,-118.18724,7,2020-11-03T09:00:04.59,,,,,False,True,True,False,False,2020-11-03T00:00:00,2020-10-24T00:00:00,2020-11-02T00:00:00,2020-10-30T00:00:00
215,14066,3,4193,ERETZ Synagogue & Cultural Center,6170 Wilbur Ave,Tarzana,CA,91335,"10/30 - 11/02: 10:00 AM to 7:00 PM, 11/03: 7:00 AM to 8:00 PM ",,,,ERETZ Ballroom,5,34.182344,-118.544143,8,2020-11-03T09:00:04.653,,,,,False,True,True,False,False,2020-11-03T00:00:00,2020-10-24T00:00:00,2020-11-02T00:00:00,2020-10-30T00:00:00
216,14313,3,4193,Ernest McBride Park & Cal Rec Comm Ctr,1550 Martin Luther King Jr Ave,Long Beach,CA,90813,"10/30 - 11/02: 10:00 AM to 7:00 PM, 11/03: 7:00 AM to 8:00 PM ",,,,Gymnasium,5,33.786641,-118.180247,0,2020-11-03T09:00:04.743,,,,,False,True,True,False,False,2020-11-03T00:00:00,2020-10-24T00:00:00,2020-11-02T00:00:00,2020-10-30T00:00:00
217,12833,3,4193,Eshelman Avenue Elementary School,25902 Eshelman Ave,Lomita,CA,90717,"10/30 - 11/02: 10:00 AM to 7:00 PM, 11/03: 7:00 AM to 8:00 PM ",,,,Auditorium,5,33.788189,-118.314233,8,2020-11-03T09:00:04.59,,,,,False,True,True,False,False,2020-11-03T00:00:00,2020-10-24T00:00:00,2020-11-02T00:00:00,2020-10-30T00:00:00
218,2802,3,4193,Esperanza Elementary School,680 Little St,Los Angeles,CA,90017,"10/30 - 11/02: 10:00 AM to 7:00 PM, 11/03: 7:00 AM to 8:00 PM ",,,,Multi-Purpose Room,5,34.054731,-118.271806,5,2020-11-03T09:00:04.42,,,,,False,True,True,False,False,2020-11-03T00:00:00,2020-10-24T00:00:00,2020-11-02T00:00:00,2020-10-30T00:00:00
219,7674,3,4193,Estelle Van Meter Multi-Purpose Center,7600 S Avalon Blvd,Los Angeles,CA,90001,"10/30 - 11/02: 10:00 AM to 7:00 PM, 11/03: 7:00 AM to 8:00 PM ",,,,Multi-Purpose Room,5,33.970937,-118.264972,8,2020-11-03T09:00:04.497,,,,,False,True,True,False,False,2020-11-03T00:00:00,2020-10-24T00:00:00,2020-11-02T00:00:00,2020-10-30T00:00:00
220,13148,3,4193,Estrella Elementary School,120 E 57th St,Los Angeles,CA,90011,"10/30 - 11/02: 10:00 AM to 7:00 PM, 11/03: 7:00 AM to 8:00 PM ",,,,Multi-Purpose Room,5,33.990571,-118.273093,8,2020-11-03T09:00:04.59,,,,,False,True,True,False,False,2020-11-03T00:00:00,2020-10-24T00:00:00,2020-11-02T00:00:00,2020-10-30T00:00:00
221,14564,3,4193,EXPO Center,3980 Bill Robertson Ln,Los Angeles,CA,90037,"10/30 - 11/02: 10:00 AM to 7:00 PM, 11/03: 7:00 AM to 8:00 PM ",,,,Lobby and After School Room,5,34.012125,-118.290057,0,2020-11-03T09:00:04.79,,,,,False,True,True,False,False,2020-11-03T00:00:00,2020-10-24T00:00:00,2020-11-02T00:00:00,2020-10-30T00:00:00
222,1928,3,4193,Fairfax Senior Citizen Center,7929 Melrose Ave,Los Angeles,CA,90046,"10/30 - 11/02: 10:00 AM to 7:00 PM, 11/03: 7:00 AM to 8:00 PM ",,,,Auditorium,5,34.084036,-118.362333,4,2020-11-03T09:00:04.387,,,,,False,True,True,False,False,2020-11-03T00:00:00,2020-10-24T00:00:00,2020-11-02T00:00:00,2020-10-30T00:00:00
223,14173,3,4193,Fairgrove Academy,15540 Fairgrove Ave,La Puente,CA,91744,"10/30 - 11/02: 10:00 AM to 7:00 PM, 11/03: 7:00 AM to 8:00 PM ",,,,Cafeteria,5,34.040796,-117.946446,8,2020-11-03T09:00:04.703,,,,,False,True,True,False,False,2020-11-03T00:00:00,2020-10-24T00:00:00,2020-11-02T00:00:00,2020-10-30T00:00:00
224,13599,3,4193,Fairplex,1101 W McKinley Ave Gate 1,Pomona,CA,91768,"10/24 - 11/02: 10:00 AM to 7:00 PM, 11/03: 7:00 AM to 8:00 PM ",,,,Club 1,11,34.080584,-117.765941,8,2020-11-03T09:00:04.607,,,,,False,True,True,False,False,2020-11-03T00:00:00,2020-10-24T00:00:00,2020-11-02T00:00:00,2020-10-30T00:00:00
225,14325,3,4193,Faith In Christ Ministries,4501 S Western Ave,Los Angeles,CA,90062,"10/30 - 11/02: 10:00 AM to 7:00 PM, 11/03: 7:00 AM to 8:00 PM ",,,,Community Room,5,34.002606,-118.309072,5,2020-11-03T09:00:04.743,,,,,False,True,True,False,False,2020-11-03T00:00:00,2020-10-24T00:00:00,2020-11-02T00:00:00,2020-10-30T00:00:00
226,13849,3,4193,Faithful Central Bible Church,333 W Florence Ave,Inglewood,CA,90301,"10/30 - 11/02: 10:00 AM to 7:00 PM, 11/03: 7:00 AM to 8:00 PM ",,,,Sanctuary,5,33.965758,-118.361357,8,2020-11-03T09:00:04.623,,,,,False,True,True,False,False,2020-11-03T00:00:00,2020-10-24T00:00:00,2020-11-02T00:00:00,2020-10-30T00:00:00
227,14327,3,4193,FAME Renaissance Center,1968 W Adams Blvd,Los Angeles,CA,90018,"10/30 - 11/02: 10:00 AM to 7:00 PM, 11/03: 7:00 AM to 8:00 PM ",,,,Media Center A and B,5,34.032509,-118.308126,5,2020-11-03T09:00:04.743,,,,,False,True,True,False,False,2020-11-03T00:00:00,2020-10-24T00:00:00,2020-11-02T00:00:00,2020-10-30T00:00:00
228,5115,3,4193,Felicia Mahood Multipurpose Center,11338 Santa Monica Blvd,Los Angeles,CA,90025,"10/30 - 11/02: 10:00 AM to 7:00 PM, 11/03: 7:00 AM to 8:00 PM ",,,,Auditorium,5,34.045963,-118.450015,8,2020-11-03T09:00:04.467,,,,,False,True,True,False,False,2020-11-03T00:00:00,2020-10-24T00:00:00,2020-11-02T00:00:00,2020-10-30T00:00:00
229,10093,3,4193,Felicitas & Gonzalo Mendez High School,1200 Plaza Del Sol E,Los Angeles,CA,90033,"10/30 - 11/02: 10:00 AM to 7:00 PM, 11/03: 7:00 AM to 8:00 PM ",,,,Multi-Purpose Room,5,34.04837,-118.2267,4,2020-11-03T09:00:04.53,,,,,False,True,True,False,False,2020-11-03T00:00:00,2020-10-24T00:00:00,2020-11-02T00:00:00,2020-10-30T00:00:00
230,7203,3,4193,First Baptist Church,28 Moccasin Ln,Rolling Hills Estates,CA,90274,"10/30 - 11/02: 10:00 AM to 7:00 PM, 11/03: 7:00 AM to 8:00 PM ",,,,Calhoun Hall,5,33.787315,-118.354046,8,2020-11-03T09:00:04.497,,,,,False,True,True,False,False,2020-11-03T00:00:00,2020-10-24T00:00:00,2020-11-02T00:00:00,2020-10-30T00:00:00
231,7927,3,4193,First UMC San Fernando,1525 Glenoaks Blvd,San Fernando,CA,91340,"10/30 - 11/02: 10:00 AM to 7:00 PM, 11/03: 7:00 AM to 8:00 PM ",,,,Friendship Hall,5,34.295009,-118.432434,8,2020-11-03T09:00:04.513,,,,,False,True,True,False,False,2020-11-03T00:00:00,2020-10-24T00:00:00,2020-11-02T00:00:00,2020-10-30T00:00:00
232,3897,3,4193,First United Methodist Church,500 E Colorado Blvd,Pasadena,CA,91101,"10/30 - 11/02: 10:00 AM to 7:00 PM, 11/03: 7:00 AM to 8:00 PM ",,,,Great Hall,5,34.145156,-118.14015,8,2020-11-03T09:00:04.433,,,,,False,True,True,False,False,2020-11-03T00:00:00,2020-10-24T00:00:00,2020-11-02T00:00:00,2020-10-30T00:00:00
233,13672,3,4193,Florence Avenue Foursquare Church,11457 Florence Ave,Santa Fe Springs,CA,90670,"10/30 - 11/02: 10:00 AM to 7:00 PM, 11/03: 7:00 AM to 8:00 PM ",,,,Fellowship Hall,5,33.935441,-118.088715,8,2020-11-03T09:00:04.607,,,,,False,True,True,False,False,2020-11-03T00:00:00,2020-10-24T00:00:00,2020-11-02T00:00:00,2020-10-30T00:00:00
234,14329,3,4193,Foisia Park,23410 Catskill Ave,Carson,CA,90745,"10/30 - 11/02: 10:00 AM to 7:00 PM, 11/03: 7:00 AM to 8:00 PM ",,,,Gymnasium,5,33.813145,-118.270798,8,2020-11-03T09:00:04.743,,,,,False,True,True,False,False,2020-11-03T00:00:00,2020-10-24T00:00:00,2020-11-02T00:00:00,2020-10-30T00:00:00
235,14070,3,4193,Former Fire Station 1,1444 7th St,Santa Monica,CA,90401,"10/30 - 11/02: 10:00 AM to 7:00 PM, 11/03: 7:00 AM to 8:00 PM ",,,,Apparatus Room,5,34.017723,-118.491269,5,2020-11-03T09:00:04.653,,,,,False,True,True,False,False,2020-11-03T00:00:00,2020-10-24T00:00:00,2020-11-02T00:00:00,2020-10-30T00:00:00
236,5033,3,4193,Foster Elementary School,13900 Foster Ave,Baldwin Park,CA,91706,"10/30 - 11/02: 10:00 AM to 7:00 PM, 11/03: 7:00 AM to 8:00 PM ",,,,Cafeteria,5,34.072183,-117.972352,8,2020-11-03T09:00:04.467,,,,,False,True,True,False,False,2020-11-03T00:00:00,2020-10-24T00:00:00,2020-11-02T00:00:00,2020-10-30T00:00:00
237,212,3,4193,Founders Hall,200 Civic Center Way,Calabasas,CA,91302,"10/30 - 11/02: 10:00 AM to 7:00 PM, 11/03: 7:00 AM to 8:00 PM ",,,,Behind the Library,5,34.152736,-118.646799,8,2020-11-03T09:00:04.357,,,,,False,True,True,False,False,2020-11-03T00:00:00,2020-10-24T00:00:00,2020-11-02T00:00:00,2020-10-30T00:00:00
238,14516,3,4193,Four Points by Sheraton LA Westside,5990 Green Valley Cir,Culver City,CA,90230,"10/24 - 11/02: 10:00 AM to 7:00 PM, 11/03: 7:00 AM to 8:00 PM ",,,,Marina Ballroom and Foyer,11,33.983141,-118.393578,8,2020-11-03T09:00:04.777,,,,,False,True,True,False,False,2020-11-03T00:00:00,2020-10-24T00:00:00,2020-11-02T00:00:00,2020-10-30T00:00:00
239,7236,3,4193,Four Points by Sheraton LAX,9750 Airport Blvd,Los Angeles,CA,90045,"10/24 - 11/02: 10:00 AM to 7:00 PM, 11/03: 7:00 AM to 8:00 PM ",,,,San Diego Ballroom,11,33.947897,-118.38499,8,2020-11-03T09:00:04.497,,,,,False,True,True,False,False,2020-11-03T00:00:00,2020-10-24T00:00:00,2020-11-02T00:00:00,2020-10-30T00:00:00
240,14611,3,4193,Four Seasons Westlake Village,2 Dole Dr,Westlake Village,CA,91362,"10/30 - 11/02: 10:00 AM to 7:00 PM, 11/03: 7:00 AM to 8:00 PM ",,,,Sound Stage,5,34.151488,-118.804252,8,2020-11-03T09:00:04.81,,,,,False,True,True,False,False,2020-11-03T00:00:00,2020-10-24T00:00:00,2020-11-02T00:00:00,2020-10-30T00:00:00
241,14332,3,4193,Frank D Parent Elementary School,5354 W 64th St,Inglewood,CA,90302,"10/30 - 11/02: 10:00 AM to 7:00 PM, 11/03: 7:00 AM to 8:00 PM ",,,,Multi-Purpose Room,5,33.982661,-118.374572,8,2020-11-03T09:00:04.743,,,,,False,True,True,False,False,2020-11-03T00:00:00,2020-10-24T00:00:00,2020-11-02T00:00:00,2020-10-30T00:00:00
242,8884,3,4193,Frank Del Olmo Elementary School,100 N New Hampshire Ave,Los Angeles,CA,90004,"10/30 - 11/02: 10:00 AM to 7:00 PM, 11/03: 7:00 AM to 8:00 PM ",,,,Multi-Purpose Room,5,34.072944,-118.292553,2,2020-11-03T09:00:04.513,,,,,False,True,True,False,False,2020-11-03T00:00:00,2020-10-24T00:00:00,2020-11-02T00:00:00,2020-10-30T00:00:00
243,2332,3,4193,Franklin D Roosevelt Park,7600 Graham Ave,Los Angeles,CA,90001,"10/24 - 11/02: 10:00 AM to 7:00 PM, 11/03: 7:00 AM to 8:00 PM ",,,,Gymnasium,11,33.969746,-118.242817,8,2020-11-03T09:00:04.4,,,,,False,True,True,False,False,2020-11-03T00:00:00,2020-10-24T00:00:00,2020-11-02T00:00:00,2020-10-30T00:00:00
244,5753,3,4193,Franklin Elementary School,527 Ventura St,Altadena,CA,91001,"10/24 - 11/02: 10:00 AM to 7:00 PM, 11/03: 7:00 AM to 8:00 PM ",,,,Auditorium,11,34.192254,-118.16054,8,2020-11-03T09:00:04.467,,,,,False,True,True,False,False,2020-11-03T00:00:00,2020-10-24T00:00:00,2020-11-02T00:00:00,2020-10-30T00:00:00
245,10554,3,4193,Franklin Elementary School,2400 Montana Ave,Santa Monica,CA,90403,"10/30 - 11/02: 10:00 AM to 7:00 PM, 11/03: 7:00 AM to 8:00 PM ",,,,Cafetorium,5,34.039971,-118.485509,0,2020-11-03T09:00:04.543,,,,,False,True,True,False,False,2020-11-03T00:00:00,2020-10-24T00:00:00,2020-11-02T00:00:00,2020-10-30T00:00:00
246,14336,3,4193,Fremont High School,7676 S San Pedro St,Los Angeles,CA,90003,"10/30 - 11/02: 10:00 AM to 7:00 PM, 11/03: 7:00 AM to 8:00 PM ",,,,Gymnasium,5,33.969662,-118.269036,8,2020-11-03T09:00:04.743,,,,,False,True,True,False,False,2020-11-03T00:00:00,2020-10-24T00:00:00,2020-11-02T00:00:00,2020-10-30T00:00:00
247,10309,3,4193,Friendship Auditorium,3201 Riverside Dr,Los Angeles,CA,90027,"10/30 - 11/02: 10:00 AM to 7:00 PM, 11/03: 7:00 AM to 8:00 PM ",,,,Friendship Auditorium,5,34.113974,-118.268626,8,2020-11-03T09:00:04.543,,,,,False,True,True,False,False,2020-11-03T00:00:00,2020-10-24T00:00:00,2020-11-02T00:00:00,2020-10-30T00:00:00
248,14530,3,4193,Fries Avenue Elementary School,1301 N Fries Ave,Wilmington,CA,90744,"10/30 - 11/02: 10:00 AM to 7:00 PM, 11/03: 7:00 AM to 8:00 PM ",,,,Auditorium,5,33.788901,-118.265971,1,2020-11-03T09:00:04.777,,,,,False,True,True,False,False,2020-11-03T00:00:00,2020-10-24T00:00:00,2020-11-02T00:00:00,2020-10-30T00:00:00
249,7572,3,4193,Gahr High School,11111 Artesia Blvd,Cerritos,CA,90703,"10/30 - 11/02: 10:00 AM to 7:00 PM, 11/03: 7:00 AM to 8:00 PM ",,,,Multi-Purpose Room,5,33.874183,-118.098069,4,2020-11-03T09:00:04.497,,,,,False,True,True,False,False,2020-11-03T00:00:00,2020-10-24T00:00:00,2020-11-02T00:00:00,2020-10-30T00:00:00
250,14071,3,4193,Ganesha High School,1151 Fairplex Dr,Pomona,CA,91768,"10/30 - 11/02: 10:00 AM to 7:00 PM, 11/03: 7:00 AM to 8:00 PM ",,,,Gymnasium,5,34.069418,-117.790379,5,2020-11-03T09:00:04.67,,,,,False,True,True,False,False,2020-11-03T00:00:00,2020-10-24T00:00:00,2020-11-02T00:00:00,2020-10-30T00:00:00
251,14338,3,4193,Garey High School,321 W Lexington Ave,Pomona,CA,91766,"10/30 - 11/02: 10:00 AM to 7:00 PM, 11/03: 7:00 AM to 8:00 PM ",,,,Gymnasium,5,34.038716,-117.751201,8,2020-11-03T09:00:04.743,,,,,False,True,True,False,False,2020-11-03T00:00:00,2020-10-24T00:00:00,2020-11-02T00:00:00,2020-10-30T00:00:00
252,14175,3,4193,Garvey Center,9108 Garvey Ave,Rosemead,CA,91770,"10/24 - 11/02: 10:00 AM to 7:00 PM, 11/03: 7:00 AM to 8:00 PM ",,,,Banquet Room,11,34.061747,-118.070521,8,2020-11-03T09:00:04.703,,,,,False,True,True,False,False,2020-11-03T00:00:00,2020-10-24T00:00:00,2020-11-02T00:00:00,2020-10-30T00:00:00
253,14531,3,4193,George K Porter Middle School,15960 Kingsbury St,Granada Hills,CA,91344,"10/30 - 11/02: 10:00 AM to 7:00 PM, 11/03: 7:00 AM to 8:00 PM ",,,,Library,5,34.263342,-118.47975,8,2020-11-03T09:00:04.777,,,,,False,True,True,False,False,2020-11-03T00:00:00,2020-10-24T00:00:00,2020-11-02T00:00:00,2020-10-30T00:00:00
254,3126,3,4193,George Lane Park,5520 West Avenue L8,Lancaster,CA,93536,"10/24 - 11/02: 10:00 AM to 7:00 PM, 11/03: 7:00 AM to 8:00 PM ",,,,Community Room,11,34.652499,-118.228156,8,2020-11-03T09:00:04.42,,,,,False,True,True,False,False,2020-11-03T00:00:00,2020-10-24T00:00:00,2020-11-02T00:00:00,2020-10-30T00:00:00
255,10747,3,4193,George Nakano Theater,3301 Torrance Blvd,Torrance,CA,90503,"10/30 - 11/02: 10:00 AM to 7:00 PM, 11/03: 7:00 AM to 8:00 PM ",,,,Theater,5,33.839235,-118.343261,5,2020-11-03T09:00:04.543,,,,,False,True,True,False,False,2020-11-03T00:00:00,2020-10-24T00:00:00,2020-11-02T00:00:00,2020-10-30T00:00:00
256,10323,3,4193,George Washington Prep High School,10860 South Denker Ave,Los Angeles,CA,90047,"10/30 - 11/02: 10:00 AM to 7:00 PM, 11/03: 7:00 AM to 8:00 PM ",,,,2nd Gym (Boys Gym),5,33.937217,-118.304242,8,2020-11-03T09:00:04.543,,,,,False,True,True,False,False,2020-11-03T00:00:00,2020-10-24T00:00:00,2020-11-02T00:00:00,2020-10-30T00:00:00
257,14176,3,4193,Gidley Elementary School,10226 Lower Azusa Rd,El Monte,CA,91731,"10/30 - 11/02: 10:00 AM to 7:00 PM, 11/03: 7:00 AM to 8:00 PM ",,,,Cafeteria,5,34.091335,-118.044064,8,2020-11-03T09:00:04.703,,,,,False,True,True,False,False,2020-11-03T00:00:00,2020-10-24T00:00:00,2020-11-02T00:00:00,2020-10-30T00:00:00
258,554,3,4193,Glassell Park Recreation Center,3650 Verdugo Rd,Los Angeles,CA,90065,"10/30 - 11/02: 10:00 AM to 7:00 PM, 11/03: 7:00 AM to 8:00 PM ",,,,Auditorium,5,34.116749,-118.23313,8,2020-11-03T09:00:04.387,,,,,False,True,True,False,False,2020-11-03T00:00:00,2020-10-24T00:00:00,2020-11-02T00:00:00,2020-10-30T00:00:00
259,14341,3,4193,Glen A Wilson High School,16455 Wedgeworth Dr,Hacienda Heights,CA,91745,"10/30 - 11/02: 10:00 AM to 7:00 PM, 11/03: 7:00 AM to 8:00 PM ",,,,Cafeteria,5,33.998085,-117.947676,3,2020-11-03T09:00:04.743,,,,,False,True,True,False,False,2020-11-03T00:00:00,2020-10-24T00:00:00,2020-11-02T00:00:00,2020-10-30T00:00:00
260,14342,3,4193,Glen Oak Elementary School,1000 N Sunflower Ave,Covina,CA,91724,"10/30 - 11/02: 10:00 AM to 7:00 PM, 11/03: 7:00 AM to 8:00 PM ",,,,Multi-Use Room,5,34.098117,-117.846323,7,2020-11-03T09:00:04.743,,,,,False,True,True,False,False,2020-11-03T00:00:00,2020-10-24T00:00:00,2020-11-02T00:00:00,2020-10-30T00:00:00
261,12401,3,4193,Glendale Church of Christ,2021 W Glenoaks Blvd,Glendale,CA,91201,"10/30 - 11/02: 10:00 AM to 7:00 PM, 11/03: 7:00 AM to 8:00 PM ",,,,Multi-Purpose Room,5,34.176077,-118.295663,4,2020-11-03T09:00:04.577,,,,,False,True,True,False,False,2020-11-03T00:00:00,2020-10-24T00:00:00,2020-11-02T00:00:00,2020-10-30T00:00:00
262,14177,3,4193,Glendale Express Hotel,450 W Pioneer Dr,Glendale,CA,91203,"10/30 - 11/02: 10:00 AM to 7:00 PM, 11/03: 7:00 AM to 8:00 PM ",,,,Grand Ballroom,5,34.154646,-118.263604,2,2020-11-03T09:00:04.703,,,,,False,True,True,False,False,2020-11-03T00:00:00,2020-10-24T00:00:00,2020-11-02T00:00:00,2020-10-30T00:00:00
263,14073,3,4193,Glendale High School,1440 E Broadway,Glendale,CA,91205,"10/30 - 11/02: 10:00 AM to 7:00 PM, 11/03: 7:00 AM to 8:00 PM ",,,,Auditorium Performing Arts Center,5,34.144711,-118.23284,5,2020-11-03T09:00:04.67,,,,,False,True,True,False,False,2020-11-03T00:00:00,2020-10-24T00:00:00,2020-11-02T00:00:00,2020-10-30T00:00:00
264,14598,3,4193,Glendale Police Department,131 N Isabel St,Glendale,CA,91206,"10/30 - 11/02: 10:00 AM to 7:00 PM, 11/03: 7:00 AM to 8:00 PM ",,,,Police Community Center,5,34.146927,-118.248869,5,2020-11-03T09:00:04.81,,,,,False,True,True,False,False,2020-11-03T00:00:00,2020-10-24T00:00:00,2020-11-02T00:00:00,2020-10-30T00:00:00
265,14179,3,4193,Glendale Youth Center,211 W Chestnut St,Glendale,CA,91204,"10/30 - 11/02: 10:00 AM to 7:00 PM, 11/03: 7:00 AM to 8:00 PM ",,,,Main Room and Waiting Room,5,34.139352,-118.256781,8,2020-11-03T09:00:04.707,,,,,False,True,True,False,False,2020-11-03T00:00:00,2020-10-24T00:00:00,2020-11-02T00:00:00,2020-10-30T00:00:00
266,2225,3,4193,Glendora United Methodist Church,201 E Bennett Ave,Glendora,CA,91741,"10/30 - 11/02: 10:00 AM to 7:00 PM, 11/03: 7:00 AM to 8:00 PM ",,,,Dining Room,5,34.140006,-117.863725,8,2020-11-03T09:00:04.4,,,,,False,True,True,False,False,2020-11-03T00:00:00,2020-10-24T00:00:00,2020-11-02T00:00:00,2020-10-30T00:00:00
267,14345,3,4193,Golden Poppy Elementary School,37802 Rockie Ln,Palmdale,CA,93552,"10/30 - 11/02: 10:00 AM to 7:00 PM, 11/03: 7:00 AM to 8:00 PM ",,,,Library,5,34.569376,-118.019305,6,2020-11-03T09:00:04.743,,,,,False,True,True,False,False,2020-11-03T00:00:00,2020-10-24T00:00:00,2020-11-02T00:00:00,2020-10-30T00:00:00
268,4774,3,4193,Good Shepherd MBC of LA,510 W 53rd St,Los Angeles,CA,90037,"10/30 - 11/02: 10:00 AM to 7:00 PM, 11/03: 7:00 AM to 8:00 PM ",,,,Fellowship Hall,5,33.994086,-118.283171,8,2020-11-03T09:00:04.45,,,,,False,True,True,False,False,2020-11-03T00:00:00,2020-10-24T00:00:00,2020-11-02T00:00:00,2020-10-30T00:00:00
269,14544,3,4193,Goodwill Community Enrichment Center,3150 N San Fernando Rd,Los Angeles,CA,90065,"10/30 - 11/02: 10:00 AM to 7:00 PM, 11/03: 7:00 AM to 8:00 PM ",,,,Community Center,5,34.115967,-118.247025,8,2020-11-03T09:00:04.79,,,,,False,True,True,False,False,2020-11-03T00:00:00,2020-10-24T00:00:00,2020-11-02T00:00:00,2020-10-30T00:00:00
270,10821,3,4193,Goodwill Southern California,14565 Lanark St,Panorama City,CA,91402,"10/30 - 11/02: 10:00 AM to 7:00 PM, 11/03: 7:00 AM to 8:00 PM ",,,,Community Room,5,34.218417,-118.451332,5,2020-11-03T09:00:04.543,,,,,False,True,True,False,False,2020-11-03T00:00:00,2020-10-24T00:00:00,2020-11-02T00:00:00,2020-10-30T00:00:00
271,4592,3,4193,Grace Baptist Church,22833 Copper Hill Dr,Santa Clarita,CA,91350,"10/30 - 11/02: 10:00 AM to 7:00 PM, 11/03: 7:00 AM to 8:00 PM ",,,,Jr High Room,5,34.461694,-118.538941,9,2020-11-03T09:00:04.45,,,,,False,True,True,False,False,2020-11-03T00:00:00,2020-10-24T00:00:00,2020-11-02T00:00:00,2020-10-30T00:00:00
272,3275,3,4193,Grace United Methodist Church,4112 W Slauson Ave,Los Angeles,CA,90043,"10/30 - 11/02: 10:00 AM to 7:00 PM, 11/03: 7:00 AM to 8:00 PM ",,,,Fellowship Hall,5,33.988607,-118.346707,8,2020-11-03T09:00:04.433,,,,,False,True,True,False,False,2020-11-03T00:00:00,2020-10-24T00:00:00,2020-11-02T00:00:00,2020-10-30T00:00:00
273,13785,3,4193,Granada Park,2000 W Hellman Ave,Alhambra,CA,91803,"10/30 - 11/02: 10:00 AM to 7:00 PM, 11/03: 7:00 AM to 8:00 PM ",,,,Gymnasium,5,34.069591,-118.145479,2,2020-11-03T09:00:04.607,,,,,False,True,True,False,False,2020-11-03T00:00:00,2020-10-24T00:00:00,2020-11-02T00:00:00,2020-10-30T00:00:00
274,1443,3,4193,Grand Central Market,317 S Broadway,Los Angeles,CA,90013,"10/24 - 11/02: 10:00 AM to 7:00 PM, 11/03: 7:00 AM to 8:00 PM ",,,,Basement,11,34.050658,-118.248526,8,2020-11-03T09:00:04.387,,,,,False,True,True,False,False,2020-11-03T00:00:00,2020-10-24T00:00:00,2020-11-02T00:00:00,2020-10-30T00:00:00
275,14180,3,4193,Grandview College Preparatory Academy,795 Grandview Ln S,La Puente,CA,91744,"10/30 - 11/02: 10:00 AM to 7:00 PM, 11/03: 7:00 AM to 8:00 PM ",,,,Cafeteria,5,34.029832,-117.9222,8,2020-11-03T09:00:04.707,,,,,False,True,True,False,False,2020-11-03T00:00:00,2020-10-24T00:00:00,2020-11-02T00:00:00,2020-10-30T00:00:00
276,11483,3,4193,Grant Elementary School,2368 Pearl St,Santa Monica,CA,90405,"10/30 - 11/02: 10:00 AM to 7:00 PM, 11/03: 7:00 AM to 8:00 PM ",,,,Auditorium,5,34.019185,-118.462893,7,2020-11-03T09:00:04.56,,,,,False,True,True,False,False,2020-11-03T00:00:00,2020-10-24T00:00:00,2020-11-02T00:00:00,2020-10-30T00:00:00
277,8150,3,4193,Grant Elementary School,1530 N Wilton Pl,Los Angeles,CA,90028,"10/30 - 11/02: 10:00 AM to 7:00 PM, 11/03: 7:00 AM to 8:00 PM ",,,,Auditorium,5,34.099745,-118.313384,0,2020-11-03T09:00:04.513,,,,,False,True,True,False,False,2020-11-03T00:00:00,2020-10-24T00:00:00,2020-11-02T00:00:00,2020-10-30T00:00:00
278,6908,3,4193,Gratts Elementary School,309 Lucas Ave,Los Angeles,CA,90017,"10/30 - 11/02: 10:00 AM to 7:00 PM, 11/03: 7:00 AM to 8:00 PM ",,,,Multi-Purpose Room,5,34.058052,-118.262088,8,2020-11-03T09:00:04.497,,,,,False,True,True,False,False,2020-11-03T00:00:00,2020-10-24T00:00:00,2020-11-02T00:00:00,2020-10-30T00:00:00
279,14349,3,4193,Grazide Elementary School,2850 Leopold Ave,Hacienda Heights,CA,91745,"10/30 - 11/02: 10:00 AM to 7:00 PM, 11/03: 7:00 AM to 8:00 PM ",,,,Cafeteria,5,33.983229,-117.961799,0,2020-11-03T09:00:04.743,,,,,False,True,True,False,False,2020-11-03T00:00:00,2020-10-24T00:00:00,2020-11-02T00:00:00,2020-10-30T00:00:00
280,14245,3,4193,Great Commission Worship Center,8644 East Avenue T,Littlerock,CA,93543,"10/24 - 11/02: 10:00 AM to 7:00 PM, 11/03: 7:00 AM to 8:00 PM ",,,,Sanctuary and Annex,11,34.542776,-117.975716,8,2020-11-03T09:00:04.73,,,,,False,True,True,False,False,2020-11-03T00:00:00,2020-10-24T00:00:00,2020-11-02T00:00:00,2020-10-30T00:00:00
281,11801,3,4193,H&H Jivalagian Youth Center,2242 E Foothill Blvd,Pasadena,CA,91107,"10/30 - 11/02: 10:00 AM to 7:00 PM, 11/03: 7:00 AM to 8:00 PM ",,,,Youth Center,5,34.149087,-118.104105,8,2020-11-03T09:00:04.577,,,,,False,True,True,False,False,2020-11-03T00:00:00,2020-10-24T00:00:00,2020-11-02T00:00:00,2020-10-30T00:00:00
282,782,3,4193,Hacienda - La Puente USD Office,15959 E Gale Ave,City of Industry,CA,91745,"10/30 - 11/02: 10:00 AM to 7:00 PM, 11/03: 7:00 AM to 8:00 PM ",,,,La Puente Conference Room,5,34.009615,-117.958788,8,2020-11-03T09:00:04.387,,,,,False,True,True,False,False,2020-11-03T00:00:00,2020-10-24T00:00:00,2020-11-02T00:00:00,2020-10-30T00:00:00
283,4122,3,4193,Hacienda Heights Comm and Rec Center,1234 Valencia Ave,Hacienda Heights,CA,91745,"10/24 - 11/02: 10:00 AM to 7:00 PM, 11/03: 7:00 AM to 8:00 PM ",,,,Auditorium,11,34.013093,-117.979071,8,2020-11-03T09:00:04.45,,,,,False,True,True,False,False,2020-11-03T00:00:00,2020-10-24T00:00:00,2020-11-02T00:00:00,2020-10-30T00:00:00
284,13031,3,4193,Hacienda Park,1885 Hacienda Rd,La Habra Heights,CA,90631,"10/30 - 11/02: 10:00 AM to 7:00 PM, 11/03: 7:00 AM to 8:00 PM ",,,,Gymnasium,5,33.957712,-117.958656,8,2020-11-03T09:00:04.59,,,,,False,True,True,False,False,2020-11-03T00:00:00,2020-10-24T00:00:00,2020-11-02T00:00:00,2020-10-30T00:00:00
285,14354,3,4193,Hamilton Adult School,2606 W 182nd St,Torrance,CA,90504,"10/30 - 11/02: 10:00 AM to 7:00 PM, 11/03: 7:00 AM to 8:00 PM ",,,,Multi-Purpose Room,5,33.86523,-118.322569,8,2020-11-03T09:00:04.743,,,,,False,True,True,False,False,2020-11-03T00:00:00,2020-10-24T00:00:00,2020-11-02T00:00:00,2020-10-30T00:00:00
286,463,3,4193,Hammer Museum,10899 Wilshire Blvd,Los Angeles,CA,90024,"10/24 - 11/02: 10:00 AM to 7:00 PM, 11/03: 7:00 AM to 8:00 PM ",,,,Nimoy Studio,11,34.058864,-118.443872,8,2020-11-03T09:00:04.37,,,,,False,True,True,False,False,2020-11-03T00:00:00,2020-10-24T00:00:00,2020-11-02T00:00:00,2020-10-30T00:00:00
287,6932,3,4193,Harrison Elementary School,3529 City Terrace Dr,Los Angeles,CA,90063,"10/30 - 11/02: 10:00 AM to 7:00 PM, 11/03: 7:00 AM to 8:00 PM ",,,,Auditorium,5,34.054594,-118.188023,8,2020-11-03T09:00:04.497,,,,,False,True,True,False,False,2020-11-03T00:00:00,2020-10-24T00:00:00,2020-11-02T00:00:00,2020-10-30T00:00:00
288,5777,3,4193,Haskell STEM Academy,11525 Del Amo Blvd,Cerritos,CA,90703,"10/30 - 11/02: 10:00 AM to 7:00 PM, 11/03: 7:00 AM to 8:00 PM ",,,,Multi-Purpose Room,5,33.846853,-118.088947,8,2020-11-03T09:00:04.467,,,,,False,True,True,False,False,2020-11-03T00:00:00,2020-10-24T00:00:00,2020-11-02T00:00:00,2020-10-30T00:00:00
289,14077,3,4193,Hawthorne High School,4859 W El Segundo Blvd,Hawthorne,CA,90250,"10/30 - 11/02: 10:00 AM to 7:00 PM, 11/03: 7:00 AM to 8:00 PM ",,,,Gymnasium,5,33.916469,-118.3634,8,2020-11-03T09:00:04.67,,,,,False,True,True,False,False,2020-11-03T00:00:00,2020-10-24T00:00:00,2020-11-02T00:00:00,2020-10-30T00:00:00
290,14182,3,4193,Hawthorne Library,12700 Grevillea Ave,Hawthorne,CA,90250,"10/30 - 11/02: 10:00 AM to 7:00 PM, 11/03: 7:00 AM to 8:00 PM ",,,,Meeting Room and Main Room,5,33.917223,-118.354335,6,2020-11-03T09:00:04.707,,,,,False,True,True,False,False,2020-11-03T00:00:00,2020-10-24T00:00:00,2020-11-02T00:00:00,2020-10-30T00:00:00
291,519,3,4193,Henning Youth Center,11409 Birch St,Lynwood,CA,90262,"10/30 - 11/02: 10:00 AM to 7:00 PM, 11/03: 7:00 AM to 8:00 PM ",,,,Gymnasium,5,33.926857,-118.205506,4,2020-11-03T09:00:04.37,,,,,False,True,True,False,False,2020-11-03T00:00:00,2020-10-24T00:00:00,2020-11-02T00:00:00,2020-10-30T00:00:00
292,2666,3,4193,Hermosa Beach Community Center,710 Pier Ave,Hermosa Beach,CA,90254,"10/30 - 11/02: 10:00 AM to 7:00 PM, 11/03: 7:00 AM to 8:00 PM ",,,,Gymnasium,5,33.864243,-118.393982,4,2020-11-03T09:00:04.42,,,,,False,True,True,False,False,2020-11-03T00:00:00,2020-10-24T00:00:00,2020-11-02T00:00:00,2020-10-30T00:00:00
293,14183,3,4193,Hermosa Valley School,1645 Valley Dr,Hermosa Beach,CA,90254,"10/30 - 11/02: 10:00 AM to 7:00 PM, 11/03: 7:00 AM to 8:00 PM ",,,,Gymnasium,5,33.866589,-118.396919,8,2020-11-03T09:00:04.707,,,,,False,True,True,False,False,2020-11-03T00:00:00,2020-10-24T00:00:00,2020-11-02T00:00:00,2020-10-30T00:00:00
294,14184,3,4193,High Desert School,3620 Antelope Woods Rd,Acton,CA,91350,"10/30 - 11/02: 10:00 AM to 7:00 PM, 11/03: 7:00 AM to 8:00 PM ",,,,Gymnasium amd Multi-Purpose Room,5,34.490882,-118.195094,5,2020-11-03T09:00:04.707,,,,,False,True,True,False,False,2020-11-03T00:00:00,2020-10-24T00:00:00,2020-11-02T00:00:00,2020-10-30T00:00:00
295,14358,3,4193,Higher Vision Church,28776 The Old Rd,Valencia,CA,91355,"10/30 - 11/02: 10:00 AM to 7:00 PM, 11/03: 7:00 AM to 8:00 PM ",,,,Multi-Purpose Room,5,34.441347,-118.605073,8,2020-11-03T09:00:04.743,,,,,False,True,True,False,False,2020-11-03T00:00:00,2020-10-24T00:00:00,2020-11-02T00:00:00,2020-10-30T00:00:00
296,14185,3,4193,Hillcrest Elementary School,795 Pepper St,Monterey Park,CA,91755,"10/30 - 11/02: 10:00 AM to 7:00 PM, 11/03: 7:00 AM to 8:00 PM ",,,,Cafeteria,5,34.046776,-118.109766,7,2020-11-03T09:00:04.71,,,,,False,True,True,False,False,2020-11-03T00:00:00,2020-10-24T00:00:00,2020-11-02T00:00:00,2020-10-30T00:00:00
297,14363,3,4193,Hillview Middle School,40525 Peonza Ln,Palmdale,CA,93551,"10/30 - 11/02: 10:00 AM to 7:00 PM, 11/03: 7:00 AM to 8:00 PM ",,,,Palmdale Gym,5,34.619001,-118.210683,6,2020-11-03T09:00:04.743,,,,,False,True,True,False,False,2020-11-03T00:00:00,2020-10-24T00:00:00,2020-11-02T00:00:00,2020-10-30T00:00:00
298,14187,3,4193,Hilton LA North/Glendale & Exec Ctr,100 West Glenoaks Blvd,Glendale,CA,91202,"10/30 - 11/02: 10:00 AM to 7:00 PM, 11/03: 7:00 AM to 8:00 PM ",,,,Glendale Ballroom,5,34.1587,-118.256226,8,2020-11-03T09:00:04.71,,,,,False,True,True,False,False,2020-11-03T00:00:00,2020-10-24T00:00:00,2020-11-02T00:00:00,2020-10-30T00:00:00
299,5384,3,4193,Hollingworth Elementary School,3003 E Hollingworth St,Los Angeles,CA,91792,"10/30 - 11/02: 10:00 AM to 7:00 PM, 11/03: 7:00 AM to 8:00 PM ",,,,Multi-Purpose Room,5,34.007184,-117.879449,8,2020-11-03T09:00:04.467,,,,,False,True,True,False,False,2020-11-03T00:00:00,2020-10-24T00:00:00,2020-11-02T00:00:00,2020-10-30T00:00:00
300,12309,3,4193,Hollydale Community Center,12221 Industrial Ave,South Gate,CA,90280,"10/30 - 11/02: 10:00 AM to 7:00 PM, 11/03: 7:00 AM to 8:00 PM ",,,,Hall,5,33.915803,-118.163995,8,2020-11-03T09:00:04.577,,,,,False,True,True,False,False,2020-11-03T00:00:00,2020-10-24T00:00:00,2020-11-02T00:00:00,2020-10-30T00:00:00
301,13826,3,4193,Hollywood Bowl,2301 N Highland Ave,Los Angeles,CA,90068,"10/24 - 11/02: 10:00 AM to 7:00 PM, 11/03: 7:00 AM to 8:00 PM ",,,,Kagan Patio,11,34.112676,-118.338894,8,2020-11-03T09:00:04.623,,,,,False,True,True,False,False,2020-11-03T00:00:00,2020-10-24T00:00:00,2020-11-02T00:00:00,2020-10-30T00:00:00
302,9023,3,4193,Hollywood Hotel,1160 N Vermont Ave,Los Angeles,CA,90029,"10/24 - 11/02: 10:00 AM to 7:00 PM, 11/03: 7:00 AM to 8:00 PM ",,,,Ballroom,11,34.093078,-118.291453,8,2020-11-03T09:00:04.513,,,,,False,True,True,False,False,2020-11-03T00:00:00,2020-10-24T00:00:00,2020-11-02T00:00:00,2020-10-30T00:00:00
