{
"type": "FeatureCollection",
"name": "ralphs_locations",
"crs": { "type": "name", "properties": { "name": "urn:ogc:def:crs:OGC:1.3:CRS84" } },
"features": [
{ "type": "Feature", "properties": { "locationid": "70300016", "name": "Wiltern", "citytown": "Los Angeles", "address": "670 S Western Ave", "stateprovince": "CA", "phone": "(213) 383-5058", "postalcode": "90005", "lat": 34.0600442, "lng": -118.3084962 }, "geometry": { "type": "Point", "coordinates": [ -118.3084962, 34.0600442 ] } },
{ "type": "Feature", "properties": { "locationid": "70300032", "name": "Third Street", "citytown": "Los Angeles", "address": "3410 W 3Rd St", "stateprovince": "CA", "phone": "(213) 480-1421", "postalcode": "90020", "lat": 34.0684128, "lng": -118.2905706 }, "geometry": { "type": "Point", "coordinates": [ -118.2905706, 34.0684128 ] } },
{ "type": "Feature", "properties": { "locationid": "70300291", "name": "Pico San Vincente", "citytown": "Los Angeles", "address": "4760 W Pico Blvd", "stateprovince": "CA", "phone": "(323) 937-4107", "postalcode": "90019", "lat": 34.0478315, "lng": -118.3394006 }, "geometry": { "type": "Point", "coordinates": [ -118.3394006, 34.0478315 ] } },
{ "type": "Feature", "properties": { "locationid": "70300039", "name": "La Brea", "citytown": "Los Angeles", "address": "260 S La Brea Ave", "stateprovince": "CA", "phone": "(323) 937-3264", "postalcode": "90036", "lat": 34.0700267, "lng": -118.3435875 }, "geometry": { "type": "Point", "coordinates": [ -118.3435875, 34.0700267 ] } },
{ "type": "Feature", "properties": { "locationid": "70300294", "name": "Renaissance Plaza", "citytown": "Los Angeles", "address": "2600 S Vermont Ave", "stateprovince": "CA", "phone": "(323) 732-3863", "postalcode": "90007", "lat": 34.0317987, "lng": -118.2907752 }, "geometry": { "type": "Point", "coordinates": [ -118.2907752, 34.0317987 ] } },
{ "type": "Feature", "properties": { "locationid": "70300289", "name": "Wilshire Hauser", "citytown": "Los Angeles", "address": "5601 Wilshire Blvd", "stateprovince": "CA", "phone": "(323) 936-4954", "postalcode": "90036", "lat": 34.0628415, "lng": -118.3508807 }, "geometry": { "type": "Point", "coordinates": [ -118.3508807, 34.0628415 ] } },
{ "type": "Feature", "properties": { "locationid": "70300022", "name": "9th Flower", "citytown": "Los Angeles", "address": "645 W 9Th St", "stateprovince": "CA", "phone": "(213) 452-0840", "postalcode": "90015", "lat": 34.045666, "lng": -118.260783 }, "geometry": { "type": "Point", "coordinates": [ -118.260783, 34.045666 ] } },
{ "type": "Feature", "properties": { "locationid": "70300206", "name": "HollyWest", "citytown": "Los Angeles", "address": "5429 Hollywood Blvd", "stateprovince": "CA", "phone": "(323) 957-9657", "postalcode": "90027", "lat": 34.1021738, "lng": -118.3081885 }, "geometry": { "type": "Point", "coordinates": [ -118.3081885, 34.1021738 ] } },
{ "type": "Feature", "properties": { "locationid": "70300293", "name": "La Brea Marketplace", "citytown": "West Hollywood", "address": "1233 N La Brea Ave", "stateprovince": "CA", "phone": "(323) 876-8790", "postalcode": "90038", "lat": 34.0934601, "lng": -118.3446077 }, "geometry": { "type": "Point", "coordinates": [ -118.3446077, 34.0934601 ] } },
{ "type": "Feature", "properties": { "locationid": "70300100", "name": "Sunset", "citytown": "Los Angeles", "address": "7257 W Sunset Blvd", "stateprovince": "CA", "phone": "(323) 512-8382", "postalcode": "90046", "lat": 34.098715, "lng": -118.348393 }, "geometry": { "type": "Point", "coordinates": [ -118.348393, 34.098715 ] } },
{ "type": "Feature", "properties": { "locationid": "70300283", "name": "Rodeo Labrea", "citytown": "Los Angeles", "address": "5080 Obama Blvd", "stateprovince": "CA", "phone": "(323) 292-0633", "postalcode": "90016", "lat": 34.020228, "lng": -118.354567 }, "geometry": { "type": "Point", "coordinates": [ -118.354567, 34.020228 ] } },
{ "type": "Feature", "properties": { "locationid": "70300724", "name": "Beverly Doheny", "citytown": "West Hollywood", "address": "9040 Beverly Blvd", "stateprovince": "CA", "phone": "(310) 278-1351", "postalcode": "90048", "lat": 34.0766346, "lng": -118.3891212 }, "geometry": { "type": "Point", "coordinates": [ -118.3891212, 34.0766346 ] } },
{ "type": "Feature", "properties": { "locationid": "70300134", "name": "Glendale Wilson", "citytown": "Glendale", "address": "211 N Glendale Ave", "stateprovince": "CA", "phone": "(818) 549-0035", "postalcode": "91206", "lat": 34.1484522, "lng": -118.2484233 }, "geometry": { "type": "Point", "coordinates": [ -118.2484233, 34.1484522 ] } },
{ "type": "Feature", "properties": { "locationid": "70300193", "name": "The Gateway at Burbank", "citytown": "Burbank", "address": "25 E Alameda Ave", "stateprovince": "CA", "phone": "(818) 556-1558", "postalcode": "91502", "lat": 34.1730855, "lng": -118.3021046 }, "geometry": { "type": "Point", "coordinates": [ -118.3021046, 34.1730855 ] } },
{ "type": "Feature", "properties": { "locationid": "70300097", "name": "Central", "citytown": "Glendale", "address": "1200 N Central Ave", "stateprovince": "CA", "phone": "(818) 246-1752", "postalcode": "91202", "lat": 34.1644212, "lng": -118.256322 }, "geometry": { "type": "Point", "coordinates": [ -118.256322, 34.1644212 ] } },
{ "type": "Feature", "properties": { "locationid": "70300060", "name": "Colorado", "citytown": "Glendale", "address": "1416 E Colorado St", "stateprovince": "CA", "phone": "(818) 548-0945", "postalcode": "91205", "lat": 34.1418709, "lng": -118.2333192 }, "geometry": { "type": "Point", "coordinates": [ -118.2333192, 34.1418709 ] } },
{ "type": "Feature", "properties": { "locationid": "70300133", "name": "Studio Plaza", "citytown": "Studio City", "address": "10901 Ventura Blvd", "stateprovince": "CA", "phone": "(818) 760-7008", "postalcode": "91604", "lat": 34.1400882, "lng": -118.3678862 }, "geometry": { "type": "Point", "coordinates": [ -118.3678862, 34.1400882 ] } },
{ "type": "Feature", "properties": { "locationid": "70300873", "name": "Studio Plaza Fuel", "citytown": "Studio City", "address": "11001 Ventura Blvd", "stateprovince": "CA", "phone": null, "postalcode": "91604", "lat": 34.14086, "lng": -118.370572 }, "geometry": { "type": "Point", "coordinates": [ -118.370572, 34.14086 ] } },
{ "type": "Feature", "properties": { "locationid": "70300712", "name": "Burbank", "citytown": "Burbank", "address": "1100 N San Fernando Blvd", "stateprovince": "CA", "phone": "(818) 845-6424", "postalcode": "91504", "lat": 34.1890113, "lng": -118.3182101 }, "geometry": { "type": "Point", "coordinates": [ -118.3182101, 34.1890113 ] } },
{ "type": "Feature", "properties": { "locationid": "70300648", "name": "Victory Buena Vista", "citytown": "Burbank", "address": "2600 W Victory Blvd", "stateprovince": "CA", "phone": "(818) 845-5914", "postalcode": "91505", "lat": 34.1840743, "lng": -118.3395859 }, "geometry": { "type": "Point", "coordinates": [ -118.3395859, 34.1840743 ] } },
{ "type": "Feature", "properties": { "locationid": "70300056", "name": "North Hollywood SC Magnolia Vineland SC", "citytown": "North Hollywood", "address": "10900 Magnolia Blvd", "stateprovince": "CA", "phone": "(818) 760-4148", "postalcode": "91601", "lat": 34.1643619, "lng": -118.3677852 }, "geometry": { "type": "Point", "coordinates": [ -118.3677852, 34.1643619 ] } },
{ "type": "Feature", "properties": { "locationid": "70300095", "name": "Atlantic Square", "citytown": "Monterey Park", "address": "2230 S Atlantic Blvd", "stateprovince": "CA", "phone": "(323) 721-3367", "postalcode": "91754", "lat": 34.0371597, "lng": -118.1447925 }, "geometry": { "type": "Point", "coordinates": [ -118.1447925, 34.0371597 ] } },
{ "type": "Feature", "properties": { "locationid": "70300173", "name": "Downey", "citytown": "Downey", "address": "9200 Lakewood Blvd", "stateprovince": "CA", "phone": "(562) 869-2042", "postalcode": "90240", "lat": 33.9555015, "lng": -118.1122512 }, "geometry": { "type": "Point", "coordinates": [ -118.1122512, 33.9555015 ] } },
{ "type": "Feature", "properties": { "locationid": "70300295", "name": "Firestone Patton", "citytown": "Downey", "address": "8626 Firestone Blvd", "stateprovince": "CA", "phone": "(562) 869-2733", "postalcode": "90241", "lat": 33.9359977, "lng": -118.1271246 }, "geometry": { "type": "Point", "coordinates": [ -118.1271246, 33.9359977 ] } },
{ "type": "Feature", "properties": { "locationid": "70300715", "name": "N Monterey Park", "citytown": "Monterey Park", "address": "330 N Atlantic Blvd", "stateprovince": "CA", "phone": "(626) 289-0261", "postalcode": "91754", "lat": 34.0652588, "lng": -118.1334695 }, "geometry": { "type": "Point", "coordinates": [ -118.1334695, 34.0652588 ] } },
{ "type": "Feature", "properties": { "locationid": "70300245", "name": "W Whittier", "citytown": "Whittier", "address": "11825 Whittier Blvd", "stateprovince": "CA", "phone": "(562) 692-4565", "postalcode": "90601", "lat": 33.982098, "lng": -118.0495733 }, "geometry": { "type": "Point", "coordinates": [ -118.0495733, 33.982098 ] } },
{ "type": "Feature", "properties": { "locationid": "70300185", "name": "Ladera Shopping Center", "citytown": "Los Angeles", "address": "5245 W Centinela Ave", "stateprovince": "CA", "phone": "(310) 641-2813", "postalcode": "90045", "lat": 33.9790659, "lng": -118.3715573 }, "geometry": { "type": "Point", "coordinates": [ -118.3715573, 33.9790659 ] } },
{ "type": "Feature", "properties": { "locationid": "70300277", "name": "Centinela La Brea", "citytown": "Inglewood", "address": "950 N La Brea Ave", "stateprovince": "CA", "phone": "(310) 673-6365", "postalcode": "90302", "lat": 33.9754088, "lng": -118.3569749 }, "geometry": { "type": "Point", "coordinates": [ -118.3569749, 33.9754088 ] } },
{ "type": "Feature", "properties": { "locationid": "70300284", "name": "Raintree Plaza", "citytown": "Culver City", "address": "10772 Jefferson Blvd", "stateprovince": "CA", "phone": "(310) 839-4107", "postalcode": "90230", "lat": 34.0023824, "lng": -118.3935667 }, "geometry": { "type": "Point", "coordinates": [ -118.3935667, 34.0023824 ] } },
{ "type": "Feature", "properties": { "locationid": "70300086", "name": "Westside Walk", "citytown": "Culver City", "address": "3827 Culver Ctr", "stateprovince": "CA", "phone": "(310) 558-4027", "postalcode": "90232", "lat": 34.0173015, "lng": -118.4076983 }, "geometry": { "type": "Point", "coordinates": [ -118.4076983, 34.0173015 ] } },
{ "type": "Feature", "properties": { "locationid": "70300209", "name": "Westchester", "citytown": "Los Angeles", "address": "8824 S Sepulveda Blvd", "stateprovince": "CA", "phone": "(310) 645-2035", "postalcode": "90045", "lat": 33.9563511, "lng": -118.3977638 }, "geometry": { "type": "Point", "coordinates": [ -118.3977638, 33.9563511 ] } },
{ "type": "Feature", "properties": { "locationid": "70300278", "name": "Lincoln Loyola", "citytown": "Los Angeles", "address": "8701 Lincoln Blvd", "stateprovince": "CA", "phone": "(310) 649-1526", "postalcode": "90045", "lat": 33.958159, "lng": -118.4185057 }, "geometry": { "type": "Point", "coordinates": [ -118.4185057, 33.958159 ] } },
{ "type": "Feature", "properties": { "locationid": "70300279", "name": "Marina Waterside Center", "citytown": "Marina Del Rey", "address": "4700 Admiralty Way", "stateprovince": "CA", "phone": "(310) 823-4684", "postalcode": "90292", "lat": 33.9798353, "lng": -118.4389103 }, "geometry": { "type": "Point", "coordinates": [ -118.4389103, 33.9798353 ] } },
{ "type": "Feature", "properties": { "locationid": "70300274", "name": "Western Manchester", "citytown": "Los Angeles", "address": "1730 W Manchester Ave", "stateprovince": "CA", "phone": "(323) 750-3151", "postalcode": "90047", "lat": 33.9593084, "lng": -118.3079156 }, "geometry": { "type": "Point", "coordinates": [ -118.3079156, 33.9593084 ] } },
{ "type": "Feature", "properties": { "locationid": "70300280", "name": "Marina Del Rey", "citytown": "Marina Del Rey", "address": "4311 Lincoln Blvd", "stateprovince": "CA", "phone": "(310) 574-0909", "postalcode": "90292", "lat": 33.9842507, "lng": -118.4432495 }, "geometry": { "type": "Point", "coordinates": [ -118.4432495, 33.9842507 ] } },
{ "type": "Feature", "properties": { "locationid": "70300709", "name": "Westdale S C", "citytown": "Los Angeles", "address": "11361 National Blvd", "stateprovince": "CA", "phone": "(310) 479-4351", "postalcode": "90064", "lat": 34.026039, "lng": -118.4333353 }, "geometry": { "type": "Point", "coordinates": [ -118.4333353, 34.026039 ] } },
{ "type": "Feature", "properties": { "locationid": "70300269", "name": "Hawthorne", "citytown": "Hawthorne", "address": "11873 Hawthorne Blvd", "stateprovince": "CA", "phone": "(310) 679-9164", "postalcode": "90250", "lat": 33.9259719, "lng": -118.354042 }, "geometry": { "type": "Point", "coordinates": [ -118.354042, 33.9259719 ] } },
{ "type": "Feature", "properties": { "locationid": "70300156", "name": "Century City", "citytown": "Los Angeles", "address": "10309 W Olympic Blvd", "stateprovince": "CA", "phone": "(310) 553-8117", "postalcode": "90064", "lat": 34.0524414, "lng": -118.4178389 }, "geometry": { "type": "Point", "coordinates": [ -118.4178389, 34.0524414 ] } },
{ "type": "Feature", "properties": { "locationid": "70300645", "name": "E El Segundo", "citytown": "El Segundo", "address": "500 N Pacific Coast HWY", "stateprovince": "CA", "phone": "(310) 615-0537", "postalcode": "90245", "lat": 33.9220163, "lng": -118.3956009 }, "geometry": { "type": "Point", "coordinates": [ -118.3956009, 33.9220163 ] } },
{ "type": "Feature", "properties": { "locationid": "70300281", "name": "Venice", "citytown": "Venice", "address": "910 Lincoln Blvd", "stateprovince": "CA", "phone": "(310) 392-4854", "postalcode": "90291", "lat": 33.9991682, "lng": -118.4612747 }, "geometry": { "type": "Point", "coordinates": [ -118.4612747, 33.9991682 ] } },
{ "type": "Feature", "properties": { "locationid": "70300210", "name": "Olympic Barrington", "citytown": "Los Angeles", "address": "11727 W Olympic Blvd", "stateprovince": "CA", "phone": "(310) 473-5238", "postalcode": "90064", "lat": 34.0349667, "lng": -118.4492017 }, "geometry": { "type": "Point", "coordinates": [ -118.4492017, 34.0349667 ] } },
{ "type": "Feature", "properties": { "locationid": "70300120", "name": "South Bay", "citytown": "Redondo Beach", "address": "1413 Hawthorne Blvd", "stateprovince": "CA", "phone": "(310) 370-9446", "postalcode": "90278", "lat": 33.8669814, "lng": -118.3537852 }, "geometry": { "type": "Point", "coordinates": [ -118.3537852, 33.8669814 ] } },
{ "type": "Feature", "properties": { "locationid": "70300166", "name": "Manhattan Village Shopping Center", "citytown": "Manhattan Beach", "address": "2700 N Sepulveda Blvd", "stateprovince": "CA", "phone": "(310) 546-2472", "postalcode": "90266", "lat": 33.896168, "lng": -118.3943195 }, "geometry": { "type": "Point", "coordinates": [ -118.3943195, 33.896168 ] } },
{ "type": "Feature", "properties": { "locationid": "70300111", "name": "Gardena", "citytown": "Gardena", "address": "2201 W Redondo Beach Blvd", "stateprovince": "CA", "phone": "(310) 538-9008", "postalcode": "90247", "lat": 33.8869866, "lng": -118.3183954 }, "geometry": { "type": "Point", "coordinates": [ -118.3183954, 33.8869866 ] } },
{ "type": "Feature", "properties": { "locationid": "70300110", "name": "Torrance", "citytown": "Torrance", "address": "3455 Sepulveda Blvd", "stateprovince": "CA", "phone": "(310) 542-1639", "postalcode": "90505", "lat": 33.8280928, "lng": -118.3456148 }, "geometry": { "type": "Point", "coordinates": [ -118.3456148, 33.8280928 ] } },
{ "type": "Feature", "properties": { "locationid": "70300088", "name": "Plaza Mayor", "citytown": "Torrance", "address": "5035 Pacific Coast Hwy", "stateprovince": "CA", "phone": "(310) 378-0295", "postalcode": "90505", "lat": 33.8136539, "lng": -118.3676329 }, "geometry": { "type": "Point", "coordinates": [ -118.3676329, 33.8136539 ] } },
{ "type": "Feature", "properties": { "locationid": "70300132", "name": "Carson Abalone", "citytown": "Torrance", "address": "1770 W Carson St", "stateprovince": "CA", "phone": "(310) 787-8786", "postalcode": "90501", "lat": 33.8300205, "lng": -118.3110668 }, "geometry": { "type": "Point", "coordinates": [ -118.3110668, 33.8300205 ] } },
{ "type": "Feature", "properties": { "locationid": "70300266", "name": "120th Vermont", "citytown": "Los Angeles", "address": "11922 S Vermont Ave", "stateprovince": "CA", "phone": "(323) 757-4147", "postalcode": "90044", "lat": 33.925, "lng": -118.2909782 }, "geometry": { "type": "Point", "coordinates": [ -118.2909782, 33.925 ] } },
{ "type": "Feature", "properties": { "locationid": "70300728", "name": "Country Hills S C", "citytown": "Torrance", "address": "2909 Rolling Hills Rd", "stateprovince": "CA", "phone": "(310) 325-0611", "postalcode": "90505", "lat": 33.7894169, "lng": -118.3403516 }, "geometry": { "type": "Point", "coordinates": [ -118.3403516, 33.7894169 ] } },
{ "type": "Feature", "properties": { "locationid": "70300256", "name": "Avalon Carson", "citytown": "Carson", "address": "650 E Carson St", "stateprovince": "CA", "phone": "(310) 518-4191", "postalcode": "90745", "lat": 33.8303703, "lng": -118.2644171 }, "geometry": { "type": "Point", "coordinates": [ -118.2644171, 33.8303703 ] } },
{ "type": "Feature", "properties": { "locationid": "70300720", "name": "Palos Verdes", "citytown": "Rancho Palos Verdes", "address": "30019 Hawthorne Blvd", "stateprovince": "CA", "phone": "(310) 377-6941", "postalcode": "90275", "lat": 33.7604737, "lng": -118.3946889 }, "geometry": { "type": "Point", "coordinates": [ -118.3946889, 33.7604737 ] } },
{ "type": "Feature", "properties": { "locationid": "70300083", "name": "Cerritos Plaza", "citytown": "Cerritos", "address": "13321 South St", "stateprovince": "CA", "phone": "(562) 860-5635", "postalcode": "90703", "lat": 33.8601017, "lng": -118.0475794 }, "geometry": { "type": "Point", "coordinates": [ -118.0475794, 33.8601017 ] } },
{ "type": "Feature", "properties": { "locationid": "70300165", "name": "Lakewood", "citytown": "Lakewood", "address": "5951 Del Amo Blvd", "stateprovince": "CA", "phone": "(562) 867-7282", "postalcode": "90713", "lat": 33.8479249, "lng": -118.115614 }, "geometry": { "type": "Point", "coordinates": [ -118.115614, 33.8479249 ] } },
{ "type": "Feature", "properties": { "locationid": "70300064", "name": "Whittier", "citytown": "Whittier", "address": "14919 Whittier Blvd", "stateprovince": "CA", "phone": "(562) 945-3779", "postalcode": "90605", "lat": 33.9499773, "lng": -118.0072833 }, "geometry": { "type": "Point", "coordinates": [ -118.0072833, 33.9499773 ] } },
{ "type": "Feature", "properties": { "locationid": "70300233", "name": "Cypress Center West", "citytown": "Cypress", "address": "4033 Ball Rd", "stateprovince": "CA", "phone": "(714) 827-7947", "postalcode": "90630", "lat": 33.8184334, "lng": -118.0619714 }, "geometry": { "type": "Point", "coordinates": [ -118.0619714, 33.8184334 ] } },
{ "type": "Feature", "properties": { "locationid": "70300196", "name": "Cherry Carson", "citytown": "Long Beach", "address": "2250 E Carson St", "stateprovince": "CA", "phone": "(562) 424-2012", "postalcode": "90807", "lat": 33.830718, "lng": -118.1649908 }, "geometry": { "type": "Point", "coordinates": [ -118.1649908, 33.830718 ] } },
{ "type": "Feature", "properties": { "locationid": "70300186", "name": "Traffic Circle", "citytown": "Long Beach", "address": "1930 N Lakewood Blvd", "stateprovince": "CA", "phone": "(562) 494-4371", "postalcode": "90815", "lat": 33.7921389, "lng": -118.1414178 }, "geometry": { "type": "Point", "coordinates": [ -118.1414178, 33.7921389 ] } },
{ "type": "Feature", "properties": { "locationid": "70300178", "name": "Marina Shopping Center", "citytown": "Long Beach", "address": "6290 E Pacific Coast Hwy", "stateprovince": "CA", "phone": "(562) 795-0167", "postalcode": "90803", "lat": 33.7609516, "lng": -118.1160563 }, "geometry": { "type": "Point", "coordinates": [ -118.1160563, 33.7609516 ] } },
{ "type": "Feature", "properties": { "locationid": "70300604", "name": "Old Ranch Town Center", "citytown": "Seal Beach", "address": "12470 Seal Beach Blvd", "stateprovince": "CA", "phone": "(562) 598-3128", "postalcode": "90740", "lat": 33.781024, "lng": -118.0696489 }, "geometry": { "type": "Point", "coordinates": [ -118.0696489, 33.781024 ] } },
{ "type": "Feature", "properties": { "locationid": "70300251", "name": "4th Orizaba", "citytown": "Long Beach", "address": "2930 E 4Th St", "stateprovince": "CA", "phone": "(562) 434-3899", "postalcode": "90814", "lat": 33.7713929, "lng": -118.1574879 }, "geometry": { "type": "Point", "coordinates": [ -118.1574879, 33.7713929 ] } },
{ "type": "Feature", "properties": { "locationid": "70300131", "name": "Meadowlark Plaza", "citytown": "Huntington Beach", "address": "5241 Warner Ave", "stateprovince": "CA", "phone": "(714) 377-0024", "postalcode": "92649", "lat": 33.716769, "lng": -118.0379557 }, "geometry": { "type": "Point", "coordinates": [ -118.0379557, 33.716769 ] } },
{ "type": "Feature", "properties": { "locationid": "70300296", "name": "Brookhurst SC", "citytown": "Anaheim", "address": "915 S Brookhurst St", "stateprovince": "CA", "phone": "(714) 635-3670", "postalcode": "92804", "lat": 33.819589, "lng": -117.9601468 }, "geometry": { "type": "Point", "coordinates": [ -117.9601468, 33.819589 ] } },
{ "type": "Feature", "properties": { "locationid": "70300026", "name": "Twin Oaks Shopping Center", "citytown": "Agoura", "address": "5727 Kanan Rd", "stateprovince": "CA", "phone": "(818) 889-5429", "postalcode": "91301", "lat": 34.155174, "lng": -118.758408 }, "geometry": { "type": "Point", "coordinates": [ -118.758408, 34.155174 ] } },
{ "type": "Feature", "properties": { "locationid": "70300009", "name": "North Ranch Mall", "citytown": "Westlake Village", "address": "3963 E Thousand Oaks Blvd", "stateprovince": "CA", "phone": "(805) 496-2469", "postalcode": "91362", "lat": 34.1635059, "lng": -118.8235181 }, "geometry": { "type": "Point", "coordinates": [ -118.8235181, 34.1635059 ] } },
{ "type": "Feature", "properties": { "locationid": "70300205", "name": "The Commons at Calabasas", "citytown": "Calabasas", "address": "4754 Commons Way", "stateprovince": "CA", "phone": "(818) 223-0284", "postalcode": "91302", "lat": 34.1542232, "lng": -118.643154 }, "geometry": { "type": "Point", "coordinates": [ -118.643154, 34.1542232 ] } },
{ "type": "Feature", "properties": { "locationid": "70300731", "name": "Malibu Bay Colony", "citytown": "Malibu", "address": "23841 Malibu Rd", "stateprovince": "CA", "phone": "(310) 456-2917", "postalcode": "90265", "lat": 34.0339684, "lng": -118.6949844 }, "geometry": { "type": "Point", "coordinates": [ -118.6949844, 34.0339684 ] } },
{ "type": "Feature", "properties": { "locationid": "70300620", "name": "Thousand Oaks", "citytown": "Thousand Oaks", "address": "1500 N Moorpark Rd", "stateprovince": "CA", "phone": "(805) 379-3100", "postalcode": "91360", "lat": 34.1980804, "lng": -118.8672439 }, "geometry": { "type": "Point", "coordinates": [ -118.8672439, 34.1980804 ] } },
{ "type": "Feature", "properties": { "locationid": "70300213", "name": "Fallbrook", "citytown": "West Hills", "address": "22915 Victory Blvd", "stateprovince": "CA", "phone": "(818) 716-8199", "postalcode": "91307", "lat": 34.1870704, "lng": -118.6263604 }, "geometry": { "type": "Point", "coordinates": [ -118.6263604, 34.1870704 ] } },
{ "type": "Feature", "properties": { "locationid": "70300081", "name": "Gateway Plaza SC", "citytown": "Woodland Hills", "address": "21909 Ventura Blvd", "stateprovince": "CA", "phone": "(818) 883-1907", "postalcode": "91364", "lat": 34.169725, "lng": -118.6039859 }, "geometry": { "type": "Point", "coordinates": [ -118.6039859, 34.169725 ] } },
{ "type": "Feature", "properties": { "locationid": "70300729", "name": "Ventu Park Shopping Center", "citytown": "Newbury Park", "address": "583 N Ventu Park Rd", "stateprovince": "CA", "phone": "(805) 499-6743", "postalcode": "91320", "lat": 34.1874084, "lng": -118.9124221 }, "geometry": { "type": "Point", "coordinates": [ -118.9124221, 34.1874084 ] } },
{ "type": "Feature", "properties": { "locationid": "70300721", "name": "Shoup Sherman Way", "citytown": "Canoga Park", "address": "22333 Sherman Way", "stateprovince": "CA", "phone": "(818) 883-1230", "postalcode": "91303", "lat": 34.202013, "lng": -118.613566 }, "geometry": { "type": "Point", "coordinates": [ -118.613566, 34.202013 ] } },
{ "type": "Feature", "properties": { "locationid": "70300052", "name": "Simi Valley", "citytown": "Simi Valley", "address": "2726 E Los Angeles Ave", "stateprovince": "CA", "phone": "(805) 527-1122", "postalcode": "93065", "lat": 34.270697, "lng": -118.7425413 }, "geometry": { "type": "Point", "coordinates": [ -118.7425413, 34.270697 ] } },
{ "type": "Feature", "properties": { "locationid": "70300070", "name": "Ralphs Shopping Center", "citytown": "Woodland Hills", "address": "20060 Ventura Blvd", "stateprovince": "CA", "phone": "(818) 883-7552", "postalcode": "91364", "lat": 34.170048, "lng": -118.5702003 }, "geometry": { "type": "Point", "coordinates": [ -118.5702003, 34.170048 ] } },
{ "type": "Feature", "properties": { "locationid": "70300723", "name": "Moorpark Town Center", "citytown": "Moorpark", "address": "101 W Los Angeles Ave", "stateprovince": "CA", "phone": "(805) 529-1604", "postalcode": "93021", "lat": 34.2802426, "lng": -118.8833702 }, "geometry": { "type": "Point", "coordinates": [ -118.8833702, 34.2802426 ] } },
{ "type": "Feature", "properties": { "locationid": "70300710", "name": "Chatsworth Plaza", "citytown": "Chatsworth", "address": "21431 Devonshire St", "stateprovince": "CA", "phone": "(818) 341-0950", "postalcode": "91311", "lat": 34.2581128, "lng": -118.5983239 }, "geometry": { "type": "Point", "coordinates": [ -118.5983239, 34.2581128 ] } },
{ "type": "Feature", "properties": { "locationid": "70300006", "name": "Encino", "citytown": "Encino", "address": "17840 Ventura Blvd", "stateprovince": "CA", "phone": "(818) 345-6882", "postalcode": "91316", "lat": 34.1625642, "lng": -118.5214292 }, "geometry": { "type": "Point", "coordinates": [ -118.5214292, 34.1625642 ] } },
{ "type": "Feature", "properties": { "locationid": "70300705", "name": "Pacific Palisades", "citytown": "Pacific Palisades", "address": "15120 W Sunset Blvd", "stateprovince": "CA", "phone": "(310) 454-3001", "postalcode": "90272", "lat": 34.0449867, "lng": -118.5241394 }, "geometry": { "type": "Point", "coordinates": [ -118.5241394, 34.0449867 ] } },
{ "type": "Feature", "properties": { "locationid": "70300127", "name": "Porter Ranch", "citytown": "Northridge", "address": "19781 Rinaldi St", "stateprovince": "CA", "phone": "(818) 832-5955", "postalcode": "91326", "lat": 34.2762556, "lng": -118.5636186 }, "geometry": { "type": "Point", "coordinates": [ -118.5636186, 34.2762556 ] } },
{ "type": "Feature", "properties": { "locationid": "70300189", "name": "Saticoy Plaza", "citytown": "Van Nuys", "address": "17250 Saticoy St", "stateprovince": "CA", "phone": "(818) 609-8425", "postalcode": "91406", "lat": 34.2069463, "lng": -118.50882 }, "geometry": { "type": "Point", "coordinates": [ -118.50882, 34.2069463 ] } },
{ "type": "Feature", "properties": { "locationid": "70300887", "name": "Canyon Plaza Fuel", "citytown": "Sun Valley", "address": "11870 Roscoe Blvd", "stateprovince": "CA", "phone": null, "postalcode": "91352", "lat": 34.2213927, "lng": -118.392328 }, "geometry": { "type": "Point", "coordinates": [ -118.392328, 34.2213927 ] } },
{ "type": "Feature", "properties": { "locationid": "70300017", "name": "Canyon Plaza", "citytown": "Sun Valley", "address": "8325 Laurel Canyon Blvd", "stateprovince": "CA", "phone": "(818) 768-0378", "postalcode": "91352", "lat": 34.2225057, "lng": -118.3977556 }, "geometry": { "type": "Point", "coordinates": [ -118.3977556, 34.2225057 ] } },
{ "type": "Feature", "properties": { "locationid": "70300049", "name": "Sunland Shopping Center", "citytown": "Sunland", "address": "10455 Sunland Blvd", "stateprovince": "CA", "phone": "(818) 352-4544", "postalcode": "91040", "lat": 34.260529, "lng": -118.326788 }, "geometry": { "type": "Point", "coordinates": [ -118.326788, 34.260529 ] } },
{ "type": "Feature", "properties": { "locationid": "70300047", "name": "Sherman Way", "citytown": "Van Nuys", "address": "7221 Woodman Ave", "stateprovince": "CA", "phone": "(818) 785-3162", "postalcode": "91405", "lat": 34.2019488, "lng": -118.4321526 }, "geometry": { "type": "Point", "coordinates": [ -118.4321526, 34.2019488 ] } },
{ "type": "Feature", "properties": { "locationid": "70300063", "name": "Magnolia Mall", "citytown": "Van Nuys", "address": "12921 Magnolia Blvd", "stateprovince": "CA", "phone": "(818) 986-2293", "postalcode": "91423", "lat": 34.1656338, "lng": -118.4144431 }, "geometry": { "type": "Point", "coordinates": [ -118.4144431, 34.1656338 ] } },
{ "type": "Feature", "properties": { "locationid": "70300702", "name": "Van Nuys Burbank", "citytown": "Sherman Oaks", "address": "14440 Burbank Blvd", "stateprovince": "CA", "phone": "(818) 989-5640", "postalcode": "91401", "lat": 34.1714047, "lng": -118.447126 }, "geometry": { "type": "Point", "coordinates": [ -118.447126, 34.1714047 ] } },
{ "type": "Feature", "properties": { "locationid": "70300701", "name": "Coldwater Ventura", "citytown": "Studio City", "address": "12842 Ventura Blvd", "stateprovince": "CA", "phone": "(818) 761-6196", "postalcode": "91604", "lat": 34.1441282, "lng": -118.4131209 }, "geometry": { "type": "Point", "coordinates": [ -118.4131209, 34.1441282 ] } },
{ "type": "Feature", "properties": { "locationid": "70300222", "name": "Sherman Oaks", "citytown": "Los Angeles", "address": "14049 Ventura Blvd", "stateprovince": "CA", "phone": "(747) 233-6100", "postalcode": "91423", "lat": 34.1501009, "lng": -118.4389163 }, "geometry": { "type": "Point", "coordinates": [ -118.4389163, 34.1501009 ] } },
{ "type": "Feature", "properties": { "locationid": "70300759", "name": "Westwood", "citytown": "Los Angeles", "address": "10861 Weyburn Ave", "stateprovince": "CA", "phone": "(310) 824-5994", "postalcode": "90024", "lat": 34.063363, "lng": -118.443942 }, "geometry": { "type": "Point", "coordinates": [ -118.443942, 34.063363 ] } },
{ "type": "Feature", "properties": { "locationid": "70300045", "name": "Eastvale", "citytown": "Eastvale", "address": "12660 Limonite Ave", "stateprovince": "CA", "phone": "(951) 734-1087", "postalcode": "92880", "lat": 33.9740406, "lng": -117.5603367 }, "geometry": { "type": "Point", "coordinates": [ -117.5603367, 33.9740406 ] } },
{ "type": "Feature", "properties": { "locationid": "70300752", "name": "Archibald Ranch Town Center", "citytown": "Ontario", "address": "3075 S Archibald Ave Bldg C", "stateprovince": "CA", "phone": "(909) 947-1884", "postalcode": "91761", "lat": 34.0176714, "lng": -117.5922578 }, "geometry": { "type": "Point", "coordinates": [ -117.5922578, 34.0176714 ] } },
{ "type": "Feature", "properties": { "locationid": "70300136", "name": "Sierra Del Oro Towne Center", "citytown": "Corona", "address": "2661 Green River Rd", "stateprovince": "CA", "phone": "(951) 371-2711", "postalcode": "92882", "lat": 33.8715769, "lng": -117.6218154 }, "geometry": { "type": "Point", "coordinates": [ -117.6218154, 33.8715769 ] } },
{ "type": "Feature", "properties": { "locationid": "70300135", "name": "Sycamore Canyon Plaza", "citytown": "Anaheim", "address": "711 S Weir Canyon Rd", "stateprovince": "CA", "phone": "(714) 283-8711", "postalcode": "92808", "lat": 33.8615329, "lng": -117.7400253 }, "geometry": { "type": "Point", "coordinates": [ -117.7400253, 33.8615329 ] } },
{ "type": "Feature", "properties": { "locationid": "70300098", "name": "La Sierra", "citytown": "Riverside", "address": "3350 La Sierra Ave", "stateprovince": "CA", "phone": "(951) 637-1948", "postalcode": "92503", "lat": 33.8953204, "lng": -117.4715286 }, "geometry": { "type": "Point", "coordinates": [ -117.4715286, 33.8953204 ] } },
{ "type": "Feature", "properties": { "locationid": "70300717", "name": "Terra Vista", "citytown": "Rancho Cucamonga", "address": "7243 Haven Ave", "stateprovince": "CA", "phone": "(909) 944-4838", "postalcode": "91701", "lat": 34.122586, "lng": -117.5733113 }, "geometry": { "type": "Point", "coordinates": [ -117.5733113, 34.122586 ] } },
{ "type": "Feature", "properties": { "locationid": "70300053", "name": "Temple City", "citytown": "Temple City", "address": "9470 Las Tunas Dr", "stateprovince": "CA", "phone": "(626) 286-0898", "postalcode": "91780", "lat": 34.1052403, "lng": -118.0639288 }, "geometry": { "type": "Point", "coordinates": [ -118.0639288, 34.1052403 ] } },
{ "type": "Feature", "properties": { "locationid": "70300041", "name": "Arcadia", "citytown": "Arcadia", "address": "211 E Foothill Blvd", "stateprovince": "CA", "phone": "(626) 357-1942", "postalcode": "91006", "lat": 34.151696, "lng": -118.024528 }, "geometry": { "type": "Point", "coordinates": [ -118.024528, 34.151696 ] } },
{ "type": "Feature", "properties": { "locationid": "70300730", "name": "Foothill Rosemead Plaza", "citytown": "Pasadena", "address": "3601 E Foothill Blvd", "stateprovince": "CA", "phone": "(626) 351-8806", "postalcode": "91107", "lat": 34.1513206, "lng": -118.075587 }, "geometry": { "type": "Point", "coordinates": [ -118.075587, 34.1513206 ] } },
{ "type": "Feature", "properties": { "locationid": "70300021", "name": "South Pasadena", "citytown": "South Pasadena", "address": "1745 Garfield Ave", "stateprovince": "CA", "phone": "(626) 403-0082", "postalcode": "91030", "lat": 34.1049558, "lng": -118.1352246 }, "geometry": { "type": "Point", "coordinates": [ -118.1352246, 34.1049558 ] } },
{ "type": "Feature", "properties": { "locationid": "70300096", "name": "Lake", "citytown": "Pasadena", "address": "160 N Lake Ave", "stateprovince": "CA", "phone": "(626) 793-7480", "postalcode": "91101", "lat": 34.1489707, "lng": -118.1312999 }, "geometry": { "type": "Point", "coordinates": [ -118.1312999, 34.1489707 ] } },
{ "type": "Feature", "properties": { "locationid": "70300700", "name": "Day Creek Village", "citytown": "Rancho Cucamonga", "address": "12201 Highland Ave", "stateprovince": "CA", "phone": "(909) 646-9356", "postalcode": "91739", "lat": 34.1350064, "lng": -117.5393325 }, "geometry": { "type": "Point", "coordinates": [ -117.5393325, 34.1350064 ] } },
{ "type": "Feature", "properties": { "locationid": "70300013", "name": "Central Park Plaza", "citytown": "Rancho Cucamonga", "address": "7369 Milliken Ave", "stateprovince": "CA", "phone": "(909) 944-4827", "postalcode": "91730", "lat": 34.1198955, "lng": -117.5569585 }, "geometry": { "type": "Point", "coordinates": [ -117.5569585, 34.1198955 ] } },
{ "type": "Feature", "properties": { "locationid": "70300113", "name": "Sierra Lakes Village", "citytown": "Fontana", "address": "16225 Sierra Lakes Pkwy", "stateprovince": "CA", "phone": "(909) 357-1380", "postalcode": "92336", "lat": 34.1377047, "lng": -117.4504935 }, "geometry": { "type": "Point", "coordinates": [ -117.4504935, 34.1377047 ] } },
{ "type": "Feature", "properties": { "locationid": "70300753", "name": "University town Center", "citytown": "San Bernardino", "address": "4444 University Pkwy", "stateprovince": "CA", "phone": "(909) 880-2253", "postalcode": "92407", "lat": 34.1696763, "lng": -117.3343382 }, "geometry": { "type": "Point", "coordinates": [ -117.3343382, 34.1696763 ] } },
{ "type": "Feature", "properties": { "locationid": "70300743", "name": "West Pasadena", "citytown": "Pasadena", "address": "320 W Colorado Blvd", "stateprovince": "CA", "phone": "(626) 793-4179", "postalcode": "91105", "lat": 34.1451992, "lng": -118.1569341 }, "geometry": { "type": "Point", "coordinates": [ -118.1569341, 34.1451992 ] } },
{ "type": "Feature", "properties": { "locationid": "70300192", "name": "Brea Town Center", "citytown": "Brea", "address": "305 W Imperial Hwy", "stateprovince": "CA", "phone": "(714) 529-4505", "postalcode": "92821", "lat": 33.9189558, "lng": -117.9026945 }, "geometry": { "type": "Point", "coordinates": [ -117.9026945, 33.9189558 ] } },
{ "type": "Feature", "properties": { "locationid": "70300075", "name": "Bonita Point Plaza", "citytown": "Chula Vista", "address": "780 Otay Lakes Rd", "stateprovince": "CA", "phone": "(619) 421-4822", "postalcode": "91910", "lat": 32.6448148, "lng": -117.0016962 }, "geometry": { "type": "Point", "coordinates": [ -117.0016962, 32.6448148 ] } },
{ "type": "Feature", "properties": { "locationid": "70300235", "name": "The Plaza at Sunbow", "citytown": "Chula Vista", "address": "659 E Palomar St", "stateprovince": "CA", "phone": "(619) 397-0019", "postalcode": "91911", "lat": 32.6159223, "lng": -117.0250968 }, "geometry": { "type": "Point", "coordinates": [ -117.0250968, 32.6159223 ] } },
{ "type": "Feature", "properties": { "locationid": "70300159", "name": "South Bay Terrace SC", "citytown": "San Diego", "address": "3011 Alta View Dr", "stateprovince": "CA", "phone": "(619) 470-0574", "postalcode": "92139", "lat": 32.6769957, "lng": -117.0381614 }, "geometry": { "type": "Point", "coordinates": [ -117.0381614, 32.6769957 ] } },
{ "type": "Feature", "properties": { "locationid": "70300057", "name": "Rancho San Diego TownCountry SC", "citytown": "El Cajon", "address": "2652 Jamacha Rd", "stateprovince": "CA", "phone": "(619) 670-0101", "postalcode": "92019", "lat": 32.7449259, "lng": -116.9333852 }, "geometry": { "type": "Point", "coordinates": [ -116.9333852, 32.7449259 ] } },
{ "type": "Feature", "properties": { "locationid": "70300220", "name": "Montezuma", "citytown": "San Diego", "address": "6670 Montezuma Rd", "stateprovince": "CA", "phone": "(619) 463-8893", "postalcode": "92115", "lat": 32.769537, "lng": -117.0542197 }, "geometry": { "type": "Point", "coordinates": [ -117.0542197, 32.769537 ] } },
{ "type": "Feature", "properties": { "locationid": "70300123", "name": "Downtown San Diego", "citytown": "San Diego", "address": "101 G St", "stateprovince": "CA", "phone": "(619) 595-1581", "postalcode": "92101", "lat": 32.712107, "lng": -117.1633264 }, "geometry": { "type": "Point", "coordinates": [ -117.1633264, 32.712107 ] } },
{ "type": "Feature", "properties": { "locationid": "70300051", "name": "Hillcrest", "citytown": "San Diego", "address": "1020 University Ave", "stateprovince": "CA", "phone": "(619) 298-2931", "postalcode": "92103", "lat": 32.749267, "lng": -117.154764 }, "geometry": { "type": "Point", "coordinates": [ -117.154764, 32.749267 ] } },
{ "type": "Feature", "properties": { "locationid": "70300175", "name": "Poinsettia Village", "citytown": "Carlsbad", "address": "7140 Avenida Encinas", "stateprovince": "CA", "phone": "(760) 431-1060", "postalcode": "92011", "lat": 33.1011793, "lng": -117.3104843 }, "geometry": { "type": "Point", "coordinates": [ -117.3104843, 33.1011793 ] } },
{ "type": "Feature", "properties": { "locationid": "70300054", "name": "Old Grove Marketplace", "citytown": "Oceanside", "address": "101 Old Grove Rd", "stateprovince": "CA", "phone": "(760) 754-1035", "postalcode": "92057", "lat": 33.2296871, "lng": -117.3071472 }, "geometry": { "type": "Point", "coordinates": [ -117.3071472, 33.2296871 ] } },
{ "type": "Feature", "properties": { "locationid": "70300168", "name": "Encinitas Village Square", "citytown": "Encinitas", "address": "125 N El Camino Real", "stateprovince": "CA", "phone": "(760) 942-5472", "postalcode": "92024", "lat": 33.0481965, "lng": -117.2569774 }, "geometry": { "type": "Point", "coordinates": [ -117.2569774, 33.0481965 ] } },
{ "type": "Feature", "properties": { "locationid": "70300683", "name": "Campus Marketplace", "citytown": "San Marcos", "address": "306 S Twin Oaks Valley Rd", "stateprovince": "CA", "phone": "(760) 891-0607", "postalcode": "92078", "lat": 33.1306429, "lng": -117.1669074 }, "geometry": { "type": "Point", "coordinates": [ -117.1669074, 33.1306429 ] } },
{ "type": "Feature", "properties": { "locationid": "70300167", "name": "Del Mar Highlands town center", "citytown": "San Diego", "address": "3455 Del Mar Heights Rd", "stateprovince": "CA", "phone": "(858) 259-1077", "postalcode": "92130", "lat": 32.9529048, "lng": -117.2317127 }, "geometry": { "type": "Point", "coordinates": [ -117.2317127, 32.9529048 ] } },
{ "type": "Feature", "properties": { "locationid": "70300105", "name": "4S Commons Town Center", "citytown": "San Diego", "address": "10525 4S Commons Dr", "stateprovince": "CA", "phone": "(858) 675-0196", "postalcode": "92127", "lat": 33.0191648, "lng": -117.1127455 }, "geometry": { "type": "Point", "coordinates": [ -117.1127455, 33.0191648 ] } },
{ "type": "Feature", "properties": { "locationid": "70300090", "name": "Ferrara Plaza", "citytown": "Escondido", "address": "2417 E Valley Pkwy", "stateprovince": "CA", "phone": "(760) 740-0334", "postalcode": "92027", "lat": 33.140322, "lng": -117.0427221 }, "geometry": { "type": "Point", "coordinates": [ -117.0427221, 33.140322 ] } },
{ "type": "Feature", "properties": { "locationid": "70300019", "name": "Carmel MTN Ranch Town Center", "citytown": "San Diego", "address": "11875 Carmel Mountain Rd", "stateprovince": "CA", "phone": "(858) 451-8376", "postalcode": "92128", "lat": 32.9809705, "lng": -117.0755982 }, "geometry": { "type": "Point", "coordinates": [ -117.0755982, 32.9809705 ] } },
{ "type": "Feature", "properties": { "locationid": "70300108", "name": "La Jolla Village Square", "citytown": "La Jolla", "address": "8657 Villa La Jolla Dr", "stateprovince": "CA", "phone": "(858) 597-1550", "postalcode": "92037", "lat": 32.866454, "lng": -117.23175 }, "geometry": { "type": "Point", "coordinates": [ -117.23175, 32.866454 ] } },
{ "type": "Feature", "properties": { "locationid": "70300077", "name": "Friars-Mission Center", "citytown": "San Diego", "address": "5680 Mission Center Rd", "stateprovince": "CA", "phone": "(619) 297-2593", "postalcode": "92108", "lat": 32.7758918, "lng": -117.155417 }, "geometry": { "type": "Point", "coordinates": [ -117.155417, 32.7758918 ] } },
{ "type": "Feature", "properties": { "locationid": "70300207", "name": "PB Marketplace", "citytown": "San Diego", "address": "4315 Mission Blvd", "stateprovince": "CA", "phone": "(858) 273-0778", "postalcode": "92109", "lat": 32.7943027, "lng": -117.2540962 }, "geometry": { "type": "Point", "coordinates": [ -117.2540962, 32.7943027 ] } },
{ "type": "Feature", "properties": { "locationid": "70300160", "name": "Citrus Plaza", "citytown": "Indio", "address": "49908 Jefferson St", "stateprovince": "CA", "phone": "(760) 771-4373", "postalcode": "92201", "lat": 33.6866887, "lng": -116.2670926 }, "geometry": { "type": "Point", "coordinates": [ -116.2670926, 33.6866887 ] } },
{ "type": "Feature", "properties": { "locationid": "70300144", "name": "Magnolia Town Center", "citytown": "Riverside", "address": "6155 Magnolia Ave", "stateprovince": "CA", "phone": "(951) 274-9543", "postalcode": "92506", "lat": 33.9592257, "lng": -117.3943918 }, "geometry": { "type": "Point", "coordinates": [ -117.3943918, 33.9592257 ] } },
{ "type": "Feature", "properties": { "locationid": "70300609", "name": "Canyon Crest Town Center", "citytown": "Riverside", "address": "5225 Canyon Crest Dr", "stateprovince": "CA", "phone": "(951) 784-3123", "postalcode": "92507", "lat": 33.9559087, "lng": -117.3322037 }, "geometry": { "type": "Point", "coordinates": [ -117.3322037, 33.9559087 ] } },
{ "type": "Feature", "properties": { "locationid": "70300079", "name": "Heritage Plaza", "citytown": "Lake Forest", "address": "21751 Lake Forest Dr", "stateprovince": "CA", "phone": "(949) 855-1242", "postalcode": "92630", "lat": 33.6475091, "lng": -117.6876305 }, "geometry": { "type": "Point", "coordinates": [ -117.6876305, 33.6475091 ] } },
{ "type": "Feature", "properties": { "locationid": "70300879", "name": "Ralphs Lake Forest Fuel", "citytown": "Lake Forest", "address": "22391 El Toro Rd", "stateprovince": "CA", "phone": null, "postalcode": "92630", "lat": 33.637012, "lng": -117.680739 }, "geometry": { "type": "Point", "coordinates": [ -117.680739, 33.637012 ] } },
{ "type": "Feature", "properties": { "locationid": "70300288", "name": "El Toro Rockfield", "citytown": "Lake Forest", "address": "23716 El Toro Rd", "stateprovince": "CA", "phone": "(949) 380-0179", "postalcode": "92630", "lat": 33.6166774, "lng": -117.7018913 }, "geometry": { "type": "Point", "coordinates": [ -117.7018913, 33.6166774 ] } },
{ "type": "Feature", "properties": { "locationid": "70300117", "name": "Portola Plaza", "citytown": "Mission Viejo", "address": "27730 Santa Margarita Pkwy", "stateprovince": "CA", "phone": "(949) 837-0380", "postalcode": "92691", "lat": 33.6514734, "lng": -117.6468891 }, "geometry": { "type": "Point", "coordinates": [ -117.6468891, 33.6514734 ] } },
{ "type": "Feature", "properties": { "locationid": "70300099", "name": "Foothill Marketplace", "citytown": "Foothill Ranch", "address": "26751 Portola Pkwy", "stateprovince": "CA", "phone": "(949) 457-9349", "postalcode": "92610", "lat": 33.6802763, "lng": -117.6630802 }, "geometry": { "type": "Point", "coordinates": [ -117.6630802, 33.6802763 ] } },
{ "type": "Feature", "properties": { "locationid": "70300076", "name": "La Paz Marguerite SC", "citytown": "Mission Viejo", "address": "25104 Marguerite Pkwy", "stateprovince": "CA", "phone": "(949) 830-3066", "postalcode": "92692", "lat": 33.5973541, "lng": -117.656408 }, "geometry": { "type": "Point", "coordinates": [ -117.656408, 33.5973541 ] } },
{ "type": "Feature", "properties": { "locationid": "70300223", "name": "Aliso Hills SC", "citytown": "Laguna Hills", "address": "25539 Paseo De Valencia", "stateprovince": "CA", "phone": "(949) 951-0966", "postalcode": "92653", "lat": 33.5909985, "lng": -117.698073 }, "geometry": { "type": "Point", "coordinates": [ -117.698073, 33.5909985 ] } },
{ "type": "Feature", "properties": { "locationid": "70300299", "name": "Woodbury town center", "citytown": "Irvine", "address": "6300 Irvine Blvd", "stateprovince": "CA", "phone": "(949) 559-1139", "postalcode": "92620", "lat": 33.696567, "lng": -117.7427199 }, "geometry": { "type": "Point", "coordinates": [ -117.7427199, 33.696567 ] } },
{ "type": "Feature", "properties": { "locationid": "70300755", "name": "Aliso Pacific Plaza", "citytown": "Aliso Viejo", "address": "26901 Aliso Creek Rd", "stateprovince": "CA", "phone": "(949) 362-3727", "postalcode": "92656", "lat": 33.5714645, "lng": -117.725591 }, "geometry": { "type": "Point", "coordinates": [ -117.725591, 33.5714645 ] } },
{ "type": "Feature", "properties": { "locationid": "70300078", "name": "Mercado Del Lago Rancho Santa Margarita Shopping Center", "citytown": "Rancho Santa Margarita", "address": "31481 Santa Margarita Pkwy", "stateprovince": "CA", "phone": "(949) 589-0156", "postalcode": "92688", "lat": 33.6507342, "lng": -117.5821093 }, "geometry": { "type": "Point", "coordinates": [ -117.5821093, 33.6507342 ] } },
{ "type": "Feature", "properties": { "locationid": "70300738", "name": "Laguna Niguel - Site 1", "citytown": "Laguna Niguel", "address": "28231 Crown Valley Pkwy", "stateprovince": "CA", "phone": "(949) 831-0767", "postalcode": "92677", "lat": 33.5538624, "lng": -117.6873699 }, "geometry": { "type": "Point", "coordinates": [ -117.6873699, 33.5538624 ] } },
{ "type": "Feature", "properties": { "locationid": "70300154", "name": "Alton Square", "citytown": "Irvine", "address": "5345 Alton Pkwy", "stateprovince": "CA", "phone": "(949) 552-0597", "postalcode": "92604", "lat": 33.6719801, "lng": -117.7897901 }, "geometry": { "type": "Point", "coordinates": [ -117.7897901, 33.6719801 ] } },
{ "type": "Feature", "properties": { "locationid": "70300161", "name": "Heritage Plaza", "citytown": "Irvine", "address": "14440 Culver Dr", "stateprovince": "CA", "phone": "(949) 552-3065", "postalcode": "92604", "lat": 33.704632, "lng": -117.7853528 }, "geometry": { "type": "Point", "coordinates": [ -117.7853528, 33.704632 ] } },
{ "type": "Feature", "properties": { "locationid": "70300139", "name": "Tustin Village Center", "citytown": "Tustin", "address": "13321 Jamboree Rd", "stateprovince": "CA", "phone": "(714) 544-0491", "postalcode": "92782", "lat": 33.729392, "lng": -117.790173 }, "geometry": { "type": "Point", "coordinates": [ -117.790173, 33.729392 ] } },
{ "type": "Feature", "properties": { "locationid": "70300080", "name": "Harvard Place", "citytown": "Irvine", "address": "17605 Harvard Ave", "stateprovince": "CA", "phone": "(949) 851-3161", "postalcode": "92614", "lat": 33.6771234, "lng": -117.8331425 }, "geometry": { "type": "Point", "coordinates": [ -117.8331425, 33.6771234 ] } },
{ "type": "Feature", "properties": { "locationid": "70300004", "name": "Laguna Beach", "citytown": "Laguna Beach", "address": "700 S Coast Hwy", "stateprovince": "CA", "phone": "(949) 497-6410", "postalcode": "92651", "lat": 33.5376386, "lng": -117.7788096 }, "geometry": { "type": "Point", "coordinates": [ -117.7788096, 33.5376386 ] } },
{ "type": "Feature", "properties": { "locationid": "70300739", "name": "Ocean Ranch Village", "citytown": "Dana Point", "address": "32555 Golden Lantern St", "stateprovince": "CA", "phone": "(949) 661-6334", "postalcode": "92629", "lat": 33.4902319, "lng": -117.6996096 }, "geometry": { "type": "Point", "coordinates": [ -117.6996096, 33.4902319 ] } },
{ "type": "Feature", "properties": { "locationid": "70300744", "name": "Eastbluff Village", "citytown": "Newport Beach", "address": "2555 Eastbluff Dr", "stateprovince": "CA", "phone": "(949) 644-2060", "postalcode": "92660", "lat": 33.6408004, "lng": -117.8756179 }, "geometry": { "type": "Point", "coordinates": [ -117.8756179, 33.6408004 ] } },
{ "type": "Feature", "properties": { "locationid": "70300188", "name": "Lantern Bay Village", "citytown": "Dana Point", "address": "24871 Del Prado", "stateprovince": "CA", "phone": "(949) 661-4145", "postalcode": "92629", "lat": 33.4665883, "lng": -117.6960102 }, "geometry": { "type": "Point", "coordinates": [ -117.6960102, 33.4665883 ] } },
{ "type": "Feature", "properties": { "locationid": "70300015", "name": "Ocean View Plaza", "citytown": "San Clemente", "address": "638 Camino De Los Mares", "stateprovince": "CA", "phone": "(949) 496-8616", "postalcode": "92673", "lat": 33.4574307, "lng": -117.6515562 }, "geometry": { "type": "Point", "coordinates": [ -117.6515562, 33.4574307 ] } },
{ "type": "Feature", "properties": { "locationid": "70300745", "name": "Westcliff Plaza", "citytown": "Newport Beach", "address": "1150 Irvine Ave", "stateprovince": "CA", "phone": "(949) 646-1411", "postalcode": "92660", "lat": 33.6293969, "lng": -117.9067621 }, "geometry": { "type": "Point", "coordinates": [ -117.9067621, 33.6293969 ] } },
{ "type": "Feature", "properties": { "locationid": "70300287", "name": "Talega Village Center", "citytown": "San Clemente", "address": "811 Avenida Talega", "stateprovince": "CA", "phone": "(949) 492-1648", "postalcode": "92673", "lat": 33.4623095, "lng": -117.5983282 }, "geometry": { "type": "Point", "coordinates": [ -117.5983282, 33.4623095 ] } },
{ "type": "Feature", "properties": { "locationid": "70300033", "name": "Costa Mesa", "citytown": "Costa Mesa", "address": "380 E 17Th St", "stateprovince": "CA", "phone": "(949) 645-8283", "postalcode": "92627", "lat": 33.6318785, "lng": -117.912366 }, "geometry": { "type": "Point", "coordinates": [ -117.912366, 33.6318785 ] } },
{ "type": "Feature", "properties": { "locationid": "70300221", "name": "S San Clemente", "citytown": "San Clemente", "address": "903 S El Camino Real", "stateprovince": "CA", "phone": "(949) 361-8729", "postalcode": "92672", "lat": 33.4229018, "lng": -117.6087022 }, "geometry": { "type": "Point", "coordinates": [ -117.6087022, 33.4229018 ] } },
{ "type": "Feature", "properties": { "locationid": "70300071", "name": "Garden Grove", "citytown": "Garden Grove", "address": "12051 Euclid St", "stateprovince": "CA", "phone": "(714) 636-6526", "postalcode": "92840", "lat": 33.7876721, "lng": -117.9425173 }, "geometry": { "type": "Point", "coordinates": [ -117.9425173, 33.7876721 ] } },
{ "type": "Feature", "properties": { "locationid": "70300888", "name": "Chapman Main Center Fuel", "citytown": "Orange", "address": "2345 W Chapman Ave", "stateprovince": "CA", "phone": null, "postalcode": "92868", "lat": 33.788233, "lng": -117.877802 }, "geometry": { "type": "Point", "coordinates": [ -117.877802, 33.788233 ] } },
{ "type": "Feature", "properties": { "locationid": "70300008", "name": "Chapman Main center", "citytown": "Orange", "address": "1435 W Chapman Ave", "stateprovince": "CA", "phone": "(714) 634-2905", "postalcode": "92868", "lat": 33.7889157, "lng": -117.8682746 }, "geometry": { "type": "Point", "coordinates": [ -117.8682746, 33.7889157 ] } },
{ "type": "Feature", "properties": { "locationid": "70300072", "name": "La Mancha Center", "citytown": "Fullerton", "address": "1121 N Harbor Blvd", "stateprovince": "CA", "phone": "(714) 992-2591", "postalcode": "92832", "lat": 33.8812277, "lng": -117.9253403 }, "geometry": { "type": "Point", "coordinates": [ -117.9253403, 33.8812277 ] } },
{ "type": "Feature", "properties": { "locationid": "70300068", "name": "Villa Park", "citytown": "Villa Park", "address": "17801 Santiago Blvd", "stateprovince": "CA", "phone": "(714) 998-0041", "postalcode": "92861", "lat": 33.8154847, "lng": -117.8216077 }, "geometry": { "type": "Point", "coordinates": [ -117.8216077, 33.8154847 ] } },
{ "type": "Feature", "properties": { "locationid": "70300067", "name": "Crossroads Center", "citytown": "Fullerton", "address": "3330 Yorba Linda Blvd", "stateprovince": "CA", "phone": "(714) 524-2041", "postalcode": "92831", "lat": 33.8870095, "lng": -117.8672544 }, "geometry": { "type": "Point", "coordinates": [ -117.8672544, 33.8870095 ] } },
{ "type": "Feature", "properties": { "locationid": "70300756", "name": "Village Ctr at Rose", "citytown": "Placentia", "address": "710 N Rose Dr", "stateprovince": "CA", "phone": "(714) 524-3984", "postalcode": "92870", "lat": 33.8775551, "lng": -117.8418072 }, "geometry": { "type": "Point", "coordinates": [ -117.8418072, 33.8775551 ] } },
{ "type": "Feature", "properties": { "locationid": "70300010", "name": "Goleta", "citytown": "Goleta", "address": "5170 Hollister Ave", "stateprovince": "CA", "phone": "(805) 692-0022", "postalcode": "93111", "lat": 34.4358993, "lng": -119.8040077 }, "geometry": { "type": "Point", "coordinates": [ -119.8040077, 34.4358993 ] } },
{ "type": "Feature", "properties": { "locationid": "70300680", "name": "Santa Barbara", "citytown": "Santa Barbara", "address": "100 W Carrillo St", "stateprovince": "CA", "phone": "(805) 564-7000", "postalcode": "93101", "lat": 34.4200089, "lng": -119.7041654 }, "geometry": { "type": "Point", "coordinates": [ -119.7041654, 34.4200089 ] } },
{ "type": "Feature", "properties": { "locationid": "70300664", "name": "Montalvo Square", "citytown": "Ventura", "address": "1776 S Victoria Ave", "stateprovince": "CA", "phone": "(805) 650-0239", "postalcode": "93003", "lat": 34.2580299, "lng": -119.2089538 }, "geometry": { "type": "Point", "coordinates": [ -119.2089538, 34.2580299 ] } },
{ "type": "Feature", "properties": { "locationid": "70300062", "name": "Mandalay Village Marketplace", "citytown": "Port Hueneme", "address": "615 W Channel Islands Blvd", "stateprovince": "CA", "phone": "(805) 984-2005", "postalcode": "93041", "lat": 34.1772195, "lng": -119.2163031 }, "geometry": { "type": "Point", "coordinates": [ -119.2163031, 34.1772195 ] } },
{ "type": "Feature", "properties": { "locationid": "70300190", "name": "Oxnard", "citytown": "Oxnard", "address": "3443 Saviers Rd", "stateprovince": "CA", "phone": "(805) 487-4905", "postalcode": "93033", "lat": 34.168827, "lng": -119.1789627 }, "geometry": { "type": "Point", "coordinates": [ -119.1789627, 34.168827 ] } },
{ "type": "Feature", "properties": { "locationid": "70300741", "name": "La Posas S C", "citytown": "Camarillo", "address": "674 Las Posas Rd", "stateprovince": "CA", "phone": "(805) 388-1781", "postalcode": "93010", "lat": 34.2231172, "lng": -119.0677101 }, "geometry": { "type": "Point", "coordinates": [ -119.0677101, 34.2231172 ] } },
{ "type": "Feature", "properties": { "locationid": "70300271", "name": "Los Osos", "citytown": "Los Osos", "address": "1240 Los Osos Valley Rd", "stateprovince": "CA", "phone": "(805) 528-0112", "postalcode": "93402", "lat": 35.3112869, "lng": -120.8271713 }, "geometry": { "type": "Point", "coordinates": [ -120.8271713, 35.3112869 ] } },
{ "type": "Feature", "properties": { "locationid": "70300656", "name": "Madonna Plaza", "citytown": "San Luis Obispo", "address": "201 Madonna Rd", "stateprovince": "CA", "phone": "(805) 546-0407", "postalcode": "93405", "lat": 35.2635262, "lng": -120.6757244 }, "geometry": { "type": "Point", "coordinates": [ -120.6757244, 35.2635262 ] } },
{ "type": "Feature", "properties": { "locationid": "70300084", "name": "Hasley Canyon Village", "citytown": "Castaic", "address": "29675 The Old Rd", "stateprovince": "CA", "phone": "(661) 702-6911", "postalcode": "91384", "lat": 34.4568039, "lng": -118.6189977 }, "geometry": { "type": "Point", "coordinates": [ -118.6189977, 34.4568039 ] } },
{ "type": "Feature", "properties": { "locationid": "70300147", "name": "Northpark Village Square", "citytown": "Valencia", "address": "27760 Mcbean Pkwy", "stateprovince": "CA", "phone": "(661) 263-7690", "postalcode": "91354", "lat": 34.4458384, "lng": -118.5520028 }, "geometry": { "type": "Point", "coordinates": [ -118.5520028, 34.4458384 ] } },
{ "type": "Feature", "properties": { "locationid": "70300726", "name": "Canyon Country Village", "citytown": "Canyon Country", "address": "19340 Soledad Canyon Rd", "stateprovince": "CA", "phone": "(661) 252-6226", "postalcode": "91351", "lat": 34.4146539, "lng": -118.4731613 }, "geometry": { "type": "Point", "coordinates": [ -118.4731613, 34.4146539 ] } },
{ "type": "Feature", "properties": { "locationid": "70300727", "name": "Granary Square", "citytown": "Valencia", "address": "25930 Mcbean Pkwy", "stateprovince": "CA", "phone": "(661) 254-3440", "postalcode": "91355", "lat": 34.4048237, "lng": -118.5514523 }, "geometry": { "type": "Point", "coordinates": [ -118.5514523, 34.4048237 ] } },
{ "type": "Feature", "properties": { "locationid": "70300757", "name": "Stevenson Ranch", "citytown": "Stevenson Ranch", "address": "24975 Pico Canyon Rd", "stateprovince": "CA", "phone": "(661) 253-0656", "postalcode": "91381", "lat": 34.3824893, "lng": -118.5742737 }, "geometry": { "type": "Point", "coordinates": [ -118.5742737, 34.3824893 ] } },
{ "type": "Feature", "properties": { "locationid": "70300646", "name": "The GH", "citytown": "Granada Hills", "address": "18010 Chatsworth St", "stateprovince": "CA", "phone": "(818) 831-6556", "postalcode": "91344", "lat": 34.2632386, "lng": -118.5241578 }, "geometry": { "type": "Point", "coordinates": [ -118.5241578, 34.2632386 ] } },
{ "type": "Feature", "properties": { "locationid": "70300704", "name": "North Hills SC", "citytown": "Granada Hills", "address": "16940 Devonshire St", "stateprovince": "CA", "phone": "(818) 363-3173", "postalcode": "91344", "lat": 34.2565327, "lng": -118.5012907 }, "geometry": { "type": "Point", "coordinates": [ -118.5012907, 34.2565327 ] } },
{ "type": "Feature", "properties": { "locationid": "70300896", "name": "Ralphs Pasadena Fuel Center", "citytown": "Pasadena", "address": "911 E Washington Blvd", "stateprovince": "CA", "phone": null, "postalcode": "91104", "lat": 34.169191, "lng": -118.131818 }, "geometry": { "type": "Point", "coordinates": [ -118.131818, 34.169191 ] } },
{ "type": "Feature", "properties": { "locationid": "70300055", "name": "La Canada", "citytown": "La Canada", "address": "521 Foothill Blvd", "stateprovince": "CA", "phone": "(818) 790-0584", "postalcode": "91011", "lat": 34.2007262, "lng": -118.1896317 }, "geometry": { "type": "Point", "coordinates": [ -118.1896317, 34.2007262 ] } },
{ "type": "Feature", "properties": { "locationid": "70300001", "name": "Crescenta Plaza", "citytown": "La Crescenta", "address": "2675 Foothill Blvd", "stateprovince": "CA", "phone": "(818) 249-5448", "postalcode": "91214", "lat": 34.2233739, "lng": -118.2365961 }, "geometry": { "type": "Point", "coordinates": [ -118.2365961, 34.2233739 ] } },
{ "type": "Feature", "properties": { "locationid": "70300681", "name": "Bermuda Dunes", "citytown": "Bermuda Dunes", "address": "42150 Washington St", "stateprovince": "CA", "phone": "(760) 200-0272", "postalcode": "92201", "lat": 33.7419813, "lng": -116.3020172 }, "geometry": { "type": "Point", "coordinates": [ -116.3020172, 33.7419813 ] } },
{ "type": "Feature", "properties": { "locationid": "70300686", "name": "Vail Ranch", "citytown": "Temecula", "address": "33145 Temecula Pkwy", "stateprovince": "CA", "phone": "(951) 303-3102", "postalcode": "92592", "lat": 33.4843093, "lng": -117.0798797 }, "geometry": { "type": "Point", "coordinates": [ -117.0798797, 33.4843093 ] } },
{ "type": "Feature", "properties": { "locationid": "70300118", "name": "Plaza del Oro SC", "citytown": "Murrieta", "address": "23801 Washington Ave", "stateprovince": "CA", "phone": "(951) 677-2297", "postalcode": "92562", "lat": 33.5704592, "lng": -117.2346044 }, "geometry": { "type": "Point", "coordinates": [ -117.2346044, 33.5704592 ] } },
{ "type": "Feature", "properties": { "locationid": "70300201", "name": "Sports Arena", "citytown": "San Diego", "address": "3345 Sports Arena Blvd", "stateprovince": "CA", "phone": "(619) 222-0688", "postalcode": "92110", "lat": 32.751618, "lng": -117.211068 }, "geometry": { "type": "Point", "coordinates": [ -117.211068, 32.751618 ] } },
{ "type": "Feature", "properties": { "locationid": "70300027", "name": "Desert Springs Marketplace", "citytown": "Palm Desert", "address": "74884 Country Club Dr", "stateprovince": "CA", "phone": "(760) 776-9821", "postalcode": "92260", "lat": 33.760428, "lng": -116.357945 }, "geometry": { "type": "Point", "coordinates": [ -116.357945, 33.760428 ] } },
{ "type": "Feature", "properties": { "locationid": "70300181", "name": "Smoketree Village", "citytown": "Palm Springs", "address": "1733 E Palm Canyon Dr", "stateprovince": "CA", "phone": "(760) 325-5664", "postalcode": "92264", "lat": 33.7999835, "lng": -116.5261984 }, "geometry": { "type": "Point", "coordinates": [ -116.5261984, 33.7999835 ] } },
{ "type": "Feature", "properties": { "locationid": "70300611", "name": "Sunrise Ramon", "citytown": "Palm Springs", "address": "425 S Sunrise Way Ste A", "stateprovince": "CA", "phone": "(760) 327-4370", "postalcode": "92262", "lat": 33.8170689, "lng": -116.5299424 }, "geometry": { "type": "Point", "coordinates": [ -116.5299424, 33.8170689 ] } },
{ "type": "Feature", "properties": { "locationid": "70300140", "name": "Menifee Town Center", "citytown": "Menifee", "address": "30125 Antelope Rd", "stateprovince": "CA", "phone": "(951) 679-2117", "postalcode": "92584", "lat": 33.6842435, "lng": -117.1689336 }, "geometry": { "type": "Point", "coordinates": [ -117.1689336, 33.6842435 ] } },
{ "type": "Feature", "properties": { "locationid": "70300044", "name": "Bundy", "citytown": "Los Angeles", "address": "12057 Wilshire Blvd", "stateprovince": "CA", "phone": "(310) 477-8746", "postalcode": "90025", "lat": 34.0449562, "lng": -118.4670104 }, "geometry": { "type": "Point", "coordinates": [ -118.4670104, 34.0449562 ] } },
{ "type": "Feature", "properties": { "locationid": "70300292", "name": "Olympic Cloverfield", "citytown": "Santa Monica", "address": "1644 Cloverfield Blvd", "stateprovince": "CA", "phone": "(310) 582-3900", "postalcode": "90404", "lat": 34.0270564, "lng": -118.4738012 }, "geometry": { "type": "Point", "coordinates": [ -118.4738012, 34.0270564 ] } },
{ "type": "Feature", "properties": { "locationid": "70300087", "name": "Tarragona Plaza", "citytown": "San Pedro", "address": "1050 N Western Ave", "stateprovince": "CA", "phone": "(310) 833-3506", "postalcode": "90732", "lat": 33.7532968, "lng": -118.3074672 }, "geometry": { "type": "Point", "coordinates": [ -118.3074672, 33.7532968 ] } },
{ "type": "Feature", "properties": { "locationid": "70300059", "name": "Fountain Valley Promenande", "citytown": "Fountain Valley", "address": "18405 Brookhurst St", "stateprovince": "CA", "phone": "(714) 964-7566", "postalcode": "92708", "lat": 33.6953742, "lng": -117.9558501 }, "geometry": { "type": "Point", "coordinates": [ -117.9558501, 33.6953742 ] } },
{ "type": "Feature", "properties": { "locationid": "70300650", "name": "Peninsula Marketplace", "citytown": "Huntington Beach", "address": "19081 Goldenwest St", "stateprovince": "CA", "phone": "(714) 960-8756", "postalcode": "92648", "lat": 33.6853086, "lng": -118.0078639 }, "geometry": { "type": "Point", "coordinates": [ -118.0078639, 33.6853086 ] } },
{ "type": "Feature", "properties": { "locationid": "70300212", "name": "Point Loma", "citytown": "San Diego", "address": "1666 Rosecrans St", "stateprovince": "CA", "phone": "(619) 819-6040", "postalcode": "92106", "lat": 32.728483, "lng": -117.22635 }, "geometry": { "type": "Point", "coordinates": [ -117.22635, 32.728483 ] } }
]
}
