loc_name,geo_lat,geo_lon,count
Abakumov Mine,47.9947,37.6314,2
Adamivka,48.9430,37.4481,48
Alchevsk,48.4729,38.8027,13
Anatolivka,46.8103,31.2050,2
Andriivka,47.1761,33.0463,51
Andriivka,47.4625,37.6528,5
Andriivka,47.9019,36.1916,1
Andriivka,48.0216,37.0568,2
Andriivka,49.5451,36.6125,9
Andriivka,50.5510,29.8318,3
Andriivka,51.1286,34.8243,1
Andriivka,51.3994,31.0150,1
Andriyivka,47.9973,35.1691,2
Antonivka,46.6799,32.6925,23
Antonivka,47.8815,37.3570,3
Antopil,50.5998,26.4405,1
Anyskyne,50.2107,37.5212,1
Apostolove,47.6600,33.7137,28
Arbuzynka,47.9097,31.3196,1
Arkhanhelivka,48.9360,36.9365,2
Arkhanhelske,47.4320,33.4056,16
Arkhanhelske,48.2685,37.6398,2
Artemivka,49.9282,37.0805,1
Artilne,50.2449,37.6206,1
Artsyz,45.9919,29.4182,2
Asiivka,49.3639,36.6842,7
Atynske,51.2311,34.2763,11
Avdiivka,48.1394,37.7497,202
Azovske,46.2644,34.8637,1
Babai,49.8999,36.1917,2
Babyntsi,50.6422,30.0286,2
Bachivsk,51.8450,34.2775,19
Bahatyr,47.9931,36.9391,2
Bairak,48.3162,38.1320,29
Bairak,50.1507,36.7289,16
Bakhchysarai,44.7507,33.8642,1
Bakhmach,51.2009,32.7745,1
Bakhmut,48.5956,37.9999,146
Bakhmutivka,48.8703,39.0497,1
Bakhmutka,48.4332,38.0191,4
Bakhmutske,48.6642,38.0949,70
Bakhtyn,49.3218,37.5295,1
Baklanova Muraviika,51.4131,31.4415,1
Balabyne,47.7421,35.2202,1
Balakliia,49.4606,36.8527,43
Balovne,47.0520,31.8840,3
Barabashivka,49.1168,37.0548,1
Baranivka,50.3797,35.9663,10
Baranivka,51.9219,34.1846,2
Barbovo,48.3415,22.7708,1
Barvinkove,48.9025,37.0189,47
Barvinok,46.8085,32.4529,4
Baryshivka,50.3610,31.3217,4
Bashtanka,47.4072,32.4387,29
Basivka,51.1856,35.0877,3
Basove,50.3944,35.8948,3
Baturyn,51.3274,32.8919,1
Bayrak,50.0434,36.4369,16
Bazaliyivka,49.8278,36.9910,30
Bazarivka,51.2579,28.7165,1
Bazaryanka,45.8874,30.1378,1
Bazylivka,50.9985,33.4965,1
Bekhtery,46.2465,32.2925,1
Belbek Airfield,44.6915,33.5758,1
Berdiansk,46.7586,36.7845,31
Berdyanske,47.0896,37.7840,1
Berdychi,48.1936,37.6405,11
Berdychiv,49.8993,28.6023,3
Berestove,48.7561,38.2518,83
Berezan,50.3112,31.4671,1
Berezivka,47.2043,30.9078,1
Berezivka,50.4289,30.0029,1
Berezivske,48.6712,38.6027,7
Bereznehuvate,47.3078,32.8499,54
Berezove,47.7672,37.5801,3
Berezove,47.8753,36.4931,1
Beryslav,46.8415,33.4284,32
Betmanove,48.1932,37.9169,11
Bezimenne,47.1020,33.1157,17
Bezimenne,47.1071,37.9381,3
Bezliudivka,49.8703,36.2954,2
Bezruky,50.1760,36.1205,24
Bihun,51.3963,28.2792,1
Bila Hora,48.8494,38.5123,11
Bila Krynytsia,47.2160,33.1138,15
Bila Krynytsia,47.3519,33.1998,39
Bila Tserkva,49.8094,30.1121,6
Bilashi,50.1430,36.1344,1
Bilenke,46.0504,30.3638,5
Bilenke,48.7584,37.6155,1
Bilhorod-Dnistrovskyi,46.1844,30.3447,1
Biliaivka,47.3269,33.6915,4
Bilka,50.5291,34.9052,1
Bilmak,47.3580,36.6491,2
Bilohiria,47.5268,36.0004,46
Bilohirka,47.1988,33.1371,37
Bilohirsk,45.0557,34.6049,1
Bilohorivka,48.7329,38.2154,97
Bilohorivka,48.9259,38.2467,32
Bilohorodka,50.3901,30.2278,1
Bilokopytove,51.6677,34.0631,3
Bilokurakyne,49.5341,38.7307,1
Bilopillia,51.1483,34.3008,56
Bilousove,47.3232,33.2324,6
Bilovodsk,49.2054,39.5828,2
Bilovody,51.1757,34.9765,1
Bilozerka,46.6248,32.4425,6
Bilozirka,47.0864,32.4520,2
Bilyari,46.6227,31.0311,3
Bilyayivka,46.4832,30.2168,1
Bilyi Kolodiaz,50.2049,37.1118,2
Blahodativka,47.1774,33.0099,14
Blahodativka,49.6806,37.5415,2
Blahodatne,46.7895,32.3417,23
Blahodatne,47.0310,32.5491,14
Blahodatne,47.4730,33.3198,12
Blahodatne,47.6993,37.4194,4
Blahodatne,47.7979,36.8136,2
Blahodatne,47.9923,31.1428,5
Blahodatne,48.6919,38.0131,1
Blahodatne,49.9737,36.4552,2
Blahovischenka,47.4612,34.8221,1
Bleshnya,52.1266,32.3454,9
Blyzniuky,48.8578,36.5551,1
Bobrove,48.8055,38.6442,1
Bobrovytsia,50.7440,31.3872,1
Bobryk,50.6540,31.0782,1
Bohatyr,46.6267,35.2791,1
Bohdanivka,50.6246,30.9142,1
Bohodukhiv,50.1647,35.5277,15
Bohoiavlenka,47.8601,37.2135,20
Bohorodychne,49.0161,37.5083,104
Bohuslavka,49.4739,37.6837,1
Bohuslavske,48.6483,38.4213,1
Borivska Andriivka,49.4113,37.7301,1
Borivske,48.8709,38.5605,28
Borivske,49.6392,37.3319,1
Borodianka,50.6448,29.9201,13
Boromlia,50.6187,34.9667,4
Borova,49.3777,37.6214,7
Borovenky,49.0433,38.5647,3
Borozenske,47.1744,33.4237,1
Borshchivka,49.4997,36.9628,1
Borshchova,50.1615,36.4236,28
Boryspil,50.3527,30.9550,2
Boyarka,50.3173,30.2979,2
Boyaro-Lezhachi,51.2698,34.2100,12
Branytsia,50.8271,31.3648,1
Brazhkivka,49.0443,37.2151,32
Brody,50.0879,25.1503,1
Brovary,50.5181,30.8067,16
Brusivka,48.9096,37.7813,1
Brusky,51.4067,34.2031,1
Bruskynske,47.1567,33.2102,8
Bryanka,48.4972,38.6715,6
Brylivka,46.4203,33.1411,4
Bucha,50.5435,30.2120,45
Buchky,52.3063,33.1137,4
Budarky,50.3922,37.4179,3
Budivelne,51.6783,34.0591,1
Budky,51.2344,34.3333,3
Budo-Vorobyi,50.8548,29.4673,1
Buhaivka,49.4765,37.3951,2
Buhas,47.6365,37.5623,1
Buhruvatka,50.2521,36.8229,1
Buniakyne,51.3666,34.2293,1
Burkhanivka,46.9848,32.6314,1
Burlatske,47.5756,36.6171,9
Burlatske,47.8875,36.7440,7
Buryn,51.1991,33.8352,3
Butivka,49.7105,36.3829,1
Butovka-Donetskaya Mine,48.0675,37.7919,1
Buzova,50.4165,30.0411,7
Bylbasivka,48.8400,37.5060,1
Byshiv,50.2664,29.8869,3
Byshkin,50.6289,34.6199,1
Bytytsia,50.9999,34.9376,2
Chaika,50.4348,30.2989,2
Chaplyne,48.1267,36.2331,1
Chaplynka,46.3651,33.5403,3
Charivne,47.0189,33.2669,3
Charivne,47.5800,36.0340,35
Chasiv Yar,48.5869,37.8324,23
Chepil,49.3220,36.9165,60
Cherkaska Lozova,50.1046,36.2225,9
Cherkaske,48.8343,37.3876,6
Cherkaski Tyshky,50.1191,36.4109,44
Cherkasy,49.4285,32.0621,2
Cherniaky,50.0858,36.4526,2
Chernihiv,51.5055,31.2849,77
Chernihivka,47.1999,36.1615,4
Chernivske,51.5688,34.0511,1
Chernyakhiv,50.4565,28.6702,1
Chervona Dolyna,47.1483,32.6630,25
Chervona Krunytsia,47.6040,35.8874,1
Chervona Poliana,49.3557,37.1981,2
Chervona Polyana,49.0180,36.9351,7
Chervone,47.6565,36.3908,46
Chervone,47.8324,37.7851,2
Chervone,49.0001,37.0038,9
Chervone Pole,47.0301,37.0643,2
Chervonohrad,50.3911,24.2351,1
Chervonohryhorivka,47.6190,34.5369,29
Chervonopillia,47.9685,32.1568,1
Chervonyi Mayak,46.9494,33.5995,2
Chervonyi Partyzan,48.2627,37.9150,3
Chervonyi Yar,47.0794,33.5255,3
Chervonyi Yar,47.3112,32.9836,10
Chervonyi Yar,48.6536,39.4046,2
Chkalove,46.4787,34.1819,2
Chkalovske,49.7154,36.9344,10
Chonhar,46.0319,34.5473,1
Chornobaivka,46.6974,32.5526,47
Chornohlazivka,50.2384,36.0497,9
Chornomorka,46.6517,31.5139,1
Chornomorsk,46.3049,30.6547,1
Chornomorske,46.5854,30.9458,1
Chortkiv,49.0171,25.7980,1
Chudniv,50.0520,28.1175,3
Chuhuiv,49.8359,36.6880,93
Chulakivka,46.3601,32.3473,1
Chumakove,51.2218,33.8939,1
Chupakhivka,50.3766,34.5811,2
Chyhyryn,49.0702,32.6786,1
Chystiakove,48.0217,38.6462,2
Chystovodivka,49.4015,37.3385,1
Coast of Donetsk,46.6910,37.2820,1
Coast of Odesa,45.8900,30.5970,9
Dacha,48.4420,38.0433,1
Dachne,46.5772,30.5480,1
Dachne,47.9927,37.1800,1
Dachne,49.6559,36.4419,1
Danylivka,47.7386,35.9757,1
Dariivka,46.7477,32.8050,12
Davydiv Brid,47.2407,33.1931,27
Debaltseve,48.3373,38.4047,3
Delyatyn,48.5278,24.6284,1
Dementiivka,50.2340,36.2380,69
Demydiv,50.7277,30.3307,5
Derhachi,50.1066,36.1211,81
Dersove,47.3115,37.9978,3
Derylove,49.0677,37.7278,1
Desna,50.9251,30.7722,2
Dibrivne,48.9890,37.2492,81
Dibrova,48.9161,37.8541,16
Dmytrivka,46.6304,31.7398,4
Dmytrivka,47.5456,37.5186,1
Dmytrivka,49.0536,37.1241,29
Dmytrivka,50.3940,35.5643,2
Dmytrivka,50.4600,30.1759,4
Dmytrivka,50.6026,29.7845,1
Dmytro-Darivka,48.7673,36.9622,1
Dmytrokolyne,48.6859,36.9802,1
Dnipro,48.4593,35.0386,40
Dniprorudne,47.3899,35.0007,1
Dniprovske,46.6357,31.8734,3
Dobra Nadiya,47.5934,34.7015,4
Dobre,47.3909,32.7789,1
Dobrianka,47.4611,33.6206,22
Dobropillia,48.4615,37.0852,8
Dobropillya,47.7847,36.1898,3
Dobryanka,52.0631,31.1857,1
Dokuchaevsk,47.7492,37.6777,44
Dokuchaievske,49.8933,36.4503,3
Dolomytne,48.4160,38.1346,75
Dolya,47.8741,37.7193,7
Dolyna,48.9993,37.4301,94
Dolynska,48.1104,32.7645,1
Donets,49.5082,36.5737,3
Donetsk,48.0150,37.8014,83
Donetsk - Budonivskyi,47.9668,37.8377,12
Donetsk - Donetsk Airport,48.0712,37.7407,4
Donetsk - Kalininskyi,48.0046,37.8401,24
Donetsk - Kirovskyi,47.9680,37.5475,148
Donetsk - Kuibyshivskyi,48.0233,37.7276,156
Donetsk - Kyivskyi,47.9857,37.8625,117
Donetsk - Leninskyi,47.9617,37.7734,37
Donetsk - Petrovskyi,47.9495,37.6138,177
Donetsk - Proletarskyi,47.9573,37.9144,1
Donetsk - Voroshilovsky,48.0177,37.8063,32
Donetske,48.9343,37.6904,20
Donetske,49.1521,37.2524,5
Donetskyi,48.6963,38.6738,36
Donske,47.5159,37.5375,1
Doroshivka,52.0347,33.8504,1
Dorozhnianka,47.5886,36.2611,28
Doslidne,46.6642,32.2530,1
Dovhalivka,49.3821,37.0748,2
Dovhenke,49.0193,37.3178,62
Dovzhanka,50.1851,37.4568,1
Dovzhik,50.1980,35.9469,3
Drobysheve,49.0433,37.7341,15
Dronivka,48.9207,38.0425,15
Druzhba,48.4098,37.9104,4
Druzhba,48.6464,38.3046,1
Druzhba,52.0444,33.9402,2
Druzheliubivka,49.2630,37.8575,1
Druzhkivka,48.6165,37.5292,18
Dubno,50.4169,25.7343,2
Dubove,51.2639,24.6833,1
Dubovychi,51.6378,33.5795,1
Dudchany,47.1879,33.7807,4
Dunayivka,46.5732,35.4245,1
Duvanka,50.3053,36.0546,19
Dvorichna,49.8502,37.6826,19
Dvorichne,49.8533,37.7325,1
Dyliivka,48.4631,37.8828,6
Dymer,50.7834,30.3075,3
Dytyatki,51.1080,30.1503,1
Dzhankoy,45.7095,34.3891,4
Eastern Black Sea,43.3890,36.5190,4
Enerhodar,47.4987,34.6574,57
Esman,51.7701,34.0673,33
Fastiv,50.0767,29.9177,5
Fedorivka,46.7433,33.9103,1
Fedorivka,47.5505,36.5484,1
Fedorivka,48.2623,38.0430,2
Fedorivka,48.7672,38.0457,7
Fedorivka,50.0715,36.6927,5
Fesky,50.1423,35.9532,1
Fontanka,46.5701,30.8580,3
Fotovyzh,51.8921,34.1955,5
Frunze,45.0266,33.6250,1
Fyholivka,49.8986,37.7015,1
Genivka,47.9409,30.9165,1
Gremyach,52.3344,33.2886,25
Hai,51.6490,32.3780,9
Hai,52.3039,33.2837,3
Halahanivka,52.2474,32.7614,2
Halytsynivka,48.1011,37.4470,3
Halytsynove,46.8005,31.9513,14
Hannivka,47.5152,33.3016,1
Hannivka,47.7260,34.9411,4
Hasychivka,52.0145,31.7783,2
Hatne,50.3587,30.3956,2
Hatyshche,50.3000,36.8674,9
Havrylivka,47.2261,33.8802,1
Havrylivka,49.0131,38.6762,1
Havrylivka,50.6748,30.2072,1
Havrylivka Druha,46.1780,33.4689,1
Havrylova Sloboda,52.2624,33.8825,2
Hayvoron,50.9857,32.9238,2
Heivka,48.7714,39.1193,1
Henichesk,46.1759,34.8034,11
Heorhiivka,47.9636,37.4383,16
Hirke,47.6664,36.0999,1
Hirky,51.3680,34.3045,1
Hirnyak,48.0072,37.7148,2
Hirnyk,48.0565,37.3718,5
Hirsivka,46.6393,35.3949,1
Hirsk,52.0186,31.8535,9
Hirske,48.7346,38.4954,53
Hladosove,48.4315,38.0676,4
Hlazunivka,49.4098,36.6245,1
Hlukhiv,51.6782,33.9162,16
Hlushkivka,49.5858,37.7083,1
Hlyboke,50.2550,36.4250,11
Hnutove,47.2070,37.7501,1
Hoholiv,50.5135,31.0220,3
Hola Prystan,46.5272,32.5242,8
Holmivskyi,48.4046,38.0817,123
Holubivka,48.6356,38.6393,8
Holubivka,49.7499,37.6305,2
Holubivske,48.6920,38.6036,8
Holyshivske,51.2311,34.3029,5
Honcharivka,49.4757,38.1519,1
Honcharivske,51.2980,30.9298,1
Hoptivka,50.2828,36.2693,12
Horenychi,50.4193,30.2114,4
Horinka,50.5589,30.3159,2
Horlivka,48.3133,38.0416,182
Hornostaivka,47.0078,33.7290,3
Horobivka,49.8368,37.7329,1
Horodnia,51.8914,31.5957,10
Horodyshche,48.3232,38.6335,1
Horokhivske,46.9588,32.7047,1
Horokhovatka,49.3439,37.5247,2
Hostomel,50.5882,30.2590,28
Hostre,47.9935,37.4014,7
Hrabovske,50.6984,35.4544,7
Hrakove,49.7176,36.8166,4
Hranitne,47.4574,37.8682,2
Hraniv,50.3629,36.2239,1
Hrebelky,50.5989,31.1037,1
Hrekivka,49.2450,37.9205,2
Hrianykivka,49.8459,37.7137,1
Hrodivka,48.2629,37.3789,2
Hrushivka,47.5838,34.0153,1
Hrushivka,49.6694,37.4958,4
Hrushuvakha,49.1149,36.8969,43
Hrybivka,46.2086,30.5645,1
Hryhorivka,47.3227,36.2838,5
Hryhorivka,47.4080,37.8984,4
Hryhorivka,47.6943,35.3451,2
Hryhorivka,48.0152,34.7580,1
Hryhorivka,48.6419,37.8589,28
Hryhorivka,48.9259,38.1858,42
Hrynivka,50.9113,33.7055,1
Hryshyne,48.3290,37.0798,1
Hudove,51.5363,34.1744,6
Huliaipilske,47.6109,36.0623,49
Huliaipole,47.6639,36.2563,118
Huriiv Kozachok,50.4198,35.9662,5
Huriivka,47.1230,31.8755,2
Hurty,48.3581,38.1746,1
Husarivka,48.8818,37.1492,2
Husarivka,49.3584,36.7971,68
Husynka,49.8259,37.4274,1
Huta Mezhyhirska,50.6741,30.3028,1
Huta-Studenetska,52.0031,32.1858,7
Hvardiyske,45.0657,34.0051,1
Ichnia,50.8561,32.3910,1
Illinka,47.5938,34.6648,5
Ilovaisk,47.9245,38.1965,2
Ilyinka,48.0099,37.3052,3
Inhulka,47.1967,32.2253,9
Inzhenerne,46.7047,32.6851,1
Inzhenerne,47.4961,36.1294,1
Irmino,48.5988,38.5917,14
Irpin,50.5218,30.2506,45
Ishchenka,47.1771,33.2467,1
Iskryskivshchyna,51.2390,34.3766,6
Ivanhrad,48.5590,38.0262,4
Ivanivka,46.6534,31.6650,2
Ivanivka,46.7208,34.5530,4
Ivanivka,47.4681,33.3823,29
Ivanivka,48.2430,38.9450,1
Ivanivka,48.2616,37.4472,4
Ivanivka,48.9189,37.3497,2
Ivanivka,49.1092,37.9468,7
Ivanivka,49.2761,37.1030,2
Ivanivka,49.6354,36.9046,5
Ivanivka,50.2886,35.4401,20
Ivanivka,51.3795,31.2910,2
Ivanivske,48.5722,37.9174,5
Ivankiv,50.9387,29.8943,7
Ivano-Darivka,48.8138,38.1948,59
Ivano-Frankivsk,48.9215,24.7097,5
Ivano-Kepyne,47.0402,32.8520,1
Ivashky,50.3926,35.8246,15
Izbytske,50.2033,36.7417,1
Izium,49.2088,37.2485,100
Kakhovka,46.8137,33.4870,35
Kalenyky,48.8442,37.9165,4
Kalinovo,48.5695,38.5245,17
Kaluha,47.3635,32.9410,4
Kalynivka,47.0459,32.1804,4
Kalynivka,47.2359,32.9720,7
Kalynivka,48.3396,38.3244,3
Kalynivka,49.4539,28.5261,2
Kalynivka,50.2260,30.2283,3
Kalynivka,50.5636,30.8229,3
Kalynivka,50.7789,31.7740,1
Kalynivske,47.8584,36.4607,1
Kalynove,48.1393,37.4412,4
Kalynove,50.2586,36.0848,15
Kalynove-Borshchuvate,48.6197,38.4919,1
Kalynovo-Popasna,48.6101,38.3331,2
Kalyta,50.7476,31.0211,2
Kamiane,47.3964,33.2982,3
Kamianka,47.3617,36.6504,2
Kamianka,47.7966,37.9107,6
Kamianka,49.9785,37.8326,2
Kamianka-Buzka,50.0992,24.3466,1
Kamianka-Dniprovska,47.4640,34.4305,4
Kamianska Sloboda,52.2640,33.2890,10
Kamianske,47.5424,35.3662,50
Kamianske,48.5212,34.6114,2
Kamyana Yaruha,49.8927,36.5977,1
Kamyanka,48.1740,37.7863,48
Kamyanka,49.1249,37.3008,16
Kamyanske,47.0660,35.4962,13
Kamyanske,47.6170,34.4258,6
Kamyshevakha,48.6973,38.3851,25
Kanatove Airdrome,48.5622,32.3807,2
Kanivske,47.6844,35.1041,2
Kapitanivka,50.4398,30.2043,2
Kapitolivka,49.1911,37.3438,2
Karasivka,50.2669,36.0719,8
Kardashynka,46.5557,32.6124,1
Karierne,47.3391,33.2133,7
Karlivka,48.1117,37.4908,28
Karlivka,49.4572,35.1298,2
Karnaukhivka,49.0330,37.0407,33
Karolino-Buhaz,46.1453,30.5264,1
Karpivka,47.6673,33.1172,4
Karpivka,49.1704,37.7292,7
Karpovychi,52.2177,32.3804,4
Karpykha,49.6543,33.2194,1
Kashpero-Mykolaivka,47.3780,32.1898,2
Kashtanove,48.1206,37.8312,5
Katerynivka,47.8755,37.3454,8
Katerynivka,48.4192,37.7561,1
Katerynivka,48.5530,39.1741,1
Katerynivka,48.6691,38.4849,5
Katerynivka,48.9323,36.3162,1
Katerynivka,49.1819,37.8649,3
Katerynivka,51.2127,34.5621,7
Katerynivka,51.6509,34.0995,3
Katiuzhanka,50.8028,30.1346,1
Kavkaz,47.2887,33.0694,11
Keramik,48.2530,37.6826,6
Kerch,45.3581,36.4675,1
Kerdylivshchyna,50.6825,34.6858,1
Kermenchyk,47.7087,36.9409,2
Khanzhokove,48.0785,38.0717,2
Kharkiv,49.9808,36.2527,261
Kharkivka,51.7024,34.2442,1
Khartsyzk,48.0419,38.1409,2
Kherson,46.6558,32.6178,169
Khliborob,52.2260,33.9739,2
Khmelivka,50.7284,35.2329,2
Khmelnytskyi,49.4128,26.9980,2
Khodyne,51.5283,34.2230,5
Khomivka,49.5038,38.1504,1
Khoroshe,48.6273,38.8477,3
Khorosheve,49.8588,36.2181,1
Khotimlia,50.0214,36.8756,1
Khotin,51.0786,34.7800,26
Khotivka,51.7193,32.4974,1
Khreshchenivka,47.3838,33.8245,5
Khrestysche,48.9204,37.4908,17
Khrestyshche,49.5508,35.5164,7
Khrinivka,52.0752,31.8412,9
Khroly,49.9023,36.3672,1
Khromove,48.5973,37.9451,4
Khutir Stavky,48.2520,37.9362,4
Kindrativka,51.1409,34.7551,8
Kirdany,51.3455,28.7883,1
Kirovske,48.1503,38.3610,2
Kivsharivka,49.6300,37.6733,2
Klenove,50.1513,35.6973,2
Klischiivka,48.5279,37.9582,8
Kluhyno-Bashkyrivka,49.8406,36.7111,6
Klymentove,50.3820,34.9261,1
Klynove,48.5620,38.1601,28
Kniazivka,47.5217,33.5225,34
Kobleve,46.6650,31.2080,4
Kobzartsi,47.1439,32.7665,37
Kochetok,49.8720,36.7261,5
Kochubeivka,47.4966,33.2119,6
Kochubeivka,50.2653,36.2373,1
Kodema,48.4729,38.0857,61
Kolodiazi,49.0829,37.8810,3
Kolodiazne,50.0061,37.6852,3
Kolonshschyna,50.4519,29.9483,1
Kolos,52.3379,33.3141,2
Kolychivka,51.4122,31.3047,1
Komar,47.9776,36.7468,6
Kominternove,47.1745,37.8110,1
Komsomolets,48.3380,37.9755,8
Komsomolske,47.6683,38.0742,2
Komysh-Zorya,47.3292,36.6984,1
Komyshivka,48.1804,37.4681,1
Komyshuvakha,47.7149,35.5241,15
Komyshuvakha,47.8883,36.5908,1
Komyshuvakha,48.6416,37.4558,13
Konotop,51.2403,33.2026,7
Kopyliv,50.4085,29.8947,3
Korobochkyne,49.7783,36.8153,60
Korosten,50.9594,28.6385,12
Korotych,49.9519,36.0394,3
Koroviy Yar,49.1549,37.6295,5
Koshove,47.5557,33.4289,7
Kostiantynivka,46.9879,32.3164,6
Kostiantynivka,47.0943,31.9208,1
Kostiantynivka,47.5589,36.2887,3
Kostiantynivka,47.8659,37.4083,18
Kostiantynivka,48.5333,37.7166,55
Kostiantynivka,50.3629,36.0317,14
Kostiantynivka,51.1716,34.7686,2
Kostiantynopolske,47.9236,37.1837,1
Kostromka,47.1391,33.1510,11
Kostyrka,46.9815,33.4670,2
Kotelva,50.0686,34.7586,1
Kotliareve,46.8867,32.2220,12
Kotliary,49.9131,36.2952,1
Kotsiubynske,50.4905,30.3337,1
Kovpyta,51.3797,30.8611,1
Kozacha Lopan,50.3319,36.1936,23
Kozarovychi,50.7559,30.3514,4
Kozatske,46.7845,33.3377,4
Kozelets,50.9133,31.1214,2
Kozyatyn,49.7143,28.8339,2
Kramatorsk,48.7306,37.5816,74
Krasilivka,50.5250,30.9119,1
Krasna Hora,48.6586,38.0201,2
Krasna Polyana,47.5595,37.0728,2
Krasne,50.2819,36.4537,6
Krasne,51.2897,31.2711,1
Krasnohorivka,48.0060,37.5097,109
Krasnohorivka,48.2067,37.7244,35
Krasnohrad,49.3801,35.4419,3
Krasnohvardiiske,45.4950,34.2942,1
Krasnoperekopsk,45.9538,33.7948,1
Krasnopillia,48.9880,37.4129,71
Krasnopillia,50.7746,35.2597,34
Krasnopolivka,48.7320,38.0475,5
Krasnorichenske,49.2161,38.2038,2
Krasnosilka,46.6213,30.7722,2
Krasnyi Luch,48.1410,38.9365,3
Krasnyi Lyman,48.7266,38.9676,2
Kremenchuk,49.0680,33.4204,6
Kreminets,47.9166,37.6184,7
Kreminna,49.0495,38.2179,54
Kropyvnya,50.9232,29.4979,1
Kropyvnytskyi,48.5153,32.2545,7
Krupychpole,50.9607,32.3921,1
Kruta Balka,48.1433,37.8256,3
Kruty,51.0833,32.1500,1
Krutyi Yar,46.7719,32.4857,1
Krymki,49.1384,37.5690,2
Krymske,48.7491,38.8058,1
Krynychanka,47.0404,33.2020,1
Krynychna,48.1284,38.0283,1
Krynychne,48.5107,38.2712,3
Krynychne,48.6042,38.7168,1
Krynychne,49.4504,36.7495,1
Krynychne,50.5492,35.0561,1
Kryva Luka,48.8735,37.9053,29
Kryvyi Rih,47.9093,33.3933,52
Kucherivka,49.7182,37.6713,4
Kucherivka,51.7346,34.1884,2
Kudiivka,50.2898,36.2627,4
Kudryashivka,49.0338,38.4458,1
Kukhari,50.8182,29.5899,4
Kulazhyntsi,50.5533,31.2112,1
Kulychka,50.4949,34.4801,1
Kunie,49.3918,37.2464,1
Kupiansk,49.7106,37.6152,34
Kupiansk-Vuzlovyi,49.6604,37.6439,2
Kurakhivka,48.0307,37.3728,5
Kurakhove,47.9836,37.2823,37
Kurdiumivka,48.4684,37.9567,27
Kurulka,48.9447,37.2413,43
Kurylivka,49.6603,37.6987,3
Kushuhum,47.7165,35.2086,2
Kutsurub,46.6528,31.6178,6
Kutuzivka,50.0424,36.4702,20
Kuzemivka,49.5206,37.9822,2
Kvitneve,47.0222,32.4541,25
Kvitneve,50.5334,30.8459,1
Kyianytsia,51.0696,34.9101,3
Kyinka,51.4535,31.1932,3
Kyiv,50.4496,30.5224,43
Kyiv - Darnytskyi,50.4003,30.6807,2
Kyiv - Desnianskyi,50.5097,30.6717,1
Kyiv - Holosiivskyi,50.3273,30.5678,1
Kyiv - Obolonskyi,50.5286,30.4749,5
Kyiv - Podilskyi,50.4931,30.4406,7
Kyiv - Shevchenkivskyi,50.4646,30.4655,6
Kyiv - Solomyanskyi,50.4267,30.4538,3
Kyiv - Sviatoshynskyi,50.4696,30.3382,6
Kyrykivka,50.3364,35.1418,1
Kyrylivka,46.3685,35.3493,6
Kyrylivka,47.3224,37.6736,1
Kyseli,49.4275,36.4393,1
Kyselivka,46.7536,32.4092,18
Kyselivka,47.0029,32.4697,22
Kytsivka,49.8691,36.8197,1
Lantrativka,49.9461,38.2503,2
Lastochkyne,48.1486,37.6817,15
Lazarivka,47.4869,37.4610,1
Lazurne,46.0876,32.5267,2
Lebedivka,45.8295,30.1507,2
Lebedyn,50.5852,34.4849,3
Lebiazhe,48.1864,37.9499,1
Lebyazhe,49.8174,36.9055,23
Lemischyne,50.3299,35.7212,1
Leonidivka,48.3701,37.8010,1
Leonivka,52.2583,32.8443,2
Lepetykha,47.3233,33.0513,12
Levkivka,49.2916,37.1475,1
Levkovychi,51.4947,31.0863,1
Lezhyne,47.8071,35.3607,1
Lgiv,51.4943,31.1476,1
Lichanka,50.4075,30.0938,2
Lidyne,47.4129,37.5949,1
Lisne,47.6680,37.4896,1
Lisne,50.1079,36.2730,12
Lisne,50.4447,30.1124,1
Liubech,51.7000,30.6599,2
Liubomyrivka,46.8850,32.3740,22
Liubotyn,49.9469,35.9291,3
Liubymivka,47.1071,35.5206,1
Liubyne,47.0794,32.6721,1
Liutivka,50.3128,35.8120,3
Liutizh,50.6841,30.3950,5
Logvinovo,48.3800,38.3471,12
Lohy,52.2475,32.5683,1
Loschynivka,45.4771,28.8214,1
Loskutivka,48.8051,38.4120,8
Lotskyne,47.5268,32.7527,2
Lozova,48.8894,36.3176,31
Lozove,47.1927,33.0689,33
Lozove,48.3844,38.2312,28
Lozove,49.2090,37.5947,11
Lubny,50.0163,32.9969,1
Lubyanka,50.6541,30.1701,3
Luch,46.8292,32.2214,29
Luhansk,48.5670,39.3171,65
Luhanske,47.8917,37.6827,18
Luhanske,48.4305,38.2554,10
Luhivka,50.4462,35.4717,3
Luhivske,47.5258,36.0303,2
Lukashi,50.4584,31.4406,1
Lukashivka,51.3863,31.3933,1
Lukianivske,47.6114,35.4482,8
Lukyanivka,50.4927,31.3758,4
Luparevo,46.6935,31.9819,31
Lutsk,50.7593,25.3424,3
Lviv,49.8407,24.0305,5
Lvove,46.7918,33.1536,4
Lyman,45.6733,29.7426,1
Lyman,48.9903,37.8063,61
Lyman,49.5953,36.4655,1
Lymany,46.6956,31.4701,18
Lymany,46.7280,31.9733,17
Lynove,51.3261,34.0549,2
Lypchanivka,49.3334,37.3216,1
Lypivka,50.5095,29.8183,4
Lypivka,52.1077,31.8556,1
Lypove,48.7245,38.3043,5
Lyptsi,50.2037,36.4077,3
Lysychansk,48.9054,38.4353,117
Lytvynivka,50.7298,30.2412,1
Lyubivka,47.8240,37.7525,3
Lyubomirivka,47.1861,32.8773,14
Lyubovychi,50.7965,29.4227,1
Lyubymivka,47.3885,33.7136,9
Lyubymivka,47.9678,35.3804,1
Lyute,52.2598,33.6572,1
Mahdalynivka,47.6463,35.4560,6
Maiorsk,48.4005,37.9708,59
Maiske,48.6255,37.7775,1
Maiske,50.6619,35.3478,1
Maiske,52.0752,33.6997,2
Makariv,50.4641,29.8113,25
Makarove,50.2930,36.1510,4
Makiivka,48.0464,37.9693,124
Makiivka,49.2265,37.9863,1
Makiivka,50.6712,31.8274,1
Makovyshche,50.4548,29.8716,2
Maksyma Horkoho,46.1358,33.2862,1
Maksymilianivka,47.9749,37.3933,10
Maksymivka,47.8923,37.1067,1
Mala Danylivka,50.0635,36.1656,11
Mala Kardashynka,46.5051,32.5897,1
Mala Komyshuvakha,49.0979,37.2163,1
Mala Kostromka,47.5770,33.6367,10
Mala Oleksandrivka,47.2930,33.2795,1
Mala Rohan,49.9385,36.4912,8
Mala Seidemynukha,47.1345,33.0071,1
Mala Shestirnya,47.5544,33.5538,5
Mala Tokmachka,47.5325,35.8978,60
Mala Vovcha,50.3474,37.2667,1
Male Vesele,50.1474,36.5402,2
Mali Prokhody,50.2305,36.3402,1
Mali Scherbaky,47.5479,35.5530,49
Maliivka,49.2419,37.7208,1
Malomykhailivske,47.3208,32.9114,1
Maloryazantseve,48.8850,38.3819,3
Malotaranivka,48.6629,37.5088,2
Malyn,50.7723,29.2383,10
Malynivka,47.6723,36.4758,36
Malynivka,49.7972,36.7138,13
Malyy Vystorop,50.6322,34.8074,1
Manhush,47.0558,37.3107,6
Manukhivka,51.2523,34.1575,10
Marhanets,47.6354,34.6277,41
Marinka,47.9425,37.5050,183
Mariupol,47.1298,37.5710,143
Markhalivka,50.2717,30.3710,1
Markivka,49.5229,39.5705,1
Markove,48.6535,37.7907,1
Maryanske,47.5522,33.9152,21
Maryine,47.4720,33.3393,1
Matviivka,47.9051,35.3013,1
Mayak,48.8989,37.1374,3
Mayaky,48.9469,37.6204,24
Maydan,48.8470,37.2595,2
Maydanivka,50.9069,28.8753,1
Mazanivka,48.9933,37.3520,57
Mazhuhivka,51.3953,31.0992,1
Mechebylove,49.0637,36.6909,1
Medvedivka,52.2937,32.4603,1
Melekyne,46.9560,37.3933,1
Melitopol,46.8489,35.3653,82
Memryk,48.1227,37.3982,3
Mena,51.5217,32.2157,2
Merefa,49.8230,36.0507,6
Metalist,47.8239,38.2943,3
Metalist,48.6233,39.2823,2
Metyolkine,48.9295,38.5549,15
Mezenivka,50.6349,35.3134,7
Mezhova,48.2532,36.7347,1
Midna Ruda,48.5547,38.2074,1
Milova,49.4514,36.7083,6
Milove,49.3753,40.1322,1
Milove,50.1592,37.6581,2
Mine 6/7,48.3767,37.9636,26
Mineralne,48.0996,37.8254,64
Minkivka,48.7002,37.8513,2
Mironivka,48.4855,38.2583,4
Mishkovo-Pohorilove,46.9945,32.1100,2
Mistky,49.3400,38.5056,1
Mkhy,52.1338,32.4098,2
Mohrytsia,51.0291,35.1131,2
Mokhnach,49.7378,36.5318,1
Mokhnatyn,51.5918,31.0460,1
Mokrets,50.6865,31.1564,1
Molochansk,47.2041,35.5979,2
Molochnyi,48.3536,38.2491,8
Molodizhne,47.8259,37.7157,1
Molodizhne,48.6433,38.4768,5
Molodova,50.0375,36.7742,4
Momotove,50.0571,36.4548,2
Mordvynivka,46.7352,35.3652,2
Morokhovets,50.2727,36.4703,1
Morosivka,48.9967,37.3657,1
Morozova Dolyna,50.3080,35.7317,3
Moshchun,50.6056,30.3078,9
Moskovskyi Bobryk,50.4221,34.3497,2
Mospanove,49.6398,36.7447,52
Mospyne,47.8794,38.0714,1
Motyzhyn,50.3819,29.9262,5
Murakhivka,47.2462,33.0207,17
Muraveinia,51.9071,34.2007,1
Muravi,52.3413,33.3689,2
Musiivka,47.6115,34.4494,2
Muzykivka,46.7520,32.5566,2
Mykhailivka,47.2724,35.2224,5
Mykhailivka,48.1366,37.3760,15
Mykhailivka,49.1066,38.5696,1
Mykhailivka,50.0770,36.5252,2
Mykhailivka,50.7973,35.3186,1
Mykhailivka-Rubezhivka,50.5201,30.1440,1
Mykhailo-Kotsiubynske,51.4497,31.0781,2
Mykhailove,52.2647,32.5420,3
Mykhalchyna-Sloboda,52.3128,33.2108,14
Mykhaylivka,48.2444,37.9747,55
Mykilske,47.7509,37.2993,22
Mykilske,48.7366,36.3241,2
Mykilske,48.9205,37.4606,24
Mykilske,49.7881,37.2185,1
Mykolaiv,46.9672,32.0183,179
Mykolaiv,47.0715,32.7980,14
Mykolaivka,44.9683,33.6070,1
Mykolaivka,46.7875,33.2551,6
Mykolaivka,47.3694,37.8586,10
Mykolaivka,47.4966,33.3913,9
Mykolaivka,47.5436,30.7552,2
Mykolaivka,47.6539,37.6793,5
Mykolaivka,48.5887,39.5143,7
Mykolaivka,48.7440,38.0521,16
Mykolaivka,48.7783,38.3341,7
Mykolaivka,50.3820,37.3420,2
Mykolaivka,50.9395,34.3729,6
Mykolaivka,51.2206,32.5717,5
Mykolaivka,52.2417,32.6379,11
Mykolaivka Druha,48.4735,38.0302,23
Mykolaivske,46.9292,32.1256,2
Mykolayivka,48.4861,38.0311,14
Mykolayivka,48.8610,37.7619,11
Myla,50.4414,30.1721,4
Myliach,51.6772,26.7452,1
Mylove,47.0691,33.6292,4
Myrhorod,49.9685,33.6089,4
Myrna Dolyna,48.8081,38.4781,8
Myrna Dolyna,49.3235,37.0290,6
Myrne,46.7076,32.2486,24
Myrne,46.8117,32.3116,23
Myrne,46.9466,35.4404,4
Myrne,47.5773,36.1158,1
Myrne,49.0691,37.9275,3
Myrnohrad,48.2959,37.2704,2
Myrnyi,48.3083,38.0720,1
Myroliubivka,46.7279,32.2980,17
Myroliubivka,48.2986,37.3804,5
Myronivka,50.1926,36.0491,3
Myronivskyi,48.4621,38.2753,5
Myropillia,51.0273,35.2470,20
Myropilske,50.9415,35.3156,12
Myrove,47.7697,34.7311,8
Nadezhdivka,46.7056,32.3618,1
Nahirne,48.7412,38.2436,9
Nalyvaikivka,50.4838,29.7116,3
Narodychi,51.2029,29.0823,2
Natalivka,47.8390,35.3521,1
Nechayane,46.9442,31.5511,1
Nedryhailiv,50.8340,33.8763,1
Nelipivka,48.3515,37.8370,8
Nemishayeve,50.5655,30.0972,1
Neskuchne,47.8195,36.8092,23
Neskuchne,50.2064,36.5724,4
Nesterianka,47.4951,35.6802,5
Netaylove,48.1083,37.5507,29
Nevelske,48.0595,37.5754,47
New Korotych,49.9604,36.0082,1
New York,48.3319,37.8358,103
Nikolske,47.2053,37.3214,8
Nikopol,47.5712,34.3964,79
Nikopol,48.8821,37.1322,3
Nizhyn,51.0480,31.8869,8
Nortsivka,49.3110,37.0474,28
Nova Astrakhan,49.1147,38.5953,1
Nova Basan,50.5727,31.5179,5
Nova Buda,50.6699,28.9755,2
Nova Dmytrivka,48.9577,37.1519,35
Nova Dofinivka,46.5745,30.9059,1
Nova Husarivka,49.3910,36.8785,2
Nova Huta,52.2723,33.8472,5
Nova Kakhovka,46.7545,33.3486,73
Nova Kamianka,48.6678,38.1247,7
Nova Mayachka,46.5964,33.2235,4
Nova Mykolaivka,49.0776,36.7722,4
Nova Odesa,47.3078,31.7851,1
Nova Olenivka,47.8400,37.6927,1
Nova Poltavka,48.3645,37.4890,2
Nova Sloboda,51.3749,34.1321,8
Nova Vodolaha,49.7190,35.8658,2
Nova Zburivka,46.4549,32.4534,3
Nova Zoria,46.7427,32.0914,15
Nova Zorya,46.4433,32.0539,2
Nove,48.9176,36.2162,4
Nove,49.1615,37.8374,5
Nove,50.1874,36.2409,24
Novhorod-Siverskyi,51.9984,33.2651,11
Novhorodske,48.3321,37.8367,14
Novi Borovychi,51.9390,31.8680,1
Novi Petrivtsi,50.6230,30.4463,5
Novi Vyrky,51.2211,34.1691,4
Novoaidar,48.9672,39.0028,11
Novoandriivka,47.5621,35.6972,65
Novoazovsk,47.1176,38.0736,1
Novobakhmutivka,48.2489,37.7875,108
Novobohdanivka,47.0856,35.3253,3
Novodanylivka,47.5242,35.8235,46
Novodarivka,47.7807,36.6353,8
Novodmytrivka,47.3577,33.3515,2
Novodmytrivka,48.5458,37.7300,5
Novodniprovka,47.4112,34.7677,1
Novodonetske,47.7552,36.9596,2
Novodonetske,48.6347,36.9822,2
Novodruzhesk,48.9628,38.3521,18
Novofedorivka,45.0947,33.5721,2
Novohnativka,47.6431,37.6948,1
Novohrad-Volynskyi,50.5862,27.6336,3
Novohrednieve,47.1563,33.0006,3
Novohrodivka,48.2053,37.3388,2
Novohryhorivka,46.4132,34.9745,4
Novohryhorivka,46.8800,32.3252,21
Novohryhorivka,47.1107,31.7594,7
Novohryhorivka,47.2455,33.5972,12
Novohryhorivka,47.4999,37.8271,2
Novohryhorivka,47.8138,36.4352,1
Novohryhorivka,48.3655,38.4182,1
Novohryhorivske,47.5495,33.5054,1
Novohuivynske,50.2066,28.6921,1
Novoivanivka,47.3676,32.5892,1
Novoivanivka,47.7968,35.6438,4
Novoivanivka,48.7462,38.4668,4
Novokalynove,48.2468,37.6976,13
Novokamyanka,46.6023,33.4705,1
Novokarlivka,47.5142,36.0389,2
Novokrasnyanka,49.1390,38.2661,1
Novolativka,47.7593,33.2423,1
Novoliubivka,49.1555,37.9502,1
Novoluhanske,48.4263,38.1711,46
Novomaiorske,47.7315,37.0360,10
Novomoskovsk,48.6380,35.2455,7
Novomykhailivka,49.2001,37.8710,26
Novomykhaylivka,47.8538,37.4841,105
Novomykolaivka,46.9642,32.3602,20
Novomykolaivka,47.4394,37.3889,13
Novomykolaivka,47.7689,36.4319,7
Novomykolaivka,49.3912,36.5432,4
Novomykolaivka,49.7513,37.3458,1
Novoocheretuvate,47.8986,36.8122,3
Novookhtyrka,48.9141,38.8116,1
Novooleksandrivka,47.1666,32.4469,12
Novooleksandrivka,47.2655,33.8769,5
Novooleksandrivka,47.7513,35.3645,2
Novooleksandrivka,48.2797,37.5590,4
Novooleksiyivka,46.2247,34.6403,7
Novopavlivka,47.3706,33.1465,2
Novopavlivka,47.5999,35.7163,6
Novopavlivka,49.3341,37.2060,8
Novopavlivske,47.1352,32.9036,3
Novopetrivka,47.0588,32.6739,3
Novopetrivka,47.4300,33.4674,7
Novopil,47.8071,36.6246,71
Novopokrovka,47.5040,35.9885,1
Novopokrovka,49.8387,36.5651,2
Novopokrovske,48.2042,37.5640,1
Novoprokopivka,47.4198,35.8323,3
Novoraisk,47.0103,33.4867,1
Novorosiiske,47.2769,33.0927,1
Novoruske,46.9078,32.2585,3
Novosadove,49.1267,37.9703,2
Novoselivka,46.9993,32.3965,3
Novoselivka,47.4029,37.7328,26
Novoselivka,47.5859,36.4320,3
Novoselivka,47.9518,33.6088,2
Novoselivka,48.2683,37.8508,11
Novoselivka,49.0703,37.6943,19
Novoselivka Druha,47.3821,37.7581,7
Novoselivka Druha,48.2092,37.7926,21
Novoselivka Persha,48.1966,37.5296,8
Novosemenivka,47.5912,33.8049,7
Novoserhiivka,48.5370,36.9156,1
Novosilka,47.8355,36.6894,60
Novoslobidske,51.3617,33.9367,9
Novotavrycheske,47.8140,35.4599,2
Novotoshkivske,48.7234,38.6350,15
Novotroitske,47.7158,37.5919,4
Novotroitskoye,48.5783,37.2206,2
Novotroyitske,47.7909,35.7348,1
Novoukrainka,47.8375,37.1047,26
Novoukrainske,47.7072,36.6069,1
Novovasylivka,47.2636,33.5554,1
Novovasylivka,48.2050,37.0421,1
Novovasylivka,52.3279,33.4544,11
Novovorontsovka,47.5004,33.9175,31
Novovoskresenske,47.3360,33.5880,6
Novovoznesenske,47.4313,33.6016,16
Novoyakovlivka,47.6238,35.5083,18
Novoyavorivsk,49.9316,23.5661,1
Novozhelanne,48.1866,37.4399,1
Novozvanivka,48.5837,38.3572,3
Novyi Bilous,51.5350,31.1866,1
Novyi Buh,47.6975,32.5050,2
Novyi Bykiv,50.5952,31.6702,1
Novyi Komar,47.8835,36.8380,2
Novyi Myr,49.2202,37.8307,1
Novyy Kalyniv,49.5583,23.3024,1
Novyy Merchyk,49.9733,35.6370,1
Nykyforivka,48.7706,37.8991,3
Nyrkove,48.7379,38.3119,10
Nyzhnie,48.7719,38.6211,13
Nyzhnya Duvanka,49.5807,38.1653,4
Nyzhnye Lozove,48.3986,38.3549,10
Nyzy,50.7801,34.7795,2
Obody,51.2224,34.6275,1
Obukhiv,50.1069,30.6185,2
Ochakiv,46.6128,31.5498,43
Ocheretino,48.2436,37.6097,34
Ochkyne,52.2255,33.3724,1
Odesa,46.4639,30.7386,58
Odnorobivka,50.4155,35.8622,23
Odradivka,48.5019,38.0216,29
Ohirtseve,50.2999,36.8449,4
Okhrimivka,50.3345,37.2097,2
Okhtyrka,50.3104,34.8988,30
Oktiabr Mine,48.0533,37.7098,1
Oleksandrivka,46.6138,32.1120,44
Oleksandrivka,47.6895,31.2785,13
Oleksandrivka,47.9225,37.5710,81
Oleksandrivka,48.0781,39.7470,1
Oleksandrivka,48.8183,37.3882,1
Oleksandrivka,49.1158,37.5935,23
Oleksandrivka,49.6534,37.2055,2
Oleksandrivka,50.3699,35.8254,10
Oleksandrivka,51.9556,31.1942,1
Oleksandriya,48.6696,33.1159,1
Oleksandropil,48.2816,37.7747,27
Oleksandropillia,48.6701,38.3672,4
Oleksiievo-Druzhkivka,48.5801,37.6098,1
Oleksiivka,49.3956,36.2839,2
Oleksiivka,51.1369,34.8668,2
Olenivka,46.9357,32.3035,8
Olenivka,47.8297,37.6473,65
Olenovka,48.2650,38.2586,26
Oleshky,46.6184,32.7189,19
Olhivske,47.7356,36.5330,51
Olhyne,47.4746,33.4890,43
Olhynka,47.6976,37.5003,5
Olshanske,47.1849,31.7937,1
Olyshivka,51.2175,31.3294,1
Olyva,50.8814,29.5479,1
Omelnyk,47.6418,35.8773,2
Opytne,48.0961,37.7214,64
Opytne,48.5517,38.0205,7
Orestopil,47.9576,36.4555,1
Orikhiv,47.5673,35.7858,110
Orikhove,48.7191,38.5695,21
Orikhove-Donetske,48.7707,38.7968,1
Orlianske,47.3349,35.1019,3
Orlivka,48.1635,37.6450,19
Oskil,49.1745,37.4272,8
Oskolonivka,48.8525,38.6591,3
Osokorivka,47.4473,33.9232,62
Oster,50.9503,30.8784,1
Ostrivske,48.0022,37.3463,1
Osykove,50.3280,29.9794,1
Osynivka,51.0692,32.6808,1
Osynovo,49.6391,37.6137,2
Osypenko,46.9164,36.8199,2
Otradne,47.9695,36.8556,1
Ovruch,51.3246,28.8035,3
Ozarianivka,48.4503,37.9548,1
Ozerne,48.8974,37.9121,25
Ozerne,50.1800,28.7355,1
Ozershchyna,50.5808,29.7546,2
Ozeryanivka,48.2737,37.9725,68
Panteleimonivka,48.2071,37.9729,127
Paraskoviivka,47.8691,37.4424,20
Partyzanske,47.0713,32.5333,36
Parutyne,46.7046,31.8978,7
Parysheve,46.7121,32.2682,1
Pashkove,48.9191,37.2336,4
Pasika,49.0726,37.4633,8
Pavlivka,47.6013,35.5128,6
Pavlivka,47.7579,37.2176,73
Pavlivka,47.7877,36.4092,19
Pavlivka,51.2231,34.5161,13
Pavlivka,51.6406,30.8981,1
Pavlo-Marianivka,47.0993,32.8856,1
Pavlohrad,48.5343,35.8710,10
Pavlohrad,48.9213,38.4463,3
Pavlopil,47.2656,37.7787,3
Pechenihy,49.8717,36.9347,40
Perebudova,47.9848,36.7391,1
Pereizne,48.7717,38.0635,18
Peremoha,50.1101,36.6624,43
Peremoha,50.4983,31.2506,3
Peremoha,51.5519,33.9462,2
Peresypky,51.2381,33.9250,1
Perevalsk,48.4378,38.8438,4
Pershe Travnia,48.1016,34.9439,3
Pervomaisk,48.6295,38.5490,72
Pervomaiske,48.1052,34.0988,2
Pervomaiskyi,48.0637,37.8745,3
Pervomaiskyi,49.3874,36.2147,3
Pervomaysk,48.0443,30.8507,7
Pervomayske,47.0427,32.4400,27
Pervomayske,48.0971,37.5920,70
Pervomayske,49.4085,36.7457,1
Petrivka,46.8271,32.6328,6
Petrivka,48.3864,37.7858,2
Petrivka,50.1125,36.5271,63
Petrivske,47.6603,37.1643,4
Petrivske,49.1753,36.8947,7
Petrivske,49.3314,39.1464,2
Petropavlivka,47.2935,33.5678,1
Petropavlivka,49.7162,37.7171,5
Petropavlivska Borschahivka,50.4371,30.3459,1
Petrovskoye,47.6305,37.8428,3
Petrushky,50.4211,30.1658,2
Piatyhirske,49.4480,36.6144,2
Pidhorodne,48.6346,38.0303,4
Pidlisne,48.8050,38.4487,1
Pidlyman,49.3369,37.6046,1
Pischane,50.9529,34.0700,1
Pishchane,50.0402,36.6758,4
Pishchane,50.4297,37.3628,4
Piskivka,50.6969,29.5930,2
Pisky,47.1357,31.8525,1
Pisky,48.0669,37.6664,72
Pisky,51.2214,34.0768,1
Pisky,51.4691,31.4419,2
Pisky-Radkivski,49.2671,37.6079,3
Pisochyn,49.9622,36.1243,6
Pivdenne,48.3564,37.9269,8
Pivnichne,48.3982,37.9175,11
Platonivka,48.8970,38.0148,5
Ploske,50.0423,37.3501,1
Ploske,50.5423,31.0939,1
Plotnytske,47.1564,33.6130,1
Pobieda,47.9163,37.4631,11
Podilsk,47.7531,29.5321,2
Podolivka,48.9340,36.9095,3
Podoly,49.6835,37.6761,2
Pohozha Krynytsya,50.7047,33.6746,1
Pokotylivka,49.9166,36.1803,2
Pokrovka,50.8019,35.3820,5
Pokrovsk,48.2810,37.1814,13
Pokrovske,47.5429,34.1551,2
Pokrovske,47.9785,36.2256,13
Pokrovske,48.6284,38.1311,73
Pokrovske,49.5330,36.7109,1
Polihon,46.9778,32.1290,1
Poliske,51.2408,29.3889,4
Polissia,51.9691,31.7271,1
Polohy,47.4844,36.2536,27
Poltava,49.5937,34.5407,4
Poltavka,47.7171,36.4891,59
Polyana,47.1667,32.6833,8
Popasna,48.6333,38.3780,88
Popilnya,49.9647,29.4481,1
Popivka,49.3658,35.5373,1
Popivka,50.4966,35.4525,3
Porokhon,52.1226,34.0737,1
Porozok,50.5620,35.3730,3
Port of Olviya,46.8322,31.9539,1
Posad Pokrovske,46.8030,32.2680,45
Potyomkyne,47.4859,33.5747,41
Pravdyne,46.7379,32.2037,19
Prechystivka,47.7788,37.0753,55
Prelesne,50.0242,36.4496,1
Preobrazhenka,46.3970,33.4780,3
Preobrazhenka,47.5763,35.8019,26
Preobrazhenne,49.5291,38.1787,1
Pripyat,51.4050,30.0656,4
Priyutne,47.7271,36.6736,2
Prohres,51.5454,33.5452,2
Prohres,52.1634,34.0349,1
Prokhody,50.9208,35.3411,2
Protopopivka,49.2429,36.9142,29
Prudyanka,50.2361,36.1684,70
Prybuzhany,47.5309,31.3298,1
Prybuzke,46.7399,31.8823,5
Prybuzke,46.7776,32.0931,32
Prydniprovske,46.6778,32.7892,2
Prydniprovske,47.6187,34.4545,2
Pryhiria,47.5241,33.1970,1
Prykolotne,50.1599,37.3501,2
Pryluky,50.5932,32.3876,7
Prymiske,47.1211,37.4517,1
Prymorsk,46.7348,36.3443,3
Prymorske,47.6281,35.2867,6
Prymorskyi Posad,46.6157,35.7322,1
Pryshyb,47.2242,32.8279,2
Pryshyb,48.7349,38.9336,1
Pryshyb,49.0243,37.6458,28
Pryshyb,49.5117,36.7532,27
Prystin,49.5944,37.6373,3
Pryvar,51.3302,29.1673,1
Pryvillia,48.9998,38.3016,14
Pryvillya,48.8658,37.2547,4
Pryvillya,49.8488,38.5200,6
Pryvilne,47.4928,32.2974,1
Pryvitne,48.0047,35.1138,1
Ptyche,48.1655,37.4517,1
Purdivka,48.9791,38.5743,1
Pushkari,51.6930,30.9431,2
Pushkari,52.1995,33.2927,2
Pushkarne,49.7911,36.8767,3
Pustoviitivka,50.7804,33.5760,2
Putyvl,51.3375,33.8707,4
Pyatnytske,49.9246,36.8035,1
Pyatykhatky,47.1870,33.4913,1
Pyatykhatky,48.4110,33.7040,1
Pylypchatyne,48.6080,38.2465,4
Pyrizhky,50.8290,29.2202,1
Pysarivka,51.0810,34.8228,2
Pyshchevyk,47.2420,37.7925,1
Pyskunivka,48.8866,37.8351,19
Pytomnyk,50.1677,36.2611,63
Radekhiv,50.2825,24.6428,1
Radensk,46.5580,32.9270,1
Radisnyy Sad,46.9009,31.9884,3
Radkivka,51.0136,34.8287,1
Radushne,47.8227,33.5015,2
Rai-Oleksandrivka,48.7914,38.4130,2
Rai-Oleksandrivka,48.8107,37.8575,1
Raihorodka,48.8236,39.0703,3
Raihorodok,48.8982,37.7275,46
Raiske,48.5698,37.4664,1
Raivka,48.3525,35.4563,1
Rakivka,46.9347,33.2517,1
Rakivka,50.6549,30.2558,1
Rakivshchyna,51.2597,28.8938,1
Rayske,46.7208,33.2978,2
Riasne,50.6896,35.3945,4
Richky,51.1197,34.4947,1
Richne,47.6741,35.3199,1
Ridkodub,49.1867,37.7970,8
Ridkodub,49.9223,37.6062,1
Ridne,48.9835,37.0720,22
Ripky,51.8010,31.0838,2
Rivne,50.6231,26.2274,2
Rivnopil,47.7868,36.7004,3
Rivnopillia,47.7431,36.3185,6
Rivnopillya,47.4409,33.1814,2
Riznia,50.8168,29.3397,2
Riznykivka,48.8383,37.9730,3
Robotyne,47.4478,35.8370,1
Rodakovo,48.5589,39.0253,1
Rodynske,48.3562,37.2124,1
Rohan,49.9031,36.4794,9
Romanivka,47.8994,37.2878,2
Romanivka,50.4887,30.2595,3
Romashkove,52.1505,33.9566,1
Romny,50.7510,33.4747,2
Roty,48.5178,38.2320,8
Rovenky,48.0820,39.3712,4
Rozdilna,46.8518,30.0795,1
Rozdolivka,48.7545,38.0814,51
Rozdolne,46.6902,33.5485,1
Rozdolne,47.6195,38.0130,3
Rozdolne,47.9068,36.9178,3
Rozhkovychi,52.1051,34.0808,4
Rozivka,47.3848,37.0679,4
Rozivka,48.6213,38.3072,1
Rozumivka,47.7530,35.1393,1
Rtyshchivka,49.7219,36.7794,14
Rubizhne,49.0123,38.3797,94
Rubizhne,50.1653,36.8253,36
Rubtsi,49.1772,37.5666,6
Rudneve,49.2860,36.9994,2
Rudnytske,50.4724,31.3605,2
Rumyantsevo,48.3429,38.0680,7
Rusaniv,50.4964,31.1644,3
Ruska Lozova,50.1416,36.2899,63
Ruski Tyshky,50.1347,36.4188,78
Ryasne,50.2722,35.7961,1
Rykove,46.3358,34.7508,2
Ryzhivka,51.2527,34.2490,6
Sad,50.8814,34.7114,1
Sadove,46.7048,32.8225,2
Sahy,46.6005,32.7864,1
Sakhanka,47.1272,37.8601,1
Samiilvka,47.8864,36.0138,1
Samiylivka,47.5847,36.6954,1
Sanzharivka,48.4378,38.4264,3
Sanzhiika,46.2351,30.6082,2
Sarny,51.3380,26.6019,5
Sartana,47.1702,37.6952,4
Savyntsi,49.4051,37.0552,3
Schastia,48.7412,39.2354,4
Scherbynivka,48.3943,37.7901,4
Schurivka,49.3997,36.9300,1
Sedniv,51.6421,31.5625,1
Selektsiyne,49.7808,36.0272,1
Selets,50.6009,28.7636,1
Selydove,48.1478,37.2977,5
Semenivka,46.8928,35.4105,1
Semenivka,47.2747,32.8333,1
Semenivka,48.1784,37.6297,3
Semenivka,48.6680,37.6496,1
Semenivka,49.6540,37.0363,1
Semenivka,52.1783,32.5818,13
Semyhiria,48.4661,38.1595,27
Semykhatka,46.1723,34.7320,2
Semylanne,49.0118,36.9777,3
Senkivka,52.0890,31.7781,36
Senkove,49.5270,37.6838,5
Sentianivka,48.6686,38.7544,5
Serebrianka,48.9211,38.1276,58
Serednie,49.1244,37.7059,2
Seredyna-Buda,52.1890,34.0364,45
Serhiivka,46.0266,30.3702,1
Sevastopol,44.6121,33.5244,6
Severodonetsk,48.9467,38.4914,130
Shakhta Glubokaya,47.9986,37.9411,2
Shakhta Trudovskaya,47.9512,37.5492,34
Shakhta imeni Gagarina,48.3435,37.9420,84
Shakhta imeni Izotova,48.3711,37.9930,36
Shakhta imeni Lenina,48.3238,38.0069,17
Shakhtarsk,48.0566,38.4383,3
Shakhtarske,47.8601,37.0037,5
Shalyhyne,51.5717,34.1217,37
Shandryholovo,49.0908,37.7211,13
Shapovalivka,50.2442,36.1452,3
Shchaslyve,46.5438,33.2772,2
Shchaslyvtseve,46.0325,34.8342,1
Shcherbaky,47.5514,35.5816,36
Shchurove,48.9616,37.7163,11
Shebelynka,49.4581,36.5186,1
Shedrysheve,48.9817,38.4923,6
Shehyni,49.8037,22.9852,1
Shepetivka,50.1855,27.0637,6
Shestakove,50.0698,36.6244,19
Shestirnia,47.5485,33.2858,3
Shestovytsia,51.3861,31.1934,7
Shevchenka,47.4115,35.1870,4
Shevchenkivske,47.9302,36.0668,1
Shevchenko,47.2530,37.4527,1
Shevchenko,47.3870,37.9356,2
Shevchenko,47.7273,37.1504,27
Shevchenko,48.2200,37.1453,17
Shevchenkove,46.8629,32.1908,48
Shevchenkove,47.2873,35.6308,1
Shevchenkove,49.6959,37.1735,8
Shevchenkove,50.4125,30.2575,2
Shevchenkove,51.6790,33.6730,4
Shevelivka,49.3462,36.7479,17
Shmidtove,46.8746,32.4625,1
Shnurky,48.9059,37.3091,5
Shostka,51.8630,33.4698,11
Shpakivka,49.1411,37.2071,1
Shpylivka,50.7948,34.6892,2
Shpytky,50.4145,30.1195,3
Shtepivka,50.7961,34.3416,1
Shumy,48.3802,37.9339,29
Shybene,50.7274,30.0234,1
Shypilivka,48.9694,38.2717,5
Shypuvate,49.9381,37.4089,1
Shyroka Balka,46.5881,32.1952,3
Shyroka Balka,48.3034,37.9305,57
Shyroke,47.0991,32.6738,65
Shyroke,47.6917,33.2571,16
Shyroke,47.9101,34.9016,1
Sieverne,48.1277,37.6687,2
Simferopol,44.9502,34.1017,3
Sitnyaki,50.4144,29.6994,1
Siversk,48.8726,38.0960,112
Skadovsk,46.1161,32.9112,12
Skarhovka,49.2061,38.4915,1
Skovorodynivka,50.1583,35.7715,1
Skrypai,49.7265,36.6027,1
Skrypali,50.7433,33.6345,1
Skybyn,50.5810,30.8314,3
Slatyne,50.2138,36.1653,62
Slavhorod,50.5889,35.3551,9
Slavne,47.8350,37.5668,4
Slavutych,51.5196,30.7343,5
Slobidske,50.0193,36.4467,2
Sloboda,51.3366,31.3720,1
Sloboda-Kukharska,50.8454,29.5458,1
Slobozhanske,49.3702,36.5795,16
Slobozhanske,49.5973,36.5281,1
Slovyanoserbsk,48.6978,38.9813,1
Slovyansk,48.8533,37.6065,100
Smolianinove,48.9404,38.7170,2
Smolyne,51.8695,34.1413,1
Snihurivka,47.0702,32.7914,24
Snizhne,48.0299,38.7662,3
Snovsk,51.8186,31.9450,6
Sobycheve,51.8163,33.6948,1
Sofiivka,47.4420,33.2779,1
Sofiivka,48.0295,35.9506,1
Sofiyivska Borshchahivka,50.4149,30.3576,1
Sokil,48.2323,37.5523,2
Sokolivka,49.3847,36.6548,1
Soldatske,46.7609,32.2478,3
Soldatske,50.4411,35.2090,2
Soledar,48.6969,38.0611,125
Solodke,47.7894,37.4909,12
Solodkovodne,47.5664,36.7674,1
Solonchaky,46.6449,31.8181,2
Solone,48.2081,34.8721,1
Solotvyno,47.9468,23.8747,1
Solovyove,48.2247,37.5975,3
Sontsivka,48.0522,37.1884,2
Sopych,51.8486,34.3641,6
Sorokivka,50.0037,36.5422,2
Sosnivka,50.3545,36.1062,41
Sosnivka,51.1521,33.1079,1
Sosnivka,51.6278,34.0569,1
Sosnivka,51.7787,32.1141,1
Sosnove,49.0726,37.5509,7
Sosnytsya,51.5250,32.5019,1
Sotnytskyi Kozachok,50.4307,35.9227,2
Spartak,48.0790,37.7635,12
Spaske,47.0171,35.3845,1
Spirne,48.8082,38.2588,99
Spivakivka,49.1819,37.0624,1
Sribne,48.1055,37.0142,2
Sribne,50.6638,32.9187,1
Stakhanov,48.5682,38.6435,45
Stanislav,46.5790,32.1496,7
Stanyshivka,50.2176,28.7235,1
Stanytsia Luhanska,48.6543,39.4794,1
Stara Hnylytsia,49.7368,36.6874,14
Stara Huta,52.3100,33.7949,1
Stara Mykolaivka,48.3288,37.6786,4
Stara Zburivka,46.4706,32.4193,3
Stari Vyrky,51.2224,34.2207,8
Starobilsk,49.2783,38.9107,9
Starodubivka,47.1042,37.0396,6
Starodubivka,48.8902,37.7949,13
Starohnativka,47.5418,37.7809,1
Starokostiantyniv,49.7576,27.2034,3
Staromlynivka,47.6975,36.8247,6
Staromykhaylivka,47.9914,37.5860,66
Starosillia,47.3807,33.3806,3
Starosillia,52.0098,31.6260,1
Staroukrainka,47.6691,36.1458,6
Starovirivka,49.6888,37.4277,1
Staryi Bykiv,50.5906,31.6382,2
Staryi Karavan,48.9218,37.7816,17
Staryi Krym,47.1614,37.4869,3
Staryi Saltiv,50.0761,36.7936,62
Starykove,51.6209,34.1471,15
Starytsia,50.2405,36.7931,2
Stavky,49.0484,37.8349,1
Stavyshche,49.3912,30.1902,1
Stavyshe,50.4046,29.5231,1
Stepanivka,46.6935,32.5806,3
Stepanky,49.9718,36.5086,1
Stepano-Krynka,47.9186,38.3434,1
Stepne,47.7949,37.5521,12
Stepne,47.7980,35.3078,2
Stepne,52.0911,33.7439,1
Stepnohirsk,47.5867,35.3560,33
Stepova Dolyna,46.7785,32.1822,52
Stepove,47.1048,32.3815,1
Stepove,47.1681,32.5658,1
Stepove,47.7117,36.5954,15
Stepove,47.8871,36.4540,4
Stepove,48.1952,37.6776,6
Stetskivka,51.0099,34.7769,1
Stohnii,50.3697,35.9428,1
Storozheve,47.8001,36.7980,1
Stoyanka,50.4540,30.2261,4
Strilecha,50.3014,36.3994,22
Stryapivka,48.6707,38.1502,5
Stryi,49.2622,23.8561,1
Studenok,49.0889,37.4900,7
Studenok,51.6924,34.1259,5
Stukalivka,51.2093,34.2886,7
Suhodil,51.7859,34.2533,2
Sukha Balka,48.3225,37.7604,16
Sukha Kamyanka,49.0893,37.3466,5
Sukholuchchia,50.9429,30.4387,1
Sukhyi Stavok,47.1557,33.1031,28
Sulyhivka,49.0266,37.2432,24
Sumy,50.9216,34.8003,46
Svarkove,51.6142,34.0307,2
Svatove,49.4103,38.1504,17
Svitilnya,50.5638,31.1514,1
Svitle,48.3088,37.2340,1
Svitle,48.4036,37.1177,2
Svitlichne,48.2822,39.5661,2
Svitlodarsk,48.4380,38.2235,43
Svitlychne,50.3251,36.0542,28
Svobodne,47.5313,37.5637,2
Svyatohirsk,49.0333,37.5666,30
Sydorove,48.9853,37.6022,18
Syhnalne,47.8456,37.6438,7
Synelnykove,48.3204,35.5179,24
Synetskyi,48.9480,38.4113,3
Synychene,49.1066,37.3764,1
Syrotyne,48.9144,38.5115,12
Taborivka,47.6038,31.3679,1
Tairove,46.3676,30.6522,2
Talakivka,47.1924,37.7252,1
Talalayivka,50.8391,33.1437,1
Taramchuk,47.8051,37.5769,1
Tarasivka,50.6222,31.0061,1
Tarasivshchyna,50.7111,30.2094,1
Tavilzhanka,49.8393,37.7755,3
Tavriiske,46.7245,32.1024,15
Tavriiske,46.9850,33.0919,6
Tavriysk,46.7550,33.4251,2
Tavriyske,46.3732,32.5624,28
Tavriyske,46.6919,35.6093,4
Tavriyske,47.6518,35.6959,6
Tekstylnyk,47.9442,37.6928,1
Temyrivka,47.8235,36.5722,28
Teplychne,48.5842,39.2249,2
Terekhivka,51.5948,31.4072,1
Ternivka,47.1980,33.0078,13
Ternopil,49.5559,25.6056,2
Ternova,50.1852,36.6755,18
Ternove,48.4535,39.4109,1
Ternovi Pody,46.8593,32.3848,25
Ternuvate,47.8299,36.1270,6
Terny,49.0969,37.9631,5
Terny,49.8864,38.0268,2
Terpinnia,46.9754,35.4206,1
Tetyanivka,47.3807,32.7786,1
Tetyanivka,49.0363,37.5910,36
Tokareve,47.3010,33.1657,12
Tokarivka,46.7504,32.9513,1
Tokmak,47.2552,35.7124,19
Tolokun,50.8892,30.4368,1
Tomyna Balka,46.6244,32.3078,3
Tonenke,48.1386,37.6431,24
Topolivka,48.8611,38.3270,1
Topolske,49.1311,37.2345,3
Topolyne,47.5339,33.5560,17
Toretsk,48.3934,37.8453,69
Torske,49.0173,37.9613,10
Toshkivka,48.7806,38.5768,41
Tovstodubove,51.8469,34.2477,11
Travneve,48.4254,38.1016,30
Travneve,49.4521,38.2872,1
Trebukhiv,50.4843,30.9030,2
Troitske,48.2626,37.8579,17
Troitske,48.5337,38.4000,8
Trostianets,50.4848,34.9657,17
Trudoliubivka,46.9207,32.6098,16
Trudolyubivka,47.4467,33.6970,30
Trudove,47.3157,36.5873,1
Trudove,47.8990,37.2175,4
Tryfonivka,47.2533,33.5138,1
Trykhaty,47.1436,31.8210,1
Tryokhizbenka,48.7568,38.9631,1
Trypillia,48.6736,38.2691,3
Trypillia,50.1180,30.7814,1
Tsapivka,50.2679,35.8613,2
Tsupivka,50.2700,36.1727,17
Tsvitokha,50.2489,26.9438,1
Tsyrkuny,50.0824,36.3857,59
Turia,50.8952,35.3546,5
Turove,50.3099,36.1498,2
Tuzly,45.8650,30.0977,3
Tverdomedove,47.3520,33.2852,2
Tykhonivka,48.7186,37.7837,1
Tykhotske,49.0811,37.3611,3
Tymofiivka,50.3579,35.7861,4
Udachne,48.2405,36.9911,2
Udy,50.3846,36.0606,70
Uhroyidy,50.8629,35.2782,1
Ukrainka,46.7369,31.1843,7
Ukrainka,46.8245,32.1416,10
Ukrainka,47.3251,33.7816,1
Ukrainka,47.8758,33.9833,1
Ukrainka,50.1158,36.7105,11
Ukrainka,50.1532,30.7425,3
Ukrainske,47.2859,37.9307,1
Ukrainske,52.2867,33.5069,1
Ulakly,47.9974,37.0851,1
Ulanove,51.7554,34.3011,6
Ulytsia,52.3076,33.6189,1
Uman,48.7484,30.2218,6
Umanske,48.1544,37.5653,7
Ushomyr,50.8597,28.4657,1
Uspenivka,47.7830,36.3958,11
Uspenivka,47.9170,37.2297,3
Ustynivka,48.8217,38.5654,25
Uzhivka,47.1446,37.8563,2
Valentynivka,48.3119,37.7617,2
Valeryanivka,47.6390,37.3796,2
Valuiky,49.0887,38.8090,1
Vapnyarka,46.5755,30.8852,2
Varvarivka,47.7357,36.1946,4
Varvarivka,49.0727,38.4052,3
Varvarivka,50.1892,36.7227,4
Vasylenkove,49.7789,37.0419,2
Vasylivka,47.4369,35.2742,25
Vasylivka,47.5773,37.6785,7
Vasylivka,48.1716,37.8597,15
Vasylivka,48.7262,38.2577,11
Vasylivka Persha,48.8772,37.1664,1
Vasylivske,52.2820,33.4896,1
Vasylkiv,50.1869,30.3135,12
Vasyshcheve,49.8361,36.3308,1
Vasyukivka,48.7400,37.9954,6
Vavylove,46.9245,32.4703,1
Velikiy Sambir,51.0572,33.1361,1
Velyka Babka,49.9816,36.7463,8
Velyka Bilozerka,47.2776,34.7062,1
Velyka Doroha,50.8736,32.0028,1
Velyka Dymerka,50.5927,30.9102,5
Velyka Komyshuvakha,49.1142,36.9899,58
Velyka Kostromka,47.5336,33.7212,47
Velyka Novosilka,47.8453,36.8353,86
Velyka Oleksandrivka,47.3197,33.3037,8
Velyka Pysarivka,50.4243,35.4799,39
Velyka Rybytsia,51.0086,35.1765,1
Velyka Znamyanka,47.4454,34.3508,1
Velyke Artakove,47.2211,33.0632,33
Velyki Khutory,49.8171,37.1899,1
Velyki Korovyntsi,49.9808,28.2881,1
Velyki Prokhody,50.2001,36.3362,31
Velykodolynske,46.3466,30.5759,3
Velykomykhailivka,47.9751,36.4561,14
Velykyi Burluk,50.0617,37.3837,4
Velykyi Dalnyk,46.4749,30.5610,1
Velykyi Prykil,50.9291,35.2543,2
Verbivka,49.4870,36.8300,3
Verbove,48.0644,35.3190,1
Veremiivka,47.4039,33.5671,2
Verhnya Rohanka,50.0242,36.5542,4
Verhnya Syrovatka,50.8309,34.9412,1
Verkhni Sirohozy,46.9107,34.4086,1
Verkhnia Krynytsia,47.4900,35.2802,3
Verkhnia Tersa,47.6957,36.0827,4
Verkhniy Rohachyk,47.2505,34.3380,1
Verkhniy Saltiv,50.1304,36.8037,48
Verkhniy Tokmak,47.1816,36.3630,1
Verkhnokamianske,48.8590,38.1962,90
Verkhnya Pozhnya,50.5621,35.3529,2
Verkhnyokamianka,48.8548,38.2707,16
Verkhnyoshyrokivske,47.2352,37.8638,1
Verkhnyotoretske,48.2138,37.8797,46
Vershyna,48.5188,38.1194,49
Vesela Dolyna,48.5502,38.0658,69
Vesele,46.7923,33.3516,3
Vesele,47.1718,37.9014,2
Vesele,47.6918,36.3959,5
Vesele,48.0612,37.7121,11
Vesele,48.1873,37.7555,22
Vesele,48.7455,38.1514,45
Vesele,48.9061,37.1043,6
Vesele,50.1664,36.5318,5
Veselogorovka,48.4733,38.4570,2
Veselyanka,47.6832,35.3676,5
Veselyi Kut,47.5981,32.8816,11
Vesniane,46.9795,31.8832,2
Veterynarne,50.3907,36.1953,7
Vidrodzhenivske,50.3322,35.7547,1
Vidrodzhennya,48.5254,38.2204,8
Viktorivka,47.6354,37.8086,1
Viktorivka,51.2971,31.4058,1
Vilkhivka,49.9871,36.5105,4
Vilkhuvatka,50.1842,37.5156,4
Vilna Sloboda,51.8139,34.2283,2
Vilne,50.4302,35.4021,1
Vilne Pole,47.8766,36.6843,14
Vilniansk,47.9438,35.4354,1
Vilnoandriivka,47.9669,35.1422,2
Vilshanka,50.9802,34.9875,1
Vinnytsia,49.2296,28.4659,5
Virnopillia,49.0319,37.1253,63
Vitrivka,49.3220,36.9752,1
Vladyslavivka,45.1649,35.3772,1
Vodolahy,51.1787,34.9206,1
Vodyane,47.1478,37.7881,13
Vodyane,48.0960,37.6666,55
Volfyne,51.2430,34.4629,11
Volnovakha,47.6010,37.4967,30
Volobuivka,49.3323,36.8690,4
Volodymyr-Volynskyi,50.8525,24.3236,1
Volodymyrivka,47.7260,37.4014,60
Volodymyrivka,51.1678,34.8792,3
Volodymyrivske,48.1709,35.5081,1
Volokhiv Yar,49.5965,36.9846,4
Volokhivka,50.3084,37.1392,1
Volovets,48.7109,23.1851,1
Voronizh,51.7757,33.4594,1
Voronove,48.8989,38.5698,10
Voronovytsia,49.1029,28.6894,1
Vorozhba,51.1733,34.2192,3
Vorzel,50.5444,30.1530,8
Voskresenske,47.0133,32.1454,3
Vovchansk,50.2908,36.9411,24
Vovchoyarivka,48.8358,38.3648,11
Vovchyi Yar,49.2021,37.6650,1
Vovkivka,51.5200,34.2598,8
Voyevodivka,48.9800,38.4444,9
Vozdvyzhenka,48.4977,38.2900,4
Vozdvyzhivka,47.7472,36.0797,1
Voznesenka,46.8697,35.4620,1
Voznesensk,47.5850,31.3321,16
Voznesenske,49.7557,32.1571,1
Vremivka,47.8340,36.8146,82
Vrubivka,48.7383,38.3866,28
Vuhledar,47.7789,37.2481,116
Vuhlehirsk,48.3119,38.2609,7
Vyimka,48.8043,38.1474,50
Vynohradne,46.4825,32.1686,1
Vyshchetarasivka,47.5673,34.8807,6
Vyshenky,50.3043,30.7147,2
Vyshevychi,50.6276,29.3993,1
Vyshhorod,50.5848,30.4898,13
Vyshneve,50.3891,30.3705,3
Vyskryva,48.5920,38.3012,2
Vysoka Yaruha,50.2733,36.3185,3
Vysoke,49.8373,38.2518,1
Vysokopillia,47.4919,33.5306,33
Vysunsk,47.2611,32.8232,9
Vysuntsi,46.7254,32.5832,1
Yablukove,47.7279,36.3257,3
Yablunivka,48.4234,37.6602,2
Yablunivka,50.8937,29.3402,1
Yahidne,48.6302,37.9821,2
Yahidne,51.3456,31.2764,3
Yakovenkove,49.5262,36.9072,1
Yakovlivka,47.1655,32.9320,3
Yakovlivka,48.0902,37.8253,33
Yakovlivka,48.7065,38.1486,90
Yakovlivka,49.8271,36.1387,3
Yakymivka,46.6997,35.1592,1
Yampil,48.9322,37.9425,21
Yampil,51.9477,33.7876,1
Yampolivka,49.0708,37.9546,2
Yanvarske,47.9442,36.5876,3
Yanzhulivka,52.2935,32.5600,7
Yaremivka,49.0853,37.4540,3
Yarmolyntsi,49.1924,26.8373,1
Yarova,49.0596,37.6402,17
Yaselka,46.6439,31.6956,1
Yasna Polyana,47.8800,37.0303,2
Yasna Polyana,52.3168,33.1485,1
Yasne,47.7741,37.6340,9
Yasnobrodivka,48.1371,37.5452,1
Yasnohirka,48.7784,37.5545,1
Yasnohorodka,50.3532,30.0114,6
Yastrubyne,51.1430,34.6287,7
Yasunivka,48.1341,37.9476,2
Yasynuvata,48.1298,37.8594,169
Yatskivka,49.1716,37.5477,8
Yavirske,49.5518,36.7527,9
Yavkine,47.2719,32.6125,5
Yavoriv,49.9386,23.3825,1
Yavoriv Combat Training Center,49.9243,23.3852,2
Yehorivka,47.6257,35.9381,7
Yehorivka,47.7068,37.2249,6
Yelyzavetivka,47.8858,37.3024,4
Yelyzavetivka,48.3035,37.4493,6
Yenakijeve,48.2362,38.2073,3
Yevhenivka,47.0863,32.9020,1
Yevhenivka,47.6705,37.0852,2
Yizdetske,50.4807,35.4026,1
Yulivka,47.7035,35.4388,4
Yunakivka,51.1213,35.0342,20
Yunakivka Border Crossing,51.1689,35.1293,2
Yurieve,51.2903,34.0940,1
Yurivka,48.3140,37.8322,22
Yurivka,48.7384,36.0177,1
Yurivka,50.1308,37.3997,1
Yurivka,50.7831,29.2872,1
Yurkivka,47.6545,35.6550,5
Yuvileine,46.4860,33.2111,1
Yuzhna-Lomuvatka,48.4379,38.5311,1
Yuzhnoukrainsk,47.8230,31.1842,1
Zabavne,49.2921,37.2276,1
Zabuyannya,50.5623,29.6411,2
Zachativka,47.4737,37.1982,2
Zahirne,47.5686,36.1745,1
Zahradivka,47.5169,33.2778,5
Zaitseve,48.4292,38.0094,143
Zakharivka,50.8965,29.5003,1
Zakitne,48.8964,37.9646,30
Zalissia,51.2648,29.1945,2
Zalizna Balka,48.3200,37.9215,49
Zalizne,48.3718,37.8884,31
Zaliznychne,47.6451,36.1696,70
Zaliznychne,49.7266,36.8668,3
Zaliznyi Mist,52.2129,32.7025,10
Zaliznyi Port,46.1231,32.2948,1
Zalyman,49.3700,37.0578,23
Zamiske,49.7805,35.5617,1
Zamulivka,50.1357,36.7655,17
Zaozerne,45.1561,33.2754,1
Zaporizhia,47.8479,35.1602,100
Zaporozhets,47.3746,37.9720,1
Zapsillia,51.0256,35.2211,6
Zarichne,47.4437,33.3764,11
Zarichne,47.8525,36.1831,7
Zarichne,49.0194,37.9208,9
Zarutske,51.6559,34.0266,2
Zasillia,47.0249,32.4204,7
Zatoka,46.0725,30.4653,11
Zatyshshia,47.6852,36.3284,1
Zavhorodnye,49.2005,36.9116,3
Zavody,49.1502,37.0783,6
Zavorychi,50.7063,31.1370,1
Zayichenko,47.1808,37.8614,1
Zazymia,50.5669,30.6791,3
Zdolbuniv,50.5206,26.2425,1
Zdvyzhivka,50.6750,30.0664,5
Zelena Dolyna,49.1303,37.8067,6
Zelene,47.9438,38.1688,1
Zelene,50.2187,36.5834,2
Zelene Pole,47.8300,36.6237,22
Zelene Pole,48.3294,37.5767,4
Zelenodolsk,47.5668,33.6474,73
Zelenopillia,48.4715,37.9630,3
Zelenotropynske,46.2725,32.4382,1
Zelenyi Hai,46.8288,32.4175,6
Zelenyi Hai,47.4552,32.5220,6
Zelenyi Hai,47.6778,36.3869,5
Zelenyi Pid,46.6782,33.7848,1
Zelenyy Hay,47.2388,31.5690,2
Zemlyanky,48.1319,37.9127,6
Zhelanne,48.2084,37.4443,5
Zhelanne Druhe,48.0591,37.4170,2
Zherebyanky,47.5013,35.4300,1
Zhmerynka,49.0371,28.1120,1
Zholobok,48.7146,38.6996,1
Zhukovsky,50.0517,36.2880,1
Zhuravka,48.2259,37.3678,1
Zhuravka,50.4756,32.5917,1
Zhuravka,51.2161,34.9866,4
Zhytomyr,50.2649,28.6767,22
Zirka,51.2153,29.4325,1
Zmiiv,49.6745,36.3478,2
Zmiivka,46.8646,33.5835,1
Zmiyinyy Island,45.2549,30.2037,21
Znob-Novhorodske,52.2629,33.6016,16
Znob-Trubchevska,52.2921,33.5768,1
Zolochiv,49.8057,24.8989,2
Zolochiv,50.2799,35.9818,87
Zolota Balka,47.3784,33.9647,2
Zolota Nyva,47.7943,36.9905,33
Zolotarivka,48.0046,38.1871,1
Zolotarivka,48.8769,38.2726,9
Zolote,48.6926,38.5145,48
Zolote-4,48.6793,38.5145,4
Zolote-5,48.6719,38.5600,33
Zolotynka,51.3355,31.2077,1
Zoria,47.5393,33.0778,7
Zorya,46.8966,32.2885,14
Zorya,47.2958,37.6081,3
Zoryane,48.0355,37.3966,3
Zrubanka,50.2900,36.0038,2
Zuhres,48.0179,38.2698,1
Zvanivka,48.8141,38.0760,36
Zybyne,50.3056,37.0812,1
Zymohiria,48.5855,38.9277,2
