{
"type": "FeatureCollection",
"name": "english_football_stadiums_geo",
"crs": { "type": "name", "properties": { "name": "urn:ogc:def:crs:OGC:1.3:CRS84" } },
"features": [
{ "type": "Feature", "properties": { "stadium": "Anfield", "club": "Liverpool", "location": "Liverpool", "opened": "1884", "capacity": "61276", "coordinates_new": "53.43083,-2.96083", "lat": "53.43083", "lon": "-2.96083" }, "geometry": { "type": "Point", "coordinates": [ -2.96083, 53.43083 ] } },
{ "type": "Feature", "properties": { "stadium": "bet365 Stadium", "club": "Stoke City", "location": "Stoke-on-Trent", "opened": "1997", "capacity": "30089", "coordinates_new": "52.98833,-2.17556", "lat": "52.98833", "lon": "-2.17556" }, "geometry": { "type": "Point", "coordinates": [ -2.17556, 52.98833 ] } },
{ "type": "Feature", "properties": { "stadium": "Bloomfield Road", "club": "Blackpool", "location": "Blackpool", "opened": "1899", "capacity": "16220", "coordinates_new": "53.80472,-3.04806", "lat": "53.80472", "lon": "-3.04806" }, "geometry": { "type": "Point", "coordinates": [ -3.04806, 53.80472 ] } },
{ "type": "Feature", "properties": { "stadium": "Boundary Park", "club": "Oldham Athletic", "location": "Oldham", "opened": "1904", "capacity": "13559", "coordinates_new": "53.55528,-2.12861", "lat": "53.55528", "lon": "-2.12861" }, "geometry": { "type": "Point", "coordinates": [ -2.12861, 53.55528 ] } },
{ "type": "Feature", "properties": { "stadium": "Bramall Lane", "club": "Sheffield United", "location": "Sheffield", "opened": "1855", "capacity": "32050", "coordinates_new": "53.37028,-1.47083", "lat": "53.37028", "lon": "-1.47083" }, "geometry": { "type": "Point", "coordinates": [ -1.47083, 53.37028 ] } },
{ "type": "Feature", "properties": { "stadium": "Brentford Community Stadium", "club": "Brentford", "location": "London", "opened": "2020", "capacity": "17250", "coordinates_new": "51.490825,-0.2887", "lat": "51.490825", "lon": "-0.2887" }, "geometry": { "type": "Point", "coordinates": [ -0.2887, 51.490825 ] } },
{ "type": "Feature", "properties": { "stadium": "Cardiff City Stadium", "club": "Cardiff City", "location": "Cardiff", "opened": "2009", "capacity": "33280", "coordinates_new": "51.47278,-3.20306", "lat": "51.47278", "lon": "-3.20306" }, "geometry": { "type": "Point", "coordinates": [ -3.20306, 51.47278 ] } },
{ "type": "Feature", "properties": { "stadium": "Carrow Road", "club": "Norwich City", "location": "Norwich", "opened": "1935", "capacity": "27359", "coordinates_new": "52.62222,1.30917", "lat": "52.62222", "lon": "1.30917" }, "geometry": { "type": "Point", "coordinates": [ 1.30917, 52.62222 ] } },
{ "type": "Feature", "properties": { "stadium": "City Ground", "club": "Nottingham Forest", "location": "Nottingham", "opened": "1898", "capacity": "30404", "coordinates_new": "52.94,-1.13278", "lat": "52.94", "lon": "-1.13278" }, "geometry": { "type": "Point", "coordinates": [ -1.13278, 52.94 ] } },
{ "type": "Feature", "properties": { "stadium": "City of Manchester Stadium", "club": "Manchester City", "location": "Manchester", "opened": "2003", "capacity": "53400", "coordinates_new": "53.48306,-2.20028", "lat": "53.48306", "lon": "-2.20028" }, "geometry": { "type": "Point", "coordinates": [ -2.20028, 53.48306 ] } },
{ "type": "Feature", "properties": { "stadium": "County Ground", "club": "Swindon Town", "location": "Swindon", "opened": "1895", "capacity": "14700", "coordinates_new": "51.56444,-1.77056", "lat": "51.56444", "lon": "-1.77056" }, "geometry": { "type": "Point", "coordinates": [ -1.77056, 51.56444 ] } },
{ "type": "Feature", "properties": { "stadium": "Craven Cottage", "club": "Fulham", "location": "London", "opened": "1896", "capacity": "24500", "coordinates_new": "51.475,-0.22167", "lat": "51.475", "lon": "-0.22167" }, "geometry": { "type": "Point", "coordinates": [ -0.22167, 51.475 ] } },
{ "type": "Feature", "properties": { "stadium": "Dean Court", "club": "Bournemouth", "location": "Bournemouth", "opened": "1910", "capacity": "11307", "coordinates_new": "50.73528,-1.83833", "lat": "50.73528", "lon": "-1.83833" }, "geometry": { "type": "Point", "coordinates": [ -1.83833, 50.73528 ] } },
{ "type": "Feature", "properties": { "stadium": "DW Stadium", "club": "Wigan Athletic", "location": "Wigan", "opened": "1999", "capacity": "25138", "coordinates_new": "53.5475,-2.65417", "lat": "53.5475", "lon": "-2.65417" }, "geometry": { "type": "Point", "coordinates": [ -2.65417, 53.5475 ] } },
{ "type": "Feature", "properties": { "stadium": "Elland Road", "club": "Leeds United", "location": "Leeds", "opened": "1897", "capacity": "37608", "coordinates_new": "53.77778,-1.57222", "lat": "53.77778", "lon": "-1.57222" }, "geometry": { "type": "Point", "coordinates": [ -1.57222, 53.77778 ] } },
{ "type": "Feature", "properties": { "stadium": "Emirates Stadium", "club": "Arsenal", "location": "London", "opened": "2006", "capacity": "60704", "coordinates_new": "51.555,-0.10861", "lat": "51.555", "lon": "-0.10861" }, "geometry": { "type": "Point", "coordinates": [ -0.10861, 51.555 ] } },
{ "type": "Feature", "properties": { "stadium": "Ewood Park", "club": "Blackburn Rovers", "location": "Blackburn", "opened": "1890", "capacity": "31367", "coordinates_new": "53.72861,-2.48917", "lat": "53.72861", "lon": "-2.48917" }, "geometry": { "type": "Point", "coordinates": [ -2.48917, 53.72861 ] } },
{ "type": "Feature", "properties": { "stadium": "Falmer Stadium", "club": "Brighton & Hove Albion", "location": "Falmer", "opened": "2011", "capacity": "31876", "coordinates_new": "50.8618222,-0.083278", "lat": "50.8618222", "lon": "-0.083278" }, "geometry": { "type": "Point", "coordinates": [ -0.083278, 50.8618222 ] } },
{ "type": "Feature", "properties": { "stadium": "Fratton Park", "club": "Portsmouth", "location": "Portsmouth", "opened": "1898", "capacity": "20978", "coordinates_new": "50.79639,-1.06389", "lat": "50.79639", "lon": "-1.06389" }, "geometry": { "type": "Point", "coordinates": [ -1.06389, 50.79639 ] } },
{ "type": "Feature", "properties": { "stadium": "Goodison Park", "club": "Everton", "location": "Liverpool", "opened": "1892", "capacity": "39414", "coordinates_new": "53.43889,-2.96639", "lat": "53.43889", "lon": "-2.96639" }, "geometry": { "type": "Point", "coordinates": [ -2.96639, 53.43889 ] } },
{ "type": "Feature", "properties": { "stadium": "The Hawthorns", "club": "West Bromwich Albion", "location": "West Bromwich", "opened": "1900", "capacity": "26445", "coordinates_new": "52.50917,-1.96389", "lat": "52.50917", "lon": "-1.96389" }, "geometry": { "type": "Point", "coordinates": [ -1.96389, 52.50917 ] } },
{ "type": "Feature", "properties": { "stadium": "Hillsborough Stadium", "club": "Sheffield Wednesday", "location": "Sheffield", "opened": "1899", "capacity": "39812", "coordinates_new": "53.41139,-1.50056", "lat": "53.41139", "lon": "-1.50056" }, "geometry": { "type": "Point", "coordinates": [ -1.50056, 53.41139 ] } },
{ "type": "Feature", "properties": { "stadium": "Kenilworth Road", "club": "Luton Town", "location": "Luton", "opened": "1905", "capacity": "10265", "coordinates_new": "51.88417,-0.43167", "lat": "51.88417", "lon": "-0.43167" }, "geometry": { "type": "Point", "coordinates": [ -0.43167, 51.88417 ] } },
{ "type": "Feature", "properties": { "stadium": "King Power Stadium", "club": "Leicester City", "location": "Leicester", "opened": "2002", "capacity": "32262", "coordinates_new": "52.62028,-1.14222", "lat": "52.62028", "lon": "-1.14222" }, "geometry": { "type": "Point", "coordinates": [ -1.14222, 52.62028 ] } },
{ "type": "Feature", "properties": { "stadium": "Kirklees Stadium", "club": "Huddersfield Town", "location": "Huddersfield", "opened": "1994", "capacity": "24500", "coordinates_new": "53.65417,-1.76833", "lat": "53.65417", "lon": "-1.76833" }, "geometry": { "type": "Point", "coordinates": [ -1.76833, 53.65417 ] } },
{ "type": "Feature", "properties": { "stadium": "Loftus Road", "club": "Queens Park Rangers & Fulham", "location": "London", "opened": "1904", "capacity": "18439", "coordinates_new": "51.50917,-0.23222", "lat": "51.50917", "lon": "-0.23222" }, "geometry": { "type": "Point", "coordinates": [ -0.23222, 51.50917 ] } },
{ "type": "Feature", "properties": { "stadium": "London Stadium", "club": "West Ham United", "location": "London", "opened": "2016", "capacity": "62500", "coordinates_new": "51.53861,-0.01639", "lat": "51.53861", "lon": "-0.01639" }, "geometry": { "type": "Point", "coordinates": [ -0.01639, 51.53861 ] } },
{ "type": "Feature", "properties": { "stadium": "Madejski Stadium", "club": "Reading", "location": "Reading", "opened": "1998", "capacity": "24161", "coordinates_new": "51.42222,-0.98278", "lat": "51.42222", "lon": "-0.98278" }, "geometry": { "type": "Point", "coordinates": [ -0.98278, 51.42222 ] } },
{ "type": "Feature", "properties": { "stadium": "MKM Stadium", "club": "Hull City", "location": "Kingston upon Hull", "opened": "2002", "capacity": "25400", "coordinates_new": "53.74611,-0.3675", "lat": "53.74611", "lon": "-0.3675" }, "geometry": { "type": "Point", "coordinates": [ -0.3675, 53.74611 ] } },
{ "type": "Feature", "properties": { "stadium": "Molineux Stadium", "club": "Wolverhampton Wanderers", "location": "Wolverhampton", "opened": "1889", "capacity": "31750", "coordinates_new": "52.59028,-2.13028", "lat": "52.59028", "lon": "-2.13028" }, "geometry": { "type": "Point", "coordinates": [ -2.13028, 52.59028 ] } },
{ "type": "Feature", "properties": { "stadium": "Oakwell", "club": "Barnsley", "location": "Barnsley", "opened": "1887", "capacity": "23009", "coordinates_new": "53.55222,-1.4675", "lat": "53.55222", "lon": "-1.4675" }, "geometry": { "type": "Point", "coordinates": [ -1.4675, 53.55222 ] } },
{ "type": "Feature", "properties": { "stadium": "Old Trafford", "club": "Manchester United", "location": "Manchester", "opened": "1910", "capacity": "74031", "coordinates_new": "53.46306,-2.29139", "lat": "53.46306", "lon": "-2.29139" }, "geometry": { "type": "Point", "coordinates": [ -2.29139, 53.46306 ] } },
{ "type": "Feature", "properties": { "stadium": "Portman Road", "club": "Ipswich Town", "location": "Ipswich", "opened": "1884", "capacity": "30311", "coordinates_new": "52.055,1.14472", "lat": "52.055", "lon": "1.14472" }, "geometry": { "type": "Point", "coordinates": [ 1.14472, 52.055 ] } },
{ "type": "Feature", "properties": { "stadium": "Pride Park Stadium", "club": "Derby County", "location": "Derby", "opened": "1997", "capacity": "33597", "coordinates_new": "52.915,-1.44722", "lat": "52.915", "lon": "-1.44722" }, "geometry": { "type": "Point", "coordinates": [ -1.44722, 52.915 ] } },
{ "type": "Feature", "properties": { "stadium": "Riverside Stadium", "club": "Middlesbrough", "location": "Middlesbrough", "opened": "1995", "capacity": "33746", "coordinates_new": "54.57833,-1.21694", "lat": "54.57833", "lon": "-1.21694" }, "geometry": { "type": "Point", "coordinates": [ -1.21694, 54.57833 ] } },
{ "type": "Feature", "properties": { "stadium": "St Andrew's", "club": "Birmingham City", "location": "Birmingham", "opened": "1906", "capacity": "30079", "coordinates_new": "52.47583,-1.86806", "lat": "52.47583", "lon": "-1.86806" }, "geometry": { "type": "Point", "coordinates": [ -1.86806, 52.47583 ] } },
{ "type": "Feature", "properties": { "stadium": "St James' Park", "club": "Newcastle United", "location": "Newcastle upon Tyne", "opened": "1880", "capacity": "52257", "coordinates_new": "54.97556,-1.62167", "lat": "54.97556", "lon": "-1.62167" }, "geometry": { "type": "Point", "coordinates": [ -1.62167, 54.97556 ] } },
{ "type": "Feature", "properties": { "stadium": "St Mary's Stadium", "club": "Southampton", "location": "Southampton", "opened": "2001", "capacity": "32384", "coordinates_new": "50.90583,-1.39111", "lat": "50.90583", "lon": "-1.39111" }, "geometry": { "type": "Point", "coordinates": [ -1.39111, 50.90583 ] } },
{ "type": "Feature", "properties": { "stadium": "Selhurst Park", "club": "Crystal Palace & Wimbledon", "location": "London", "opened": "1924", "capacity": "25486", "coordinates_new": "51.39833,-0.08556", "lat": "51.39833", "lon": "-0.08556" }, "geometry": { "type": "Point", "coordinates": [ -0.08556, 51.39833 ] } },
{ "type": "Feature", "properties": { "stadium": "Stadium of Light", "club": "Sunderland", "location": "Sunderland", "opened": "1997", "capacity": "48707", "coordinates_new": "54.91444,-1.38833", "lat": "54.91444", "lon": "-1.38833" }, "geometry": { "type": "Point", "coordinates": [ -1.38833, 54.91444 ] } },
{ "type": "Feature", "properties": { "stadium": "Stamford Bridge", "club": "Chelsea", "location": "London", "opened": "1877", "capacity": "40173", "coordinates_new": "51.48167,-0.19111", "lat": "51.48167", "lon": "-0.19111" }, "geometry": { "type": "Point", "coordinates": [ -0.19111, 51.48167 ] } },
{ "type": "Feature", "properties": { "stadium": "Swansea.com Stadium", "club": "Swansea City", "location": "Swansea", "opened": "2005", "capacity": "20937", "coordinates_new": "51.64278,-3.93472", "lat": "51.64278", "lon": "-3.93472" }, "geometry": { "type": "Point", "coordinates": [ -3.93472, 51.64278 ] } },
{ "type": "Feature", "properties": { "stadium": "Tottenham Hotspur Stadium", "club": "Tottenham Hotspur", "location": "London", "opened": "2019", "capacity": "62850", "coordinates_new": "51.60472,-0.06639", "lat": "51.60472", "lon": "-0.06639" }, "geometry": { "type": "Point", "coordinates": [ -0.06639, 51.60472 ] } },
{ "type": "Feature", "properties": { "stadium": "Turf Moor", "club": "Burnley", "location": "Burnley", "opened": "1883", "capacity": "21744", "coordinates_new": "53.78917,-2.23028", "lat": "53.78917", "lon": "-2.23028" }, "geometry": { "type": "Point", "coordinates": [ -2.23028, 53.78917 ] } },
{ "type": "Feature", "properties": { "stadium": "University of Bolton Stadium", "club": "Bolton Wanderers", "location": "Bolton", "opened": "1997", "capacity": "28723", "coordinates_new": "53.58056,-2.53556", "lat": "53.58056", "lon": "-2.53556" }, "geometry": { "type": "Point", "coordinates": [ -2.53556, 53.58056 ] } },
{ "type": "Feature", "properties": { "stadium": "The Valley", "club": "Charlton Athletic", "location": "London", "opened": "1919", "capacity": "27111", "coordinates_new": "51.48639,0.03639", "lat": "51.48639", "lon": "0.03639" }, "geometry": { "type": "Point", "coordinates": [ 0.03639, 51.48639 ] } },
{ "type": "Feature", "properties": { "stadium": "Valley Parade", "club": "Bradford City", "location": "Bradford", "opened": "1886", "capacity": "25136", "coordinates_new": "53.80417,-1.75889", "lat": "53.80417", "lon": "-1.75889" }, "geometry": { "type": "Point", "coordinates": [ -1.75889, 53.80417 ] } },
{ "type": "Feature", "properties": { "stadium": "Vicarage Road", "club": "Watford", "location": "Watford", "opened": "1922", "capacity": "22200", "coordinates_new": "51.65,-0.40167", "lat": "51.65", "lon": "-0.40167" }, "geometry": { "type": "Point", "coordinates": [ -0.40167, 51.65 ] } },
{ "type": "Feature", "properties": { "stadium": "Villa Park", "club": "Aston Villa", "location": "Birmingham", "opened": "1897", "capacity": "42530", "coordinates_new": "52.50917,-1.88472", "lat": "52.50917", "lon": "-1.88472" }, "geometry": { "type": "Point", "coordinates": [ -1.88472, 52.50917 ] } }
]
}
