{
"type": "FeatureCollection",
"name": "english_football_stadiums_geo",
"crs": { "type": "name", "properties": { "name": "urn:ogc:def:crs:EPSG::3857" } },
"features": [
{ "type": "Feature", "properties": { "stadium": "Anfield", "club": "Liverpool", "location": "Liverpool", "opened": "1884", "capacity": 53394, "lat": 53.430833333333332, "lon": -2.9608333333333334 }, "geometry": { "type": "Point", "coordinates": [ -2.960833333333333, 53.430833333333332 ] } },
{ "type": "Feature", "properties": { "stadium": "bet365 Stadium Formerly Britannia Stadium", "club": "Stoke City", "location": "Stoke-on-Trent", "opened": "1997", "capacity": 30089, "lat": 52.988333333333337, "lon": -2.1755555555555555 }, "geometry": { "type": "Point", "coordinates": [ -2.175555555555555, 52.988333333333337 ] } },
{ "type": "Feature", "properties": { "stadium": "Bloomfield Road", "club": "Blackpool", "location": "Blackpool", "opened": "1899", "capacity": 16220, "lat": 53.804722222222217, "lon": -3.0480555555555555 }, "geometry": { "type": "Point", "coordinates": [ -3.048055555555556, 53.804722222222217 ] } },
{ "type": "Feature", "properties": { "stadium": "Boundary Park", "club": "Oldham Athletic", "location": "Oldham", "opened": "1904", "capacity": 13559, "lat": 53.555277777777775, "lon": -2.1286111111111112 }, "geometry": { "type": "Point", "coordinates": [ -2.128611111111111, 53.555277777777775 ] } },
{ "type": "Feature", "properties": { "stadium": "Bramall Lane", "club": "Sheffield United", "location": "Sheffield", "opened": "1855", "capacity": 32702, "lat": 53.37027777777778, "lon": -1.4708333333333334 }, "geometry": { "type": "Point", "coordinates": [ -1.470833333333333, 53.37027777777778 ] } },
{ "type": "Feature", "properties": { "stadium": "Cardiff City Stadium", "club": "Cardiff City", "location": "Cardiff", "opened": "2009", "capacity": 33280, "lat": 51.472777777777779, "lon": -3.2030555555555558 }, "geometry": { "type": "Point", "coordinates": [ -3.203055555555556, 51.472777777777779 ] } },
{ "type": "Feature", "properties": { "stadium": "Carrow Road", "club": "Norwich City", "location": "Norwich", "opened": "1935", "capacity": 27359, "lat": 52.62222222222222, "lon": 1.3091666666666668 }, "geometry": { "type": "Point", "coordinates": [ 1.309166666666667, 52.62222222222222 ] } },
{ "type": "Feature", "properties": { "stadium": "City Ground", "club": "Nottingham Forest", "location": "Nottingham", "opened": "1898", "capacity": 30332, "lat": 52.94, "lon": -1.1327777777777779 }, "geometry": { "type": "Point", "coordinates": [ -1.132777777777778, 52.94 ] } },
{ "type": "Feature", "properties": { "stadium": "City of Manchester Stadium", "club": "Manchester City", "location": "Manchester", "opened": "2003", "capacity": 53400, "lat": 53.483055555555559, "lon": -2.200277777777778 }, "geometry": { "type": "Point", "coordinates": [ -2.200277777777778, 53.483055555555559 ] } },
{ "type": "Feature", "properties": { "stadium": "County Ground", "club": "Swindon Town", "location": "Swindon", "opened": "1895", "capacity": 14700, "lat": 51.56444444444444, "lon": -1.7705555555555554 }, "geometry": { "type": "Point", "coordinates": [ -1.770555555555555, 51.56444444444444 ] } },
{ "type": "Feature", "properties": { "stadium": "Craven Cottage", "club": "Fulham", "location": "London", "opened": "1896", "capacity": 22384, "lat": 51.475, "lon": -0.22166666666666668 }, "geometry": { "type": "Point", "coordinates": [ -0.221666666666667, 51.475 ] } },
{ "type": "Feature", "properties": { "stadium": "Dean Court", "club": "Bournemouth", "location": "Bournemouth", "opened": "1910", "capacity": 11307, "lat": 50.735277777777782, "lon": -1.8383333333333334 }, "geometry": { "type": "Point", "coordinates": [ -1.838333333333333, 50.735277777777782 ] } },
{ "type": "Feature", "properties": { "stadium": "DW Stadium Formerly JJB Stadium", "club": "Wigan Athletic", "location": "Wigan", "opened": "1999", "capacity": 25138, "lat": 53.5475, "lon": -2.6541666666666668 }, "geometry": { "type": "Point", "coordinates": [ -2.654166666666667, 53.5475 ] } },
{ "type": "Feature", "properties": { "stadium": "Elland Road", "club": "Leeds United", "location": "Leeds", "opened": "1897", "capacity": 37608, "lat": 53.777777777777779, "lon": -1.5722222222222222 }, "geometry": { "type": "Point", "coordinates": [ -1.572222222222222, 53.777777777777779 ] } },
{ "type": "Feature", "properties": { "stadium": "Emirates Stadium", "club": "Arsenal", "location": "London", "opened": "2006", "capacity": 60704, "lat": 51.555, "lon": -0.10861111111111112 }, "geometry": { "type": "Point", "coordinates": [ -0.108611111111111, 51.555 ] } },
{ "type": "Feature", "properties": { "stadium": "Ewood Park", "club": "Blackburn Rovers", "location": "Blackburn", "opened": "1890", "capacity": 31367, "lat": 53.728611111111114, "lon": -2.4891666666666667 }, "geometry": { "type": "Point", "coordinates": [ -2.489166666666667, 53.728611111111114 ] } },
{ "type": "Feature", "properties": { "stadium": "Falmer Stadium", "club": "Brighton & Hove Albion", "location": "Falmer", "opened": "2011", "capacity": 31780, "lat": 50.861822222222223, "lon": -0.083277777777777784 }, "geometry": { "type": "Point", "coordinates": [ -0.083277777777778, 50.861822222222223 ] } },
{ "type": "Feature", "properties": { "stadium": "Fratton Park", "club": "Portsmouth", "location": "Portsmouth", "opened": "1898", "capacity": 20978, "lat": 50.796388888888885, "lon": -1.0638888888888889 }, "geometry": { "type": "Point", "coordinates": [ -1.063888888888889, 50.796388888888885 ] } },
{ "type": "Feature", "properties": { "stadium": "Goodison Park", "club": "Everton", "location": "Liverpool", "opened": "1892", "capacity": 39414, "lat": 53.438888888888883, "lon": -2.966388888888889 }, "geometry": { "type": "Point", "coordinates": [ -2.966388888888889, 53.438888888888883 ] } },
{ "type": "Feature", "properties": { "stadium": "Gtech Community Stadium", "club": "Brentford", "location": "London", "opened": "2020", "capacity": 17250, "lat": 51.490825, "lon": -0.2887 }, "geometry": { "type": "Point", "coordinates": [ -0.2887, 51.490825 ] } },
{ "type": "Feature", "properties": { "stadium": "The Hawthorns", "club": "West Bromwich Albion", "location": "West Bromwich", "opened": "1900", "capacity": 26445, "lat": 52.509166666666665, "lon": -1.9638888888888888 }, "geometry": { "type": "Point", "coordinates": [ -1.963888888888889, 52.509166666666665 ] } },
{ "type": "Feature", "properties": { "stadium": "Hillsborough Stadium", "club": "Sheffield Wednesday", "location": "Sheffield", "opened": "1899", "capacity": 39812, "lat": 53.411388888888887, "lon": -1.5005555555555556 }, "geometry": { "type": "Point", "coordinates": [ -1.500555555555556, 53.411388888888887 ] } },
{ "type": "Feature", "properties": { "stadium": "King Power Stadium Formerly Walkers Stadium", "club": "Leicester City", "location": "Leicester", "opened": "2002", "capacity": 32262, "lat": 52.62027777777778, "lon": -1.1422222222222222 }, "geometry": { "type": "Point", "coordinates": [ -1.142222222222222, 52.62027777777778 ] } },
{ "type": "Feature", "properties": { "stadium": "Kirklees Stadium", "club": "Huddersfield Town", "location": "Huddersfield", "opened": "1994", "capacity": 24500, "lat": 53.654166666666669, "lon": -1.7683333333333333 }, "geometry": { "type": "Point", "coordinates": [ -1.768333333333333, 53.654166666666669 ] } },
{ "type": "Feature", "properties": { "stadium": "Loftus Road", "club": "Queens Park Rangers & Fulham", "location": "London", "opened": "1904", "capacity": 18439, "lat": 51.509166666666665, "lon": -0.23222222222222222 }, "geometry": { "type": "Point", "coordinates": [ -0.232222222222222, 51.509166666666665 ] } },
{ "type": "Feature", "properties": { "stadium": "London Stadium Formerly Olympic Stadium", "club": "West Ham United", "location": "London", "opened": "2016", "capacity": 60000, "lat": 51.538611111111109, "lon": -0.01638888888888889 }, "geometry": { "type": "Point", "coordinates": [ -0.016388888888889, 51.538611111111109 ] } },
{ "type": "Feature", "properties": { "stadium": "Madejski Stadium", "club": "Reading", "location": "Reading", "opened": "1998", "capacity": 24161, "lat": 51.422222222222217, "lon": -0.98277777777777775 }, "geometry": { "type": "Point", "coordinates": [ -0.982777777777778, 51.422222222222217 ] } },
{ "type": "Feature", "properties": { "stadium": "MKM Stadium Formerly KCOM Stadium", "club": "Hull City", "location": "Kingston upon Hull", "opened": "2002", "capacity": 25400, "lat": 53.746111111111112, "lon": -0.3675 }, "geometry": { "type": "Point", "coordinates": [ -0.3675, 53.746111111111112 ] } },
{ "type": "Feature", "properties": { "stadium": "Molineux Stadium", "club": "Wolverhampton Wanderers", "location": "Wolverhampton", "opened": "1889", "capacity": 31750, "lat": 52.590277777777779, "lon": -2.1302777777777777 }, "geometry": { "type": "Point", "coordinates": [ -2.130277777777778, 52.590277777777779 ] } },
{ "type": "Feature", "properties": { "stadium": "Oakwell", "club": "Barnsley", "location": "Barnsley", "opened": "1887", "capacity": 23009, "lat": 53.55222222222222, "lon": -1.4675 }, "geometry": { "type": "Point", "coordinates": [ -1.4675, 53.55222222222222 ] } },
{ "type": "Feature", "properties": { "stadium": "Old Trafford", "club": "Manchester United", "location": "Manchester", "opened": "1910", "capacity": 74310, "lat": 53.463055555555556, "lon": -2.2913888888888887 }, "geometry": { "type": "Point", "coordinates": [ -2.291388888888889, 53.463055555555556 ] } },
{ "type": "Feature", "properties": { "stadium": "Portman Road", "club": "Ipswich Town", "location": "Ipswich", "opened": "1884", "capacity": 30311, "lat": 52.055, "lon": 1.1447222222222222 }, "geometry": { "type": "Point", "coordinates": [ 1.144722222222222, 52.055 ] } },
{ "type": "Feature", "properties": { "stadium": "Pride Park Stadium", "club": "Derby County", "location": "Derby", "opened": "1997", "capacity": 33597, "lat": 52.915, "lon": -1.4472222222222222 }, "geometry": { "type": "Point", "coordinates": [ -1.447222222222222, 52.915 ] } },
{ "type": "Feature", "properties": { "stadium": "Riverside Stadium", "club": "Middlesbrough", "location": "Middlesbrough", "opened": "1995", "capacity": 33746, "lat": 54.578333333333333, "lon": -1.2169444444444446 }, "geometry": { "type": "Point", "coordinates": [ -1.216944444444445, 54.578333333333333 ] } },
{ "type": "Feature", "properties": { "stadium": "St Andrew's", "club": "Birmingham City", "location": "Birmingham", "opened": "1906", "capacity": 30079, "lat": 52.475833333333334, "lon": -1.8680555555555556 }, "geometry": { "type": "Point", "coordinates": [ -1.868055555555556, 52.475833333333334 ] } },
{ "type": "Feature", "properties": { "stadium": "St James' Park", "club": "Newcastle United", "location": "Newcastle upon Tyne", "opened": "1880", "capacity": 52305, "lat": 54.975555555555559, "lon": -1.6216666666666666 }, "geometry": { "type": "Point", "coordinates": [ -1.621666666666667, 54.975555555555559 ] } },
{ "type": "Feature", "properties": { "stadium": "St Mary's Stadium", "club": "Southampton", "location": "Southampton", "opened": "2001", "capacity": 32384, "lat": 50.905833333333334, "lon": -1.3911111111111112 }, "geometry": { "type": "Point", "coordinates": [ -1.391111111111111, 50.905833333333334 ] } },
{ "type": "Feature", "properties": { "stadium": "Selhurst Park", "club": "Crystal Palace & Wimbledon", "location": "London", "opened": "1924", "capacity": 25486, "lat": 51.398333333333333, "lon": -0.085555555555555551 }, "geometry": { "type": "Point", "coordinates": [ -0.085555555555556, 51.398333333333333 ] } },
{ "type": "Feature", "properties": { "stadium": "Stadium of Light", "club": "Sunderland", "location": "Sunderland", "opened": "1997", "capacity": 48707, "lat": 54.914444444444442, "lon": -1.3883333333333332 }, "geometry": { "type": "Point", "coordinates": [ -1.388333333333333, 54.914444444444442 ] } },
{ "type": "Feature", "properties": { "stadium": "Stamford Bridge", "club": "Chelsea", "location": "London", "opened": "1877", "capacity": 40343, "lat": 51.481666666666669, "lon": -0.19111111111111109 }, "geometry": { "type": "Point", "coordinates": [ -0.191111111111111, 51.481666666666669 ] } },
{ "type": "Feature", "properties": { "stadium": "Swansea.com Stadium Formerly Liberty Stadium", "club": "Swansea City", "location": "Swansea", "opened": "2005", "capacity": 20937, "lat": 51.642777777777781, "lon": -3.9347222222222227 }, "geometry": { "type": "Point", "coordinates": [ -3.934722222222223, 51.642777777777781 ] } },
{ "type": "Feature", "properties": { "stadium": "Tottenham Hotspur Stadium", "club": "Tottenham Hotspur", "location": "London", "opened": "2019", "capacity": 62850, "lat": 51.604722222222222, "lon": -0.066388888888888886 }, "geometry": { "type": "Point", "coordinates": [ -0.066388888888889, 51.604722222222222 ] } },
{ "type": "Feature", "properties": { "stadium": "Turf Moor", "club": "Burnley", "location": "Burnley", "opened": "1883", "capacity": 21744, "lat": 53.789166666666667, "lon": -2.2302777777777778 }, "geometry": { "type": "Point", "coordinates": [ -2.230277777777778, 53.789166666666667 ] } },
{ "type": "Feature", "properties": { "stadium": "University of Bolton Stadium Formerly Reebok Stadium and Macron Stadium", "club": "Bolton Wanderers", "location": "Bolton", "opened": "1997", "capacity": 28723, "lat": 53.580555555555556, "lon": -2.5355555555555553 }, "geometry": { "type": "Point", "coordinates": [ -2.535555555555555, 53.580555555555556 ] } },
{ "type": "Feature", "properties": { "stadium": "The Valley", "club": "Charlton Athletic", "location": "London", "opened": "1919", "capacity": 27111, "lat": 51.486388888888889, "lon": 0.036388888888888887 }, "geometry": { "type": "Point", "coordinates": [ 0.036388888888889, 51.486388888888889 ] } },
{ "type": "Feature", "properties": { "stadium": "Valley Parade", "club": "Bradford City", "location": "Bradford", "opened": "1886", "capacity": 25136, "lat": 53.804166666666667, "lon": -1.7588888888888889 }, "geometry": { "type": "Point", "coordinates": [ -1.758888888888889, 53.804166666666667 ] } },
{ "type": "Feature", "properties": { "stadium": "Vicarage Road", "club": "Watford", "location": "Watford", "opened": "1922", "capacity": 22200, "lat": 51.65, "lon": -0.40166666666666667 }, "geometry": { "type": "Point", "coordinates": [ -0.401666666666667, 51.65 ] } },
{ "type": "Feature", "properties": { "stadium": "Villa Park", "club": "Aston Villa", "location": "Birmingham", "opened": "1897", "capacity": 42657, "lat": 52.509166666666665, "lon": -1.8847222222222222 }, "geometry": { "type": "Point", "coordinates": [ -1.884722222222222, 52.509166666666665 ] } }
]
}
