[
    {
        "store_name":"Riverchase Galleria Outparcel",
        "store_id":"2525",
        "url":"\/store\/2525-HOOVER",
        "phone":"(205) 733-2171",
        "address":"3460 Galleria Circle",
        "city":"Hoover",
        "state":"Alabama",
        "zip":"35244-2366",
        "latitude":"33.38026",
        "longitude":"-86.80618"
    },
    {
        "store_name":"Bridge Street Town Centre",
        "store_id":"2574",
        "url":"\/store\/2574-HUNTSVILLE",
        "phone":"(256) 971-2879",
        "address":"200 The Bridge Street Nw",
        "city":"Huntsville",
        "state":"Alabama",
        "zip":"35806-0042",
        "latitude":"34.713782",
        "longitude":"-86.672555"
    },
    {
        "store_name":"Mcgowin Park",
        "store_id":"2572",
        "url":"\/store\/2572-MOBILE",
        "phone":"(251) 470-9844",
        "address":"3085 Government Blvd.",
        "city":"Mobile",
        "state":"Alabama",
        "zip":"36606-2610",
        "latitude":"30.65408",
        "longitude":"-88.11765"
    },
    {
        "store_name":"Chase Corner",
        "store_id":"2565",
        "url":"\/store\/2565-MONTGOMERY",
        "phone":"(334) 273-3255",
        "address":"1490 Taylor Rd.",
        "city":"Montgomery",
        "state":"Alabama",
        "zip":"36117-3745",
        "latitude":"32.35769",
        "longitude":"-86.17203"
    },
    {
        "store_name":"Casa Paloma Shopping Center",
        "store_id":"473",
        "url":"\/store\/473-CHANDLER",
        "phone":"(480) 961-1919",
        "address":"7181 W Ray Rd.",
        "city":"Chandler",
        "state":"Arizona",
        "zip":"85226-1519",
        "latitude":"33.31925",
        "longitude":"-111.96713"
    },
    {
        "store_name":"Arrowhead Towne Center - Outparcel",
        "store_id":"469",
        "url":"\/store\/469-GLENDALE",
        "phone":"(623) 334-3033",
        "address":"7520 W Bell Rd.",
        "city":"Glendale",
        "state":"Arizona",
        "zip":"85308-8620",
        "latitude":"33.63878",
        "longitude":"-112.22149"
    },
    {
        "store_name":"Dana Park",
        "store_id":"2414",
        "url":"\/store\/2414-MESA",
        "phone":"(480) 813-2091",
        "address":"1750 S Valvista Dr.",
        "city":"Mesa",
        "state":"Arizona",
        "zip":"85204-7304",
        "latitude":"33.38289",
        "longitude":"-111.75456"
    },
    {
        "store_name":"Paradise Valley - Outparcel",
        "store_id":"480",
        "url":"\/store\/480-PHOENIX",
        "phone":"(602) 569-6200",
        "address":"12656 N Tatum Blvd.",
        "city":"Phoenix",
        "state":"Arizona",
        "zip":"85032-7721",
        "latitude":"33.60218",
        "longitude":"-111.97937"
    },
    {
        "store_name":"Broadway Blvd.",
        "store_id":"413",
        "url":"\/store\/413-TUCSON",
        "phone":"(520) 514-9800",
        "address":"5955 E. Broadway Blvd.",
        "city":"Tucson",
        "state":"Arizona",
        "zip":"85711-3903",
        "latitude":"32.22196",
        "longitude":"-110.86525"
    },
    {
        "store_name":"Sec Oracle & Wetmore",
        "store_id":"2413",
        "url":"\/store\/2413-TUCSON",
        "phone":"(520) 292-6265",
        "address":"4240 N Oracle Rd.",
        "city":"Tucson",
        "state":"Arizona",
        "zip":"85705-1632",
        "latitude":"32.28387",
        "longitude":"-110.97752"
    },
    {
        "store_name":"Park Avenue",
        "store_id":"2524",
        "url":"\/store\/2524-LITTLE ROCK",
        "phone":"(501) 280-9030",
        "address":"310 South University Ave.",
        "city":"Little Rock",
        "state":"Arkansas",
        "zip":"72205-5205",
        "latitude":"34.75017",
        "longitude":"-92.34163"
    },
    {
        "store_name":"Shops At River Walk",
        "store_id":"2564",
        "url":"\/store\/2564-BAKERSFIELD",
        "phone":"(661) 664-1004",
        "address":"10600 Stockdale Hwy.",
        "city":"Bakersfield",
        "state":"California",
        "zip":"93311-3658",
        "latitude":"35.35139",
        "longitude":"-119.12018"
    },
    {
        "store_name":"Brea Plaza",
        "store_id":"2516",
        "url":"\/store\/2516-BREA",
        "phone":"(714) 257-1184",
        "address":"1631 East Imperial Hwy.",
        "city":"Brea",
        "state":"California",
        "zip":"92821-5809",
        "latitude":"33.91083",
        "longitude":"-117.881012"
    },
    {
        "store_name":"Los Cerritos Center",
        "store_id":"2541",
        "url":"\/store\/2541-CERRITOS",
        "phone":"(562) 865-1860",
        "address":"18711 Gridley Rd.",
        "city":"Cerritos",
        "state":"California",
        "zip":"90703-5409",
        "latitude":"33.86114",
        "longitude":"-118.09132"
    },
    {
        "store_name":"The Shoppes At Chino Hills",
        "store_id":"2507",
        "url":"\/store\/2507-CHINO HILLS",
        "phone":"(909) 548-4636",
        "address":"3585 Grand Ave.",
        "city":"Chino Hills",
        "state":"California",
        "zip":"91709-5412",
        "latitude":"34.00183",
        "longitude":"-117.72863"
    },
    {
        "store_name":"Metro Pointe At South Coast",
        "store_id":"2563",
        "url":"\/store\/2563-COSTA MESA",
        "phone":"(714) 549-2137",
        "address":"901 South Coast Dr.",
        "city":"Costa Mesa",
        "state":"California",
        "zip":"92626",
        "latitude":"33.69035",
        "longitude":"-117.8934"
    },
    {
        "store_name":"Jared Vault Gilroy Premium Outlets",
        "store_id":"4031",
        "url":"\/store\/4031-GILROY",
        "phone":"(408) 846-5633",
        "address":"8325 Arroyo Circle",
        "city":"Gilroy",
        "state":"California",
        "zip":"95020-7325",
        "latitude":"37.02261",
        "longitude":"-121.56368"
    },
    {
        "store_name":"College Center",
        "store_id":"2498",
        "url":"\/store\/2498-MISSION VIEJO",
        "phone":"(949) 989-8170",
        "address":"28241 Marguerite Pkwy",
        "city":"Mission Viejo",
        "state":"California",
        "zip":"92692-3703",
        "latitude":"33.55255",
        "longitude":"-117.67109"
    },
    {
        "store_name":"Village At San Antonio Center",
        "store_id":"2540",
        "url":"\/store\/2540-MOUNTAIN VIEW",
        "phone":"(650) 917-9378",
        "address":"685 San Antonio Rd.",
        "city":"Mountain View",
        "state":"California",
        "zip":"94040-1357",
        "latitude":"37.40147",
        "longitude":"-122.11218"
    },
    {
        "store_name":"Westfield Plaza Bonita",
        "store_id":"2427",
        "url":"\/store\/2427-NATIONAL CITY",
        "phone":"(619) 267-1323",
        "address":"2960 Plaza Bonita Rd.",
        "city":"National City",
        "state":"California",
        "zip":"91950-8015",
        "latitude":"32.65785",
        "longitude":"-117.06809"
    },
    {
        "store_name":"Jared Vault Ontario Mills",
        "store_id":"4053",
        "url":"\/store\/4053-ONTARIO",
        "phone":"(909) 476-9777",
        "address":"1 East Mills Circle",
        "city":"Ontario",
        "state":"California",
        "zip":"91764-5211",
        "latitude":"34.07274",
        "longitude":"-117.5513"
    },
    {
        "store_name":"Sierra Commons",
        "store_id":"2462",
        "url":"\/store\/2462-PALMDALE",
        "phone":"(661) 947-6141",
        "address":"849 West Rancho Vista Blvd.",
        "city":"Palmdale",
        "state":"California",
        "zip":"93551-3717",
        "latitude":"34.605697",
        "longitude":"-118.165952"
    },
    {
        "store_name":"Victoria Gardens - Outparcel",
        "store_id":"2453",
        "url":"\/store\/2453-RANCHO CUCAMONGA",
        "phone":"(909) 463-6161",
        "address":"12430 Foothill Blvd.",
        "city":"Rancho Cucamonga",
        "state":"California",
        "zip":"91739-9319",
        "latitude":"34.1069",
        "longitude":"-117.534"
    },
    {
        "store_name":"Ridge At Creekside",
        "store_id":"453",
        "url":"\/store\/453-ROSEVILLE",
        "phone":"(916) 787-1701",
        "address":"1128 Galleria Blvd.",
        "city":"Roseville",
        "state":"California",
        "zip":"95678-1992",
        "latitude":"38.76976",
        "longitude":"-121.26519"
    },
    {
        "store_name":"Arden Way Aka Point West Crp Cnt",
        "store_id":"454",
        "url":"\/store\/454-SACRAMENTO",
        "phone":"(916) 567-0930",
        "address":"1620 Arden Way",
        "city":"Sacramento",
        "state":"California",
        "zip":"95815-4005",
        "latitude":"38.59904",
        "longitude":"-121.42724"
    },
    {
        "store_name":"Westfield Mission Valley",
        "store_id":"2472",
        "url":"\/store\/2472-SAN DIEGO",
        "phone":"(619) 278-0060",
        "address":"1025 Camino De La Reina",
        "city":"San Diego",
        "state":"California",
        "zip":"92108-1310",
        "latitude":"32.76804",
        "longitude":"-117.15287"
    },
    {
        "store_name":"Carmel Mountain Road",
        "store_id":"2558",
        "url":"\/store\/2558-SAN DIEGO",
        "phone":"(858) 487-2599",
        "address":"11998 Carmel Mountain Rd.",
        "city":"San Diego",
        "state":"California",
        "zip":"92128-4603",
        "latitude":"32.98302",
        "longitude":"-117.07668"
    },
    {
        "store_name":"Simi Valley Town Center",
        "store_id":"2460",
        "url":"\/store\/2460-SIMI VALLEY",
        "phone":"(805) 583-9704",
        "address":"1115 Simi Town Center Way",
        "city":"Simi Valley",
        "state":"California",
        "zip":"93065-0512",
        "latitude":"34.28481",
        "longitude":"-118.77819"
    },
    {
        "store_name":"Winchester Marketplace",
        "store_id":"2585",
        "url":"\/store\/2585-TEMECULA",
        "phone":"(951) 296-6142",
        "address":"40825 Winchester Road",
        "city":"Temecula",
        "state":"California",
        "zip":"92591-5508",
        "latitude":"33.52742",
        "longitude":"-117.15736"
    },
    {
        "store_name":"The Market Place",
        "store_id":"2551",
        "url":"\/store\/2551-TUSTIN",
        "phone":"(714) 508-1033",
        "address":"3017 El Camino Real",
        "city":"Tustin",
        "state":"California",
        "zip":"92782-8905",
        "latitude":"33.72369",
        "longitude":"-117.79187"
    },
    {
        "store_name":"Aurora City Place",
        "store_id":"441",
        "url":"\/store\/441-AURORA",
        "phone":"(303) 364-0800",
        "address":"235 S Abilene St.",
        "city":"Aurora",
        "state":"Colorado",
        "zip":"80012-1404",
        "latitude":"39.71224",
        "longitude":"-104.82465"
    },
    {
        "store_name":"Woodmen Commons",
        "store_id":"486",
        "url":"\/store\/486-COLORADO SPRINGS",
        "phone":"(719) 262-0701",
        "address":"1720 E Woodmen Rd.",
        "city":"Colorado Springs",
        "state":"Colorado",
        "zip":"80920-3325",
        "latitude":"38.93383",
        "longitude":"-104.79608"
    },
    {
        "store_name":"Centennial Promenade",
        "store_id":"482",
        "url":"\/store\/482-ENGLEWOOD",
        "phone":"(303) 799-4739",
        "address":"9535 E County Line Rd.",
        "city":"Englewood",
        "state":"Colorado",
        "zip":"80112-3501",
        "latitude":"39.5676",
        "longitude":"-104.87886"
    },
    {
        "store_name":"Colorado Mills - Outparcel",
        "store_id":"422",
        "url":"\/store\/422-LAKEWOOD",
        "phone":"(720) 497-0400",
        "address":"14145 W Colfax Ave.",
        "city":"Lakewood",
        "state":"Colorado",
        "zip":"80401-3281",
        "latitude":"39.73637",
        "longitude":"-105.157976"
    },
    {
        "store_name":"Promenade Shops At Centerra - Out",
        "store_id":"2473",
        "url":"\/store\/2473-LOVELAND",
        "phone":"(970) 461-5925",
        "address":"5802 Sky Pond Dr.",
        "city":"Loveland",
        "state":"Colorado",
        "zip":"80538-9073",
        "latitude":"40.41053",
        "longitude":"-104.99193"
    },
    {
        "store_name":"Westminster City Center",
        "store_id":"483",
        "url":"\/store\/483-WESTMINSTER",
        "phone":"(303) 426-4405",
        "address":"9210 Sheridan Blvd.",
        "city":"Westminster",
        "state":"Colorado",
        "zip":"80031-6303",
        "latitude":"39.86393",
        "longitude":"-105.05233"
    },
    {
        "store_name":"Corbin's Corner",
        "store_id":"2534",
        "url":"\/store\/2534-W. Hartford",
        "phone":"(203) 694-0429",
        "address":"1505 New Britain Ave.",
        "city":"W. Hartford",
        "state":"Connecticut",
        "zip":"06110-2014",
        "latitude":"41.72242",
        "longitude":"-72.76051"
    },
    {
        "store_name":"One Dayton Place",
        "store_id":"2506",
        "url":"\/store\/2506-WATERFORD",
        "phone":"(860) 442-4470",
        "address":"1 Dayton Place",
        "city":"Waterford",
        "state":"Connecticut",
        "zip":"06385-4204",
        "latitude":"41.37467",
        "longitude":"-72.13949"
    },
    {
        "store_name":"Christiana Fashion Center",
        "store_id":"2566",
        "url":"\/store\/2566-NEWARK",
        "phone":"(302) 266-7589",
        "address":"2110 Fashion Center Blvd.",
        "city":"Newark",
        "state":"Delaware",
        "zip":"19702-3245",
        "latitude":"39.67273",
        "longitude":"-75.65012"
    },
    {
        "store_name":"Route 202 Shopping Center",
        "store_id":"2463",
        "url":"\/store\/2463-WILMINGTON",
        "phone":"(302) 478-4240",
        "address":"5327 Concord Pike",
        "city":"Wilmington",
        "state":"Delaware",
        "zip":"19803-1418",
        "latitude":"39.83118",
        "longitude":"-75.54301"
    },
    {
        "store_name":"Uptown Altamonte",
        "store_id":"2418",
        "url":"\/store\/2418-ALTAMONTE SPRINGS",
        "phone":"(407) 339-0556",
        "address":"229 E Altamonte Dr.",
        "city":"Altamonte Springs",
        "state":"Florida",
        "zip":"32701-4347",
        "latitude":"28.66247",
        "longitude":"-81.38468"
    },
    {
        "store_name":"Executive Center",
        "store_id":"2515",
        "url":"\/store\/2515-BOCA RATON",
        "phone":"(561) 988-1491",
        "address":"2050, Nw Executive Center Cir.",
        "city":"Boca Raton",
        "state":"Florida",
        "zip":"33431-7375",
        "latitude":"26.36889",
        "longitude":"-80.12402"
    },
    {
        "store_name":"Boynton Commons",
        "store_id":"472",
        "url":"\/store\/472-BOYNTON BEACH",
        "phone":"(561) 742-9082",
        "address":"367 N Congress Ave.",
        "city":"Boynton Beach",
        "state":"Florida",
        "zip":"33426-3415",
        "latitude":"26.53056",
        "longitude":"-80.09106"
    },
    {
        "store_name":"Regency Square At Brandon",
        "store_id":"444",
        "url":"\/store\/444-BRANDON",
        "phone":"(813) 657-5913",
        "address":"2206 W Brandon Blvd.",
        "city":"Brandon",
        "state":"Florida",
        "zip":"33511-4713",
        "latitude":"27.93886",
        "longitude":"-82.32102"
    },
    {
        "store_name":"Clearwater Mall",
        "store_id":"445",
        "url":"\/store\/445-CLEARWATER",
        "phone":"(727) 797-4803",
        "address":"2705 Gulf To Bay Blvd.",
        "city":"Clearwater",
        "state":"Florida",
        "zip":"33759-3945",
        "latitude":"27.96003",
        "longitude":"-82.72559"
    },
    {
        "store_name":"Coconut Point",
        "store_id":"2496",
        "url":"\/store\/2496-ESTERO",
        "phone":"(239) 495-1633",
        "address":"23160 Via Villagio",
        "city":"Estero",
        "state":"Florida",
        "zip":"33928-8301",
        "latitude":"26.40212",
        "longitude":"-81.80993"
    },
    {
        "store_name":"Bal Harbour Square - Outparcel",
        "store_id":"432",
        "url":"\/store\/432-FT. LAUDERDALE",
        "phone":"(954) 630-0799",
        "address":"1630 N Federal Hwy.",
        "city":"Ft. Lauderdale",
        "state":"Florida",
        "zip":"33305-2553",
        "latitude":"26.1498",
        "longitude":"-80.11871"
    },
    {
        "store_name":"Bell Tower Shops - Outparcel",
        "store_id":"2454",
        "url":"\/store\/2454-FT. MYERS",
        "phone":"(239) 432-2663",
        "address":"5050 Bell Tower Shops Ave.",
        "city":"Ft. Myers",
        "state":"Florida",
        "zip":"33907-3838",
        "latitude":"26.54771",
        "longitude":"-81.87017"
    },
    {
        "store_name":"St. John's Town Center",
        "store_id":"2420",
        "url":"\/store\/2420-JACKSONVILLE",
        "phone":"(904) 997-8122",
        "address":"4647 Town Center Pkwy.",
        "city":"Jacksonville",
        "state":"Florida",
        "zip":"32246-7400",
        "latitude":"30.2592",
        "longitude":"-81.52851"
    },
    {
        "store_name":"Loop West",
        "store_id":"2500",
        "url":"\/store\/2500-KISSIMMEE",
        "phone":"(407) 932-0265",
        "address":"2411 W Osceola Pkwy.",
        "city":"Kissimmee",
        "state":"Florida",
        "zip":"34741-0767",
        "latitude":"28.34273",
        "longitude":"-81.42691"
    },
    {
        "store_name":"Kendall Village Cnt.\/sw 88th St.",
        "store_id":"431",
        "url":"\/store\/431-MIAMI",
        "phone":"(305) 630-3997",
        "address":"12355 Sw 88Th St.",
        "city":"Miami",
        "state":"Florida",
        "zip":"33186-1924",
        "latitude":"25.6867",
        "longitude":"-80.39252"
    },
    {
        "store_name":"Mall At Millenia",
        "store_id":"485",
        "url":"\/store\/485-ORLANDO",
        "phone":"(407) 248-9446",
        "address":"4095 Millenia Blvd.",
        "city":"Orlando",
        "state":"Florida",
        "zip":"32839-2425",
        "latitude":"28.49064",
        "longitude":"-81.42911"
    },
    {
        "store_name":"Oviedo Marketplace - Outparcel",
        "store_id":"489",
        "url":"\/store\/489-OVIEDO",
        "phone":"(407) 366-0086",
        "address":"8275 Red Bug Lake Rd.",
        "city":"Oviedo",
        "state":"Florida",
        "zip":"32765-6859",
        "latitude":"28.65594",
        "longitude":"-81.23706"
    },
    {
        "store_name":"Legacy Place - Outparcel",
        "store_id":"2430",
        "url":"\/store\/2430-PALM BEACH GARDENS",
        "phone":"(561) 625-1012",
        "address":"11360 Legacy Ave.",
        "city":"Palm Beach Gardens",
        "state":"Florida",
        "zip":"33410-3663",
        "latitude":"26.84433",
        "longitude":"-80.09014"
    },
    {
        "store_name":"Pembroke Lakes Square",
        "store_id":"2419",
        "url":"\/store\/2419-PEMBROKE PINES",
        "phone":"(954) 437-0341",
        "address":"11077 Pines Blvd.",
        "city":"Pembroke Pines",
        "state":"Florida",
        "zip":"33026-5217",
        "latitude":"26.007879",
        "longitude":"-80.295057"
    },
    {
        "store_name":"Cordova Mall",
        "store_id":"2571",
        "url":"\/store\/2571-PENSACOLA",
        "phone":"(850) 473-9331",
        "address":"5410 N 9Th Ave.",
        "city":"Pensacola",
        "state":"Florida",
        "zip":"32504-8728",
        "latitude":"30.477956",
        "longitude":"-87.208828"
    },
    {
        "store_name":"Plantation",
        "store_id":"2415",
        "url":"\/store\/2415-PLANTATION",
        "phone":"(954) 476-7306",
        "address":"12260 W Sunrise Blvd.",
        "city":"Plantation",
        "state":"Florida",
        "zip":"33323-2233",
        "latitude":"26.14527",
        "longitude":"-80.31225"
    },
    {
        "store_name":"University Town Center- Outparcel",
        "store_id":"3307",
        "url":"\/store\/3307-SARASOTA",
        "phone":"(941) 259-6289",
        "address":"67 North Cattlemen Road",
        "city":"Sarasota",
        "state":"Florida",
        "zip":"34243-4762",
        "latitude":"27.38669",
        "longitude":"-82.45627"
    },
    {
        "store_name":"Federal Highway",
        "store_id":"2532",
        "url":"\/store\/2532-STUART",
        "phone":"(772) 692-9692",
        "address":"2646 Nw Federal Hwy.",
        "city":"Stuart",
        "state":"Florida",
        "zip":"34994-9318",
        "latitude":"27.2373",
        "longitude":"-80.26979"
    },
    {
        "store_name":"Jared Vault Palm Beach Outlets",
        "store_id":"4214",
        "url":"\/store\/4214-WEST PALM BEACH",
        "phone":"(561) 687-9503",
        "address":"1781 Palm Beach Lakes Blvd",
        "city":"West Palm Beach",
        "state":"Florida",
        "zip":"33401-2053",
        "latitude":"26.72324",
        "longitude":"-80.08596"
    },
    {
        "store_name":"North Point Marketcenter",
        "store_id":"2557",
        "url":"\/store\/2557-ALPHARETTA",
        "phone":"(770) 753-0705",
        "address":"6250 North Point Pkwy.",
        "city":"Alpharetta",
        "state":"Georgia",
        "zip":"30022-4885",
        "latitude":"34.046984",
        "longitude":"-84.289862"
    },
    {
        "store_name":"Park Place",
        "store_id":"467",
        "url":"\/store\/467-ATLANTA",
        "phone":"(770) 393-4599",
        "address":"4503 Ashford-Dunwoody Rd. Ne",
        "city":"Atlanta",
        "state":"Georgia",
        "zip":"30346-1509",
        "latitude":"33.92463",
        "longitude":"-84.33753"
    },
    {
        "store_name":"Augusta Mall",
        "store_id":"2499",
        "url":"\/store\/2499-AUGUSTA",
        "phone":"(706) 736-1018",
        "address":"3450 Wrightsboro Rd.",
        "city":"Augusta",
        "state":"Georgia",
        "zip":"30909-2566",
        "latitude":"33.46309",
        "longitude":"-82.07841"
    },
    {
        "store_name":"Marketplace Mill Creek",
        "store_id":"460",
        "url":"\/store\/460-BUFORD",
        "phone":"(678) 546-0003",
        "address":"1720 Mall Of Georgia Blvd.",
        "city":"Buford",
        "state":"Georgia",
        "zip":"30519-8705",
        "latitude":"34.062343",
        "longitude":"-83.992457"
    },
    {
        "store_name":"Landings At Arbor Place",
        "store_id":"468",
        "url":"\/store\/468-DOUGLASVILLE",
        "phone":"(770) 577-0864",
        "address":"9310 The Landings Dr.",
        "city":"Douglasville",
        "state":"Georgia",
        "zip":"30135-7118",
        "latitude":"33.73015",
        "longitude":"-84.73969"
    },
    {
        "store_name":"Gwinnett Place\/pleasant Hill Rd.",
        "store_id":"436",
        "url":"\/store\/436-DULUTH",
        "phone":"(770) 497-9433",
        "address":"2150 Pleasant Hill Rd.",
        "city":"Duluth",
        "state":"Georgia",
        "zip":"30096-4630",
        "latitude":"33.95868",
        "longitude":"-84.13374"
    },
    {
        "store_name":"Town Center At Cobb-outparcel",
        "store_id":"459",
        "url":"\/store\/459-KENNESAW",
        "phone":"(678) 355-6585",
        "address":"605 W Barret Pkwy.",
        "city":"Kennesaw",
        "state":"Georgia",
        "zip":"30144-4922",
        "latitude":"34.032735",
        "longitude":"-84.611463"
    },
    {
        "store_name":"Marketplace At Stonecrest",
        "store_id":"435",
        "url":"\/store\/435-LITHONIA",
        "phone":"(678) 526-8398",
        "address":"3001 Turner Hill Rd.",
        "city":"Lithonia",
        "state":"Georgia",
        "zip":"30038-2529",
        "latitude":"33.69425",
        "longitude":"-84.08945"
    },
    {
        "store_name":"Jared Vault Tanger Outlets Locust Grove",
        "store_id":"4125",
        "url":"\/store\/4125-LOCUST GROVE",
        "phone":"(770) 914-6969",
        "address":"1000 Tanger Dr.",
        "city":"Locust Grove",
        "state":"Georgia",
        "zip":"30248-3667",
        "latitude":"33.3475",
        "longitude":"-84.1221"
    },
    {
        "store_name":"Ashley Park",
        "store_id":"2543",
        "url":"\/store\/2543-NEWNAN",
        "phone":"(678) 423-5539",
        "address":"336 Newnan Crossing Bypass",
        "city":"Newnan",
        "state":"Georgia",
        "zip":"30265-1082",
        "latitude":"33.38989",
        "longitude":"-84.76412"
    },
    {
        "store_name":"Jared Vault Tanger Outlets Savannah",
        "store_id":"3151",
        "url":"\/store\/3151-POOLER",
        "phone":"(912) 450-5252",
        "address":"200 Tanger Outlet Blvd.",
        "city":"Pooler",
        "state":"Georgia",
        "zip":"31322-3503",
        "latitude":"32.114031",
        "longitude":"-81.252678"
    },
    {
        "store_name":"Chatham Plaza",
        "store_id":"2548",
        "url":"\/store\/2548-SAVANNAH",
        "phone":"(912) 356-1883",
        "address":"7805 Abercorn St.",
        "city":"Savannah",
        "state":"Georgia",
        "zip":"31406-2442",
        "latitude":"32.00678",
        "longitude":"-81.11742"
    },
    {
        "store_name":"Jared Vault The Outlet Shoppes At Atlanta",
        "store_id":"4210",
        "url":"\/store\/4210-WOODSTOCK",
        "phone":"(770) 591-8169",
        "address":"915 Ridgewalk Pkwy.",
        "city":"Woodstock",
        "state":"Georgia",
        "zip":"30188-0010",
        "latitude":"34.11972",
        "longitude":"-84.52703"
    },
    {
        "store_name":"Westpark Towne Plaza",
        "store_id":"2428",
        "url":"\/store\/2428-BOISE",
        "phone":"(208) 321-1999",
        "address":"247 N Milwaukee St.",
        "city":"Boise",
        "state":"Idaho",
        "zip":"83704-9132",
        "latitude":"43.60704",
        "longitude":"-116.28249"
    },
    {
        "store_name":"Algonquin Commons",
        "store_id":"2412",
        "url":"\/store\/2412-ALGONQUIN",
        "phone":"(847) 458-5247",
        "address":"1504 Randall Rd.",
        "city":"Algonquin",
        "state":"Illinois",
        "zip":"60102-9754",
        "latitude":"42.15086",
        "longitude":"-88.33674"
    },
    {
        "store_name":"Meridian Square",
        "store_id":"463",
        "url":"\/store\/463-AURORA",
        "phone":"(630) 236-8550",
        "address":"1016 N Rte. 59",
        "city":"Aurora",
        "state":"Illinois",
        "zip":"60504-4920",
        "latitude":"41.77324",
        "longitude":"-88.20644"
    },
    {
        "store_name":"Promenade Pointe",
        "store_id":"2455",
        "url":"\/store\/2455-BOLINGBROOK",
        "phone":"(630) 783-0214",
        "address":"693 E Boughton Rd.",
        "city":"Bolingbrook",
        "state":"Illinois",
        "zip":"60440-2256",
        "latitude":"41.72183",
        "longitude":"-88.03972"
    },
    {
        "store_name":"St. Clair Square Mall",
        "store_id":"2436",
        "url":"\/store\/2436-FAIRVIEW HEIGHTS",
        "phone":"(618) 628-0657",
        "address":"6530 N Illinois St.",
        "city":"Fairview Heights",
        "state":"Illinois",
        "zip":"62208-2156",
        "latitude":"38.5937",
        "longitude":"-89.98473"
    },
    {
        "store_name":"Fountain Square Of Lombard",
        "store_id":"462",
        "url":"\/store\/462-LOMBARD",
        "phone":"(630) 705-1720",
        "address":"2370 Fountain Square Dr.",
        "city":"Lombard",
        "state":"Illinois",
        "zip":"60148-6010",
        "latitude":"41.84311",
        "longitude":"-87.9951"
    },
    {
        "store_name":"Orland Park Place - Outparcel",
        "store_id":"457",
        "url":"\/store\/457-ORLAND PARK",
        "phone":"(708) 364-1680",
        "address":"15341 S Lagrange Rd.",
        "city":"Orland Park",
        "state":"Illinois",
        "zip":"60462-3712",
        "latitude":"41.61113",
        "longitude":"-87.85281"
    },
    {
        "store_name":"Woodfield Road",
        "store_id":"2458",
        "url":"\/store\/2458-SCHAUMBURG",
        "phone":"(847) 995-0212",
        "address":"1700 E Woodfield Rd.",
        "city":"Schaumburg",
        "state":"Illinois",
        "zip":"60173-5153",
        "latitude":"42.04324",
        "longitude":"-88.03902"
    },
    {
        "store_name":"Vernon Hills",
        "store_id":"2437",
        "url":"\/store\/2437-VERNON HILLS",
        "phone":"(847) 680-0394",
        "address":"567 E Townline Rd",
        "city":"Vernon Hills",
        "state":"Illinois",
        "zip":"60061-1535",
        "latitude":"42.23998",
        "longitude":"-87.95072"
    },
    {
        "store_name":"Eastland Mall",
        "store_id":"2528",
        "url":"\/store\/2528-EVANSVILLE",
        "phone":"(812) 471-2799",
        "address":"700 N. Green River Rd.",
        "city":"Evansville",
        "state":"Indiana",
        "zip":"47715-2416",
        "latitude":"37.98403",
        "longitude":"-87.49316"
    },
    {
        "store_name":"Glenbrook Square",
        "store_id":"2527",
        "url":"\/store\/2527-FORT WAYNE",
        "phone":"(260) 482-3380",
        "address":"4335 Coldwater Rd.",
        "city":"Fort Wayne",
        "state":"Indiana",
        "zip":"46805-1111",
        "latitude":"41.11795",
        "longitude":"-85.1357"
    },
    {
        "store_name":"Greenwood Park Mall",
        "store_id":"2477",
        "url":"\/store\/2477-GREENWOOD",
        "phone":"(317) 881-0879",
        "address":"729 West County Line Rd.",
        "city":"Greenwood",
        "state":"Indiana",
        "zip":"46142-4362",
        "latitude":"39.63527",
        "longitude":"-86.12374"
    },
    {
        "store_name":"Keystone Crossing",
        "store_id":"2476",
        "url":"\/store\/2476-INDIANAPOLIS",
        "phone":"(317) 466-0710",
        "address":"8520 Keystone Crossing",
        "city":"Indianapolis",
        "state":"Indiana",
        "zip":"46240-2455",
        "latitude":"39.91156",
        "longitude":"-86.11058"
    },
    {
        "store_name":"Southlake Mall",
        "store_id":"2422",
        "url":"\/store\/2422-MERRILLVILLE",
        "phone":"(219) 769-6238",
        "address":"2196 Southlake Mall",
        "city":"Merrillville",
        "state":"Indiana",
        "zip":"46410-6439",
        "latitude":"41.47066",
        "longitude":"-87.30998"
    },
    {
        "store_name":"University Park Mall",
        "store_id":"2493",
        "url":"\/store\/2493-MISHAWAKA",
        "phone":"(574) 243-4966",
        "address":"6501 N Grape Rd.",
        "city":"Mishawaka",
        "state":"Indiana",
        "zip":"46545-1010",
        "latitude":"41.71973",
        "longitude":"-86.19192"
    },
    {
        "store_name":"Lindale Mall",
        "store_id":"2578",
        "url":"\/store\/2578-CEDAR RAPIDS",
        "phone":"(319) 378-0404",
        "address":"159 Collins Rd. Ne",
        "city":"Cedar Rapids",
        "state":"Iowa",
        "zip":"52402-3201",
        "latitude":"42.02726",
        "longitude":"-91.62522"
    },
    {
        "store_name":"Jordan Creek Town Center",
        "store_id":"2417",
        "url":"\/store\/2417-WEST DES MOINES",
        "phone":"(515) 222-5351",
        "address":"101 Jordan Creek Pkwy.",
        "city":"West Des Moines",
        "state":"Iowa",
        "zip":"50266-8131",
        "latitude":"41.56849",
        "longitude":"-93.8092"
    },
    {
        "store_name":"Orchard Corners",
        "store_id":"2449",
        "url":"\/store\/2449-LENEXA",
        "phone":"(913) 894-5200",
        "address":"9510 Quivira Rd.",
        "city":"Lenexa",
        "state":"Kansas",
        "zip":"66215-1670",
        "latitude":"38.95606",
        "longitude":"-94.7241"
    },
    {
        "store_name":"Corbin Park",
        "store_id":"2478",
        "url":"\/store\/2478-OVERLAND PARK",
        "phone":"(913) 851-1500",
        "address":"6675 West 135Th Street",
        "city":"Overland Park",
        "state":"Kansas",
        "zip":"66223-7898",
        "latitude":"38.88331",
        "longitude":"-94.66274"
    },
    {
        "store_name":"Crestview Hills Town Center",
        "store_id":"2450",
        "url":"\/store\/2450-CRESTVIEW HILLS",
        "phone":"(859) 344-1060",
        "address":"2935 Dixie Hwy.",
        "city":"Crestview Hills",
        "state":"Kentucky",
        "zip":"41017-2402",
        "latitude":"39.02514",
        "longitude":"-84.58152"
    },
    {
        "store_name":"Target Center",
        "store_id":"2432",
        "url":"\/store\/2432-LEXINGTON",
        "phone":"(859) 271-0138",
        "address":"111 W Reynolds Rd.",
        "city":"Lexington",
        "state":"Kentucky",
        "zip":"40503-3685",
        "latitude":"37.99238",
        "longitude":"-84.52425"
    },
    {
        "store_name":"Mall St. Matthews",
        "store_id":"2517",
        "url":"\/store\/2517-LOUISVILLE",
        "phone":"(502) 891-6374",
        "address":"4972 Shelbyville Rd.",
        "city":"Louisville",
        "state":"Kentucky",
        "zip":"40207-3306",
        "latitude":"38.24995",
        "longitude":"-85.62484"
    },
    {
        "store_name":"Mall Of Louisiana - Outparcel",
        "store_id":"2519",
        "url":"\/store\/2519-BATON ROUGE",
        "phone":"(225) 761-7300",
        "address":"6071 Bluebonnet Blvd.",
        "city":"Baton Rouge",
        "state":"Louisiana",
        "zip":"70836-6000",
        "latitude":"30.39297",
        "longitude":"-91.08779"
    },
    {
        "store_name":"Ambassador Row Courtyards",
        "store_id":"2552",
        "url":"\/store\/2552-LAFAYETTE",
        "phone":"(337) 993-9220",
        "address":"3601 Ambassador Caffery Pkwy.",
        "city":"Lafayette",
        "state":"Louisiana",
        "zip":"70503-5132",
        "latitude":"30.17576",
        "longitude":"-92.0711"
    },
    {
        "store_name":"Metairie",
        "store_id":"2416",
        "url":"\/store\/2416-METAIRIE",
        "phone":"(504) 885-2221",
        "address":"3400 Veterans Memorial Blvd.",
        "city":"Metairie",
        "state":"Louisiana",
        "zip":"70002-4807",
        "latitude":"30.00323",
        "longitude":"-90.15845"
    },
    {
        "store_name":"Maine Mall",
        "store_id":"2448",
        "url":"\/store\/2448-SOUTH PORTLAND",
        "phone":"(207) 773-5080",
        "address":"7 Philbrook Ave.",
        "city":"South Portland",
        "state":"Maine",
        "zip":"04106-3208",
        "latitude":"43.63224",
        "longitude":"-70.33895"
    },
    {
        "store_name":"Westfield Annapolis",
        "store_id":"2470",
        "url":"\/store\/2470-ANNAPOLIS",
        "phone":"(410) 573-0160",
        "address":"180 Jennifer Rd.",
        "city":"Annapolis",
        "state":"Maryland",
        "zip":"21401-3269",
        "latitude":"38.98784",
        "longitude":"-76.54376"
    },
    {
        "store_name":"Spectrum Drive",
        "store_id":"2594",
        "url":"\/store\/2594-FREDERICK",
        "phone":"(240) 549-5483",
        "address":"5617 Spectrum Dr.",
        "city":"Frederick",
        "state":"Maryland",
        "zip":"21703-8301",
        "latitude":"39.38342",
        "longitude":"-77.40195"
    },
    {
        "store_name":"Arundel Mills - Outparcel",
        "store_id":"470",
        "url":"\/store\/470-HANOVER",
        "phone":"(410) 579-8595",
        "address":"7684 Arundel Mills Blvd.",
        "city":"Hanover",
        "state":"Maryland",
        "zip":"21076-1385",
        "latitude":"39.15323",
        "longitude":"-76.7296"
    },
    {
        "store_name":"White Marsh Mall",
        "store_id":"2471",
        "url":"\/store\/2471-NOTTINGHAM",
        "phone":"(410) 931-5380",
        "address":"8332 Honeygo Blvd.",
        "city":"Nottingham",
        "state":"Maryland",
        "zip":"21236-5906",
        "latitude":"39.37296",
        "longitude":"-76.46342"
    },
    {
        "store_name":"Waldorf Marketplace",
        "store_id":"2431",
        "url":"\/store\/2431-WALDORF",
        "phone":"(301) 638-0692",
        "address":"3088 Waldorf Market Place",
        "city":"Waldorf",
        "state":"Maryland",
        "zip":"20603-4872",
        "latitude":"38.62765",
        "longitude":"-76.91468"
    },
    {
        "store_name":"Braintree",
        "store_id":"2518",
        "url":"\/store\/2518-BRAINTREE",
        "phone":"(781) 848-3254",
        "address":"20 Forbes Rd.",
        "city":"Braintree",
        "state":"Massachusetts",
        "zip":"02184-2602",
        "latitude":"42.22015",
        "longitude":"-71.02975"
    },
    {
        "store_name":"Wayside Commons",
        "store_id":"2445",
        "url":"\/store\/2445-BURLINGTON",
        "phone":"(781) 270-2373",
        "address":"8 Wayside Rd.",
        "city":"Burlington",
        "state":"Massachusetts",
        "zip":"01803-4603",
        "latitude":"42.48502",
        "longitude":"-71.19307"
    },
    {
        "store_name":"Legacy Place",
        "store_id":"2570",
        "url":"\/store\/2570-DEDHAM",
        "phone":"(781) 320-8312",
        "address":"404 Legacy Place",
        "city":"Dedham",
        "state":"Massachusetts",
        "zip":"02026-6830",
        "latitude":"42.23142",
        "longitude":"-71.17926"
    },
    {
        "store_name":"Marketplace Square",
        "store_id":"2584",
        "url":"\/store\/2584-NORTH ATTLEBORO",
        "phone":"(508) 316-9034",
        "address":"1174 South Washington St.",
        "city":"North Attleboro",
        "state":"Massachusetts",
        "zip":"02760-4446",
        "latitude":"41.94272",
        "longitude":"-71.34813"
    },
    {
        "store_name":"Colony Place At Plymouth",
        "store_id":"2446",
        "url":"\/store\/2446-PLYMOUTH",
        "phone":"(508) 747-5281",
        "address":"260 Colony Place Rd.",
        "city":"Plymouth",
        "state":"Massachusetts",
        "zip":"02360-7234",
        "latitude":"41.953902",
        "longitude":"-70.715729"
    },
    {
        "store_name":"Great Lakes Crossing - Outparcel",
        "store_id":"474",
        "url":"\/store\/474-AUBURN HILLS",
        "phone":"(248) 253-0488",
        "address":"3960 Baldwin Rd.",
        "city":"Auburn Hills",
        "state":"Michigan",
        "zip":"48326-1219",
        "latitude":"42.70161",
        "longitude":"-83.3049"
    },
    {
        "store_name":"Woodland Corner Shops",
        "store_id":"2489",
        "url":"\/store\/2489-GRAND RAPIDS",
        "phone":"(616) 956-6173",
        "address":"3450 28Th St. Se",
        "city":"Grand Rapids",
        "state":"Michigan",
        "zip":"49512-1602",
        "latitude":"42.91201",
        "longitude":"-85.58204"
    },
    {
        "store_name":"Rivertown Crossings",
        "store_id":"433",
        "url":"\/store\/433-GRANDVILLE",
        "phone":"(616) 249-8229",
        "address":"3610 Rivertown Pkwy. Sw",
        "city":"Grandville",
        "state":"Michigan",
        "zip":"49418-3007",
        "latitude":"42.88179",
        "longitude":"-85.75337"
    },
    {
        "store_name":"West Oaks Ii",
        "store_id":"492",
        "url":"\/store\/492-NOVI",
        "phone":"(248) 449-6613",
        "address":"27795 Novi Rd.",
        "city":"Novi",
        "state":"Michigan",
        "zip":"48377-3462",
        "latitude":"42.49376",
        "longitude":"-83.47679"
    },
    {
        "store_name":"South Westnedge Ave.",
        "store_id":"2560",
        "url":"\/store\/2560-PORTAGE",
        "phone":"(269) 321-3016",
        "address":"6307 S. Westnedge Ave.",
        "city":"Portage",
        "state":"Michigan",
        "zip":"49002-3545",
        "latitude":"42.22557",
        "longitude":"-85.5891"
    },
    {
        "store_name":"Utica Park Place",
        "store_id":"481",
        "url":"\/store\/481-UTICA",
        "phone":"(586) 997-9500",
        "address":"45011 Utica Park Blvd.",
        "city":"Utica",
        "state":"Michigan",
        "zip":"48315-5951",
        "latitude":"42.627",
        "longitude":"-83.00802"
    },
    {
        "store_name":"Burnsville Center",
        "store_id":"2440",
        "url":"\/store\/2440-BURNSVILLE",
        "phone":"(952) 898-1414",
        "address":"801 County Rd. 42 W",
        "city":"Burnsville",
        "state":"Minnesota",
        "zip":"55306-4413",
        "latitude":"44.7461",
        "longitude":"-93.28748"
    },
    {
        "store_name":"Southdale Square Shopping Center",
        "store_id":"2404",
        "url":"\/store\/2404-EDINA",
        "phone":"(612) 861-1800",
        "address":"6569 York Ave S",
        "city":"Edina",
        "state":"Minnesota",
        "zip":"55435-2356",
        "latitude":"44.88368",
        "longitude":"-93.31967"
    },
    {
        "store_name":"Shoppes At Arbor Lakes",
        "store_id":"2402",
        "url":"\/store\/2402-MAPLE GROVE",
        "phone":"(763) 424-3872",
        "address":"11905 Elm Creek Blvd. N",
        "city":"Maple Grove",
        "state":"Minnesota",
        "zip":"55369-7095",
        "latitude":"45.09356",
        "longitude":"-93.43219"
    },
    {
        "store_name":"Maplewood Mall - Outparcel",
        "store_id":"2403",
        "url":"\/store\/2403-MAPLEWOOD",
        "phone":"(651) 748-0246",
        "address":"3081 White Bear Ave. N",
        "city":"Maplewood",
        "state":"Minnesota",
        "zip":"55109-1309",
        "latitude":"45.03458",
        "longitude":"-93.01817"
    },
    {
        "store_name":"Jared Vault St. Louis Premium Outlets",
        "store_id":"4213",
        "url":"\/store\/4213-CHESTERFIELD",
        "phone":"(636) 778-2306",
        "address":"18527 Outlet Blvd.",
        "city":"Chesterfield",
        "state":"Missouri",
        "zip":"63005-0019",
        "latitude":"38.67795",
        "longitude":"-90.66191"
    },
    {
        "store_name":"Independence Center",
        "store_id":"2490",
        "url":"\/store\/2490-INDEPENDENCE",
        "phone":"(816) 795-7880",
        "address":"18813 East 39Th St. S",
        "city":"Independence",
        "state":"Missouri",
        "zip":"64057",
        "latitude":"39.04773",
        "longitude":"-94.35519"
    },
    {
        "store_name":"Eastgate Power Center",
        "store_id":"465",
        "url":"\/store\/465-HENDERSON",
        "phone":"(702) 898-7392",
        "address":"1071 W Sunset Rd.",
        "city":"Henderson",
        "state":"Nevada",
        "zip":"89014-6603",
        "latitude":"36.06316",
        "longitude":"-115.03457"
    },
    {
        "store_name":"Best In The West",
        "store_id":"484",
        "url":"\/store\/484-LAS VEGAS",
        "phone":"(702) 647-6722",
        "address":"2110 N Rainbow",
        "city":"Las Vegas",
        "state":"Nevada",
        "zip":"89108-7351",
        "latitude":"36.19796",
        "longitude":"-115.24136"
    },
    {
        "store_name":"Summit Sierra",
        "store_id":"2424",
        "url":"\/store\/2424-RENO",
        "phone":"(775) 850-2020",
        "address":"13957 S Virginia St.",
        "city":"Reno",
        "state":"Nevada",
        "zip":"89511-8917",
        "latitude":"39.40156",
        "longitude":"-119.75026"
    },
    {
        "store_name":"Patriot's Place Shopping Center",
        "store_id":"2443",
        "url":"\/store\/2443-CONCORD",
        "phone":"(603) 223-6847",
        "address":"297 Loudon Rd.",
        "city":"Concord",
        "state":"New Hampshire",
        "zip":"03301-6056",
        "latitude":"43.22773",
        "longitude":"-71.48495"
    },
    {
        "store_name":"Mall Of New Hampshire",
        "store_id":"2468",
        "url":"\/store\/2468-MANCHESTER",
        "phone":"(603) 623-4089",
        "address":"1571 South Willow St.",
        "city":"Manchester",
        "state":"New Hampshire",
        "zip":"03103-3212",
        "latitude":"42.9535",
        "longitude":"-71.43725"
    },
    {
        "store_name":"Jared Vault Merrimack Premium Outlets",
        "store_id":"4203",
        "url":"\/store\/4203-MERRIMACK",
        "phone":"(603) 424-7573",
        "address":"80 Premium Outlets Blvd.",
        "city":"Merrimack",
        "state":"New Hampshire",
        "zip":"03054-4770",
        "latitude":"42.8265",
        "longitude":"-71.49895"
    },
    {
        "store_name":"Crossings At Fox Run",
        "store_id":"2444",
        "url":"\/store\/2444-NEWINGTON",
        "phone":"(603) 431-0297",
        "address":"65 Gosling Rd.",
        "city":"Newington",
        "state":"New Hampshire",
        "zip":"03801-3144",
        "latitude":"43.09399",
        "longitude":"-70.7962"
    },
    {
        "store_name":"Monmouth Mall",
        "store_id":"2483",
        "url":"\/store\/2483-EATONTOWN",
        "phone":"(732) 542-0998",
        "address":"184 Highway 35",
        "city":"Eatontown",
        "state":"New Jersey",
        "zip":"07724-2012",
        "latitude":"40.290687",
        "longitude":"-74.058225"
    },
    {
        "store_name":"Freehold Raceway Mall",
        "store_id":"2497",
        "url":"\/store\/2497-FREEHOLD",
        "phone":"(732) 625-1022",
        "address":"3710 Route 9",
        "city":"Freehold",
        "state":"New Jersey",
        "zip":"07728",
        "latitude":"40.2585",
        "longitude":"-74.276063"
    },
    {
        "store_name":"Outlets At Bergen Town Center",
        "store_id":"2482",
        "url":"\/store\/2482-PARAMUS",
        "phone":"(201) 226-0850",
        "address":"1500 Bergen Town Center",
        "city":"Paramus",
        "state":"New Jersey",
        "zip":"07652-5024",
        "latitude":"40.91716",
        "longitude":"-74.06075"
    },
    {
        "store_name":"West Borough Of Watchung",
        "store_id":"2481",
        "url":"\/store\/2481-WATCHUNG",
        "phone":"(908) 222-8738",
        "address":"1529 Rt. 22 West",
        "city":"Watchung",
        "state":"New Jersey",
        "zip":"07069-6507",
        "latitude":"40.638477",
        "longitude":"-74.445085"
    },
    {
        "store_name":"Wayne Towne Center",
        "store_id":"2579",
        "url":"\/store\/2579-WAYNE",
        "phone":"(973) 837-8648",
        "address":"115 Route 23",
        "city":"Wayne",
        "state":"New Jersey",
        "zip":"07470-6900",
        "latitude":"40.940348",
        "longitude":"-74.244973"
    },
    {
        "store_name":"Deptford Landing",
        "store_id":"2475",
        "url":"\/store\/2475-WOODBURY",
        "phone":"(856) 251-6956",
        "address":"2000 Clements Bridge Rd.",
        "city":"Woodbury",
        "state":"New Jersey",
        "zip":"08096-2016",
        "latitude":"39.84187",
        "longitude":"-75.09096"
    },
    {
        "store_name":"Abq Uptown",
        "store_id":"2425",
        "url":"\/store\/2425-ALBUQUERQUE",
        "phone":"(505) 830-3075",
        "address":"2260 Louisiana Blvd. Ne",
        "city":"Albuquerque",
        "state":"New Mexico",
        "zip":"87110-3585",
        "latitude":"35.10394",
        "longitude":"-106.56843"
    },
    {
        "store_name":"Boulevard Consumer Square",
        "store_id":"2513",
        "url":"\/store\/2513-AMHERST",
        "phone":"(716) 833-4359",
        "address":"1591 Niagara Falls Blvd.",
        "city":"Amherst",
        "state":"New York",
        "zip":"14228-2704",
        "latitude":"42.99914",
        "longitude":"-78.82177"
    },
    {
        "store_name":"Cabela's Crossing",
        "store_id":"2421",
        "url":"\/store\/2421-BUFFALO",
        "phone":"(716) 685-0328",
        "address":"2009 Walden Ave.",
        "city":"Buffalo",
        "state":"New York",
        "zip":"14225-5113",
        "latitude":"42.9081",
        "longitude":"-78.7637"
    },
    {
        "store_name":"Carle Place Common - Outparcel",
        "store_id":"2530",
        "url":"\/store\/2530-CARLE PLACE",
        "phone":"(516) 747-0528",
        "address":"195 Old Country Rd.",
        "city":"Carle Place",
        "state":"New York",
        "zip":"11514-1907",
        "latitude":"40.7438",
        "longitude":"-73.61363"
    },
    {
        "store_name":"Lake Grove Commons",
        "store_id":"2512",
        "url":"\/store\/2512-LAKE GROVE",
        "phone":"(631) 580-4780",
        "address":"160 New Moriches Rd.",
        "city":"Lake Grove",
        "state":"New York",
        "zip":"11755-1300",
        "latitude":"40.867848",
        "longitude":"-73.127036"
    },
    {
        "store_name":"Jay Scutti Plaza",
        "store_id":"446",
        "url":"\/store\/446-ROCHESTER",
        "phone":"(585) 424-3950",
        "address":"300 Hylan Dr.",
        "city":"Rochester",
        "state":"New York",
        "zip":"14623-4216",
        "latitude":"43.08576",
        "longitude":"-77.62776"
    },
    {
        "store_name":"Destiny Usa",
        "store_id":"2569",
        "url":"\/store\/2569-SYRACUSE",
        "phone":"(315) 424-1091",
        "address":"10381 Destiny Usa Dr",
        "city":"Syracuse",
        "state":"New York",
        "zip":"13204-9017",
        "latitude":"43.068347",
        "longitude":"-76.169966"
    },
    {
        "store_name":"Asheville Market",
        "store_id":"2561",
        "url":"\/store\/2561-ASHEVILLE",
        "phone":"(828) 298-0518",
        "address":"4 S Tunnel Rd.",
        "city":"Asheville",
        "state":"North Carolina",
        "zip":"28805-2463",
        "latitude":"35.58255",
        "longitude":"-82.52465"
    },
    {
        "store_name":"Cary Towne Center",
        "store_id":"427",
        "url":"\/store\/427-CARY",
        "phone":"(919) 460-8998",
        "address":"1109 Walnut St.",
        "city":"Cary",
        "state":"North Carolina",
        "zip":"27511-4734",
        "latitude":"35.77114",
        "longitude":"-78.76249"
    },
    {
        "store_name":"Northlake Village",
        "store_id":"2461",
        "url":"\/store\/2461-CHARLOTTE",
        "phone":"(704) 921-0742",
        "address":"10331 Perimeter Pkwy.",
        "city":"Charlotte",
        "state":"North Carolina",
        "zip":"28216-2412",
        "latitude":"35.34482",
        "longitude":"-80.853328"
    },
    {
        "store_name":"Pavilion At King's Grant",
        "store_id":"426",
        "url":"\/store\/426-CONCORD",
        "phone":"(704) 979-6070",
        "address":"8030 Concord Mills Blvd.",
        "city":"Concord",
        "state":"North Carolina",
        "zip":"28027-4417",
        "latitude":"35.37247",
        "longitude":"-80.71818"
    },
    {
        "store_name":"Renaissance Center",
        "store_id":"429",
        "url":"\/store\/429-DURHAM",
        "phone":"(919) 572-9932",
        "address":"6813 Fayetteville Rd.",
        "city":"Durham",
        "state":"North Carolina",
        "zip":"27713-1321",
        "latitude":"35.90469",
        "longitude":"-78.93725"
    },
    {
        "store_name":"Wendover Avenue",
        "store_id":"2504",
        "url":"\/store\/2504-GREENSBORO",
        "phone":"(336) 855-0578",
        "address":"4405 West Wendover Ave.",
        "city":"Greensboro",
        "state":"North Carolina",
        "zip":"27407-2632",
        "latitude":"36.05543",
        "longitude":"-79.89499"
    },
    {
        "store_name":"Jared Vault Tanger Outlets Mebane",
        "store_id":"4198",
        "url":"\/store\/4198-MEBANE",
        "phone":"(919) 563-2471",
        "address":"4000 Arrowhead Blvd.",
        "city":"Mebane",
        "state":"North Carolina",
        "zip":"27302-7645",
        "latitude":"36.07466",
        "longitude":"-79.26868"
    },
    {
        "store_name":"Carolina Place Parkway",
        "store_id":"425",
        "url":"\/store\/425-PINEVILLE",
        "phone":"(704) 752-7800",
        "address":"9530 Pineville Matthews Rd.",
        "city":"Pineville",
        "state":"North Carolina",
        "zip":"28134-8806",
        "latitude":"35.08703",
        "longitude":"-80.87914"
    },
    {
        "store_name":"Capital Boulevard",
        "store_id":"424",
        "url":"\/store\/424-RALEIGH",
        "phone":"(919) 792-9280",
        "address":"6100 Capital Blvd.",
        "city":"Raleigh",
        "state":"North Carolina",
        "zip":"27616-2942",
        "latitude":"35.86814",
        "longitude":"-78.581"
    },
    {
        "store_name":"Hanes Mall Blvd.",
        "store_id":"2521",
        "url":"\/store\/2521-WINSTON SALEM",
        "phone":"(336) 765-7779",
        "address":"1976 S Stratford Rd.",
        "city":"Winston Salem",
        "state":"North Carolina",
        "zip":"27103-2909",
        "latitude":"36.06419",
        "longitude":"-80.3108"
    },
    {
        "store_name":"Montrose Centre",
        "store_id":"477",
        "url":"\/store\/477-AKRON",
        "phone":"(330) 665-1994",
        "address":"3900 Medina Rd.",
        "city":"Akron",
        "state":"Ohio",
        "zip":"44333-4508",
        "latitude":"41.13525",
        "longitude":"-81.63873"
    },
    {
        "store_name":"Mall At Fairfield Commons",
        "store_id":"2439",
        "url":"\/store\/2439-BEAVERCREEK",
        "phone":"(937) 426-7962",
        "address":"2711 Fairfield Commons Blvd.",
        "city":"Beavercreek",
        "state":"Ohio",
        "zip":"45431-3776",
        "latitude":"39.7644",
        "longitude":"-84.0535"
    },
    {
        "store_name":"Fashion Square",
        "store_id":"2555",
        "url":"\/store\/2555-BOARDMAN",
        "phone":"(330) 758-3004",
        "address":"7415 Market St.",
        "city":"Boardman",
        "state":"Ohio",
        "zip":"44512-5614",
        "latitude":"41.02146",
        "longitude":"-80.66199"
    },
    {
        "store_name":"Belden Park Crossings",
        "store_id":"417",
        "url":"\/store\/417-CANTON",
        "phone":"(330) 966-9709",
        "address":"4381 Everhard Road Nw",
        "city":"Canton",
        "state":"Ohio",
        "zip":"44718-2403",
        "latitude":"40.85949",
        "longitude":"-81.4302"
    },
    {
        "store_name":"Sycamore Plaza At Kenwood",
        "store_id":"2451",
        "url":"\/store\/2451-CINCINNATI",
        "phone":"(513) 791-7677",
        "address":"7500 Kenwood Rd.",
        "city":"Cincinnati",
        "state":"Ohio",
        "zip":"45236-2812",
        "latitude":"39.19871",
        "longitude":"-84.37992"
    },
    {
        "store_name":"Polaris Towne Center",
        "store_id":"461",
        "url":"\/store\/461-COLUMBUS",
        "phone":"(614) 433-0671",
        "address":"1499 Polaris Pkwy.",
        "city":"Columbus",
        "state":"Ohio",
        "zip":"43240-2041",
        "latitude":"40.14075",
        "longitude":"-82.97887"
    },
    {
        "store_name":"Morse Crossing",
        "store_id":"2495",
        "url":"\/store\/2495-COLUMBUS",
        "phone":"(614) 476-6532",
        "address":"4159 Morse Crossing",
        "city":"Columbus",
        "state":"Ohio",
        "zip":"43219-6015",
        "latitude":"40.0552",
        "longitude":"-82.91902"
    },
    {
        "store_name":"Plaza At Chapel Hill",
        "store_id":"475",
        "url":"\/store\/475-CUYAHOGA FALLS",
        "phone":"(330) 923-5200",
        "address":"380 Howe Ave.",
        "city":"Cuyahoga Falls",
        "state":"Ohio",
        "zip":"44221-4910",
        "latitude":"41.11864",
        "longitude":"-81.48067"
    },
    {
        "store_name":"Dayton Mall",
        "store_id":"2438",
        "url":"\/store\/2438-DAYTON",
        "phone":"(937) 432-9328",
        "address":"2760 Miamisburg Centerville Rd",
        "city":"Dayton",
        "state":"Ohio",
        "zip":"45459-3730",
        "latitude":"39.63651",
        "longitude":"-84.21998"
    },
    {
        "store_name":"Tuttle Crossing - Outparcel",
        "store_id":"447",
        "url":"\/store\/447-DUBLIN",
        "phone":"(614) 336-8576",
        "address":"5061 Tuttle Crossing Blvd.",
        "city":"Dublin",
        "state":"Ohio",
        "zip":"43016-1533",
        "latitude":"40.07575",
        "longitude":"-83.1301"
    },
    {
        "store_name":"Great Northern Mall",
        "store_id":"491",
        "url":"\/store\/491-NORTH OLMSTED",
        "phone":"(440) 686-0436",
        "address":"25851 Brookpark Rd.",
        "city":"North Olmsted",
        "state":"Ohio",
        "zip":"44070-3346",
        "latitude":"41.41838",
        "longitude":"-81.91111"
    },
    {
        "store_name":"Tri-county Towne Center",
        "store_id":"2474",
        "url":"\/store\/2474-SPRINGDALE",
        "phone":"(513) 671-2532",
        "address":"11681 Princeton Pike",
        "city":"Springdale",
        "state":"Ohio",
        "zip":"45246-2503",
        "latitude":"39.28973",
        "longitude":"-84.46731"
    },
    {
        "store_name":"The Plaza At Southpark",
        "store_id":"2510",
        "url":"\/store\/2510-STRONGSVILLE",
        "phone":"(440) 238-5682",
        "address":"16760 Royalton Rd.",
        "city":"Strongsville",
        "state":"Ohio",
        "zip":"44136-4435",
        "latitude":"41.31354",
        "longitude":"-81.81695"
    },
    {
        "store_name":"Franklin Park",
        "store_id":"466",
        "url":"\/store\/466-TOLEDO",
        "phone":"(419) 480-0072",
        "address":"5011 Monroe St.",
        "city":"Toledo",
        "state":"Ohio",
        "zip":"43623-3603",
        "latitude":"41.69803",
        "longitude":"-83.64209"
    },
    {
        "store_name":"Jared Vault Outlet Shoppes At Oklahoma City",
        "store_id":"4199",
        "url":"\/store\/4199-OKLAHOMA CITY",
        "phone":"(405) 787-2309",
        "address":"7638 W Reno Ave.",
        "city":"Oklahoma City",
        "state":"Oklahoma",
        "zip":"73127-9747",
        "latitude":"35.46401",
        "longitude":"-97.65034"
    },
    {
        "store_name":"Southern Trails Shopping Center",
        "store_id":"2433",
        "url":"\/store\/2433-TULSA",
        "phone":"(918) 307-0867",
        "address":"8522 East 71St St.",
        "city":"Tulsa",
        "state":"Oklahoma",
        "zip":"74133-2909",
        "latitude":"36.0604",
        "longitude":"-95.88048"
    },
    {
        "store_name":"Tanasbourne",
        "store_id":"2467",
        "url":"\/store\/2467-HILLSBORO",
        "phone":"(503) 645-0702",
        "address":"10200 Ne Cornell Rd.",
        "city":"Hillsboro",
        "state":"Oregon",
        "zip":"97124-9213",
        "latitude":"45.53399",
        "longitude":"-122.87551"
    },
    {
        "store_name":"Pointe At Bridgeport",
        "store_id":"2459",
        "url":"\/store\/2459-TIGARD",
        "phone":"(503) 598-7431",
        "address":"7162 Sw Hazelfern Rd.",
        "city":"Tigard",
        "state":"Oregon",
        "zip":"97224-7762",
        "latitude":"45.39539",
        "longitude":"-122.74992"
    },
    {
        "store_name":"Millcreek Marketplace",
        "store_id":"2550",
        "url":"\/store\/2550-ERIE",
        "phone":"(814) 868-8902",
        "address":"2081 Interchange Rd.",
        "city":"Erie",
        "state":"Pennsylvania",
        "zip":"16509-8315",
        "latitude":"42.064645",
        "longitude":"-80.098007"
    },
    {
        "store_name":"Harrisburg Pike",
        "store_id":"2549",
        "url":"\/store\/2549-LANCASTER",
        "phone":"(717) 207-0139",
        "address":"1476 Harrisburg Pike",
        "city":"Lancaster",
        "state":"Pennsylvania",
        "zip":"17601-2630",
        "latitude":"40.06379",
        "longitude":"-76.34145"
    },
    {
        "store_name":"Oxford Valley Mall",
        "store_id":"2523",
        "url":"\/store\/2523-LANGHORNE",
        "phone":"(215) 757-1476",
        "address":"750 Middletown Blvd.",
        "city":"Langhorne",
        "state":"Pennsylvania",
        "zip":"19047-1854",
        "latitude":"40.18041",
        "longitude":"-74.87624"
    },
    {
        "store_name":"Holiday Centre",
        "store_id":"420",
        "url":"\/store\/420-MONROEVILLE",
        "phone":"(412) 374-0956",
        "address":"3767 William Penn Hwy.",
        "city":"Monroeville",
        "state":"Pennsylvania",
        "zip":"15146-2125",
        "latitude":"40.43714",
        "longitude":"-79.78598"
    },
    {
        "store_name":"Pointe At North Fayette",
        "store_id":"442",
        "url":"\/store\/442-PITTSBURGH",
        "phone":"(412) 809-9050",
        "address":"100 Mcholme Dr.",
        "city":"Pittsburgh",
        "state":"Pennsylvania",
        "zip":"15275-1209",
        "latitude":"40.44975",
        "longitude":"-80.17549"
    },
    {
        "store_name":"South Hills Village",
        "store_id":"2494",
        "url":"\/store\/2494-PITTSBURGH",
        "phone":"(412) 831-6192",
        "address":"161 Fort Couch Rd.",
        "city":"Pittsburgh",
        "state":"Pennsylvania",
        "zip":"15241-1007",
        "latitude":"40.34524",
        "longitude":"-80.05438"
    },
    {
        "store_name":"Ross Park\/mcknight Rd.",
        "store_id":"419",
        "url":"\/store\/419-PITTSBURGH",
        "phone":"(412) 369-6890",
        "address":"7381 Mcknight Rd.",
        "city":"Pittsburgh",
        "state":"Pennsylvania",
        "zip":"15237-3511",
        "latitude":"40.53901",
        "longitude":"-80.01226"
    },
    {
        "store_name":"Willow Grove",
        "store_id":"2509",
        "url":"\/store\/2509-WILLOW GROVE",
        "phone":"(215) 659-0128",
        "address":"10 Park Ave.",
        "city":"Willow Grove",
        "state":"Pennsylvania",
        "zip":"19090-3218",
        "latitude":"40.14299",
        "longitude":"-75.11749"
    },
    {
        "store_name":"Warwick Mall",
        "store_id":"2568",
        "url":"\/store\/2568-WARWICK",
        "phone":"(401) 738-0412",
        "address":"205 Lambert Lind Hwy.",
        "city":"Warwick",
        "state":"Rhode Island",
        "zip":"02886-1164",
        "latitude":"41.72642",
        "longitude":"-71.47429"
    },
    {
        "store_name":"Columbiana Centre",
        "store_id":"2520",
        "url":"\/store\/2520-COLUMBIA",
        "phone":"(803) 407-5105",
        "address":"343 Harbison Blvd.",
        "city":"Columbia",
        "state":"South Carolina",
        "zip":"29212-2224",
        "latitude":"34.07581",
        "longitude":"-81.15509"
    },
    {
        "store_name":"Magnolia Park",
        "store_id":"2544",
        "url":"\/store\/2544-GREENVILLE",
        "phone":"(864) 627-2126",
        "address":"1025 Woodruff Rd.",
        "city":"Greenville",
        "state":"South Carolina",
        "zip":"29607-4132",
        "latitude":"34.83385",
        "longitude":"-82.30712"
    },
    {
        "store_name":"Jared Vault Tanger Outlets 17 N Myrtle Beach",
        "store_id":"4144",
        "url":"\/store\/4144-MYRTLE BEACH",
        "phone":"(843) 449-3871",
        "address":"10835 Kings Rd Ste 225",
        "city":"Myrtle Beach",
        "state":"South Carolina",
        "zip":"29572",
        "latitude":"33.68484",
        "longitude":"-78.961958"
    },
    {
        "store_name":"Hamilton Place",
        "store_id":"2429",
        "url":"\/store\/2429-CHATTANOOGA",
        "phone":"(423) 499-5696",
        "address":"2001 Gunbarrel Rd.",
        "city":"Chattanooga",
        "state":"Tennessee",
        "zip":"37421-2606",
        "latitude":"35.03072",
        "longitude":"-85.1559"
    },
    {
        "store_name":"Shops At Carriage Crossing - Out",
        "store_id":"2487",
        "url":"\/store\/2487-COLLIERVILLE",
        "phone":"(901) 854-0965",
        "address":"4615 Merchants Park Circle",
        "city":"Collierville",
        "state":"Tennessee",
        "zip":"38017-9112",
        "latitude":"35.02075",
        "longitude":"-89.71981"
    },
    {
        "store_name":"Countrywood Crossing",
        "store_id":"2486",
        "url":"\/store\/2486-CORDOVA",
        "phone":"(901) 386-5805",
        "address":"2293 N Germantown Pkwy.",
        "city":"Cordova",
        "state":"Tennessee",
        "zip":"38016-7409",
        "latitude":"35.18814",
        "longitude":"-89.79288"
    },
    {
        "store_name":"Thoroughbred Village Shopping Ctr",
        "store_id":"458",
        "url":"\/store\/458-FRANKLIN",
        "phone":"(615) 771-3922",
        "address":"549 Cool Springs Blvd.",
        "city":"Franklin",
        "state":"Tennessee",
        "zip":"37067-2680",
        "latitude":"35.947108",
        "longitude":"-86.82175"
    },
    {
        "store_name":"Rivergate Parkway",
        "store_id":"428",
        "url":"\/store\/428-GOODLETTSVILLE",
        "phone":"(615) 855-2200",
        "address":"914 Rivergate Pkwy.",
        "city":"Goodlettsville",
        "state":"Tennessee",
        "zip":"37072-2323",
        "latitude":"36.29915",
        "longitude":"-86.69969"
    },
    {
        "store_name":"Centre At Deane Hill",
        "store_id":"488",
        "url":"\/store\/488-KNOXVILLE",
        "phone":"(865) 691-8018",
        "address":"222 Morrell Rd.",
        "city":"Knoxville",
        "state":"Tennessee",
        "zip":"37919-5876",
        "latitude":"35.92558",
        "longitude":"-84.03362"
    },
    {
        "store_name":"Avenue At Murfreesboro - Outparcel",
        "store_id":"2502",
        "url":"\/store\/2502-MURFREESBORO",
        "phone":"(615) 893-5523",
        "address":"2645 Medical Center Pkwy.",
        "city":"Murfreesboro",
        "state":"Tennessee",
        "zip":"37129-2257",
        "latitude":"35.85924",
        "longitude":"-86.44468"
    },
    {
        "store_name":"Jared Vault Tanger Outlets Sevierville",
        "store_id":"4073",
        "url":"\/store\/4073-SEVIERVILLE",
        "phone":"(865) 428-8090",
        "address":"1645 Pkwy.",
        "city":"Sevierville",
        "state":"Tennessee",
        "zip":"37862-2898",
        "latitude":"35.83336",
        "longitude":"-83.57078"
    },
    {
        "store_name":"Parks At Arlington - Outparcel",
        "store_id":"448",
        "url":"\/store\/448-ARLINGTON",
        "phone":"(817) 784-2744",
        "address":"3951 S Cooper St.",
        "city":"Arlington",
        "state":"Texas",
        "zip":"76015-4124",
        "latitude":"32.68166",
        "longitude":"-97.13328"
    },
    {
        "store_name":"Shops At Arbor Trails",
        "store_id":"2457",
        "url":"\/store\/2457-AUSTIN",
        "phone":"(512) 358-0277",
        "address":"4301 W Wm Cannon Dr.",
        "city":"Austin",
        "state":"Texas",
        "zip":"78749-1473",
        "latitude":"30.210677",
        "longitude":"-97.863184"
    },
    {
        "store_name":"Jared Vault Outlet Shoppes At El Paso",
        "store_id":"4187",
        "url":"\/store\/4187-CANUTILLO",
        "phone":"(915) 877-3699",
        "address":"7051 S Desert Blvd.",
        "city":"Canutillo",
        "state":"Texas",
        "zip":"79835-8585",
        "latitude":"31.91136",
        "longitude":"-106.58562"
    },
    {
        "store_name":"Lakeline Mall-outparcel",
        "store_id":"2456",
        "url":"\/store\/2456-CEDAR PARK",
        "phone":"(512) 331-5448",
        "address":"11047 Pecan Park",
        "city":"Cedar Park",
        "state":"Texas",
        "zip":"78613-1527",
        "latitude":"30.46837",
        "longitude":"-97.80511"
    },
    {
        "store_name":"Tomball Town Center - La Palmera",
        "store_id":"2547",
        "url":"\/store\/2547-CORPUS CHRISTI",
        "phone":"(361) 985-0179",
        "address":"4954 S Staples St.",
        "city":"Corpus Christi",
        "state":"Texas",
        "zip":"78411-3802",
        "latitude":"27.70957",
        "longitude":"-97.36929"
    },
    {
        "store_name":"Fountains At Farah",
        "store_id":"2546",
        "url":"\/store\/2546-EL PASO",
        "phone":"(915) 629-9554",
        "address":"8889 Gateway W Blvd.",
        "city":"El Paso",
        "state":"Texas",
        "zip":"79925-6549",
        "latitude":"31.77144",
        "longitude":"-106.37366"
    },
    {
        "store_name":"Hulen Mall - Outparcel",
        "store_id":"2400",
        "url":"\/store\/2400-FORT WORTH",
        "phone":"(817) 346-1410",
        "address":"4750 South Hulen St.",
        "city":"Fort Worth",
        "state":"Texas",
        "zip":"76132-1404",
        "latitude":"32.67831",
        "longitude":"-97.39532"
    },
    {
        "store_name":"Frisco Village",
        "store_id":"2441",
        "url":"\/store\/2441-FRISCO",
        "phone":"(214) 705-7354",
        "address":"3110 Preston Rd.",
        "city":"Frisco",
        "state":"Texas",
        "zip":"75034-9422",
        "latitude":"33.10423",
        "longitude":"-96.80487"
    },
    {
        "store_name":"Jared Vault Grand Prairie Premium Outlets",
        "store_id":"4204",
        "url":"\/store\/4204-GRAND PRAIRIE",
        "phone":"(972) 606-4817",
        "address":"2950 W Interstate 20",
        "city":"Grand Prairie",
        "state":"Texas",
        "zip":"75052-8079",
        "latitude":"32.68002",
        "longitude":"-97.05287"
    },
    {
        "store_name":"Willowbrook",
        "store_id":"490",
        "url":"\/store\/490-HOUSTON",
        "phone":"(281) 807-0316",
        "address":"7400 Farm To Market",
        "city":"Houston",
        "state":"Texas",
        "zip":"77070-5804",
        "latitude":"29.975553",
        "longitude":"-95.494534"
    },
    {
        "store_name":"Memorial City",
        "store_id":"499",
        "url":"\/store\/499-HOUSTON",
        "phone":"(713) 647-0934",
        "address":"9829 Katy Freeway",
        "city":"Houston",
        "state":"Texas",
        "zip":"77024-1201",
        "latitude":"29.78322",
        "longitude":"-95.5374"
    },
    {
        "store_name":"Deerbrook Mall - Outparcel",
        "store_id":"2409",
        "url":"\/store\/2409-HUMBLE",
        "phone":"(281) 446-8708",
        "address":"10027 Fm 1960 Bypass Rd. W",
        "city":"Humble",
        "state":"Texas",
        "zip":"77338-3515",
        "latitude":"30.000253",
        "longitude":"-95.260709"
    },
    {
        "store_name":"Shops At North East Mall",
        "store_id":"494",
        "url":"\/store\/494-HURST",
        "phone":"(817) 284-5476",
        "address":"1330 W Pipeline Rd.",
        "city":"Hurst",
        "state":"Texas",
        "zip":"76053-4627",
        "latitude":"32.82413",
        "longitude":"-97.20148"
    },
    {
        "store_name":"Jared Vault Katy Mills",
        "store_id":"4098",
        "url":"\/store\/4098-KATY",
        "phone":"(281) 644-2900",
        "address":"5000 Katy Mills Circle",
        "city":"Katy",
        "state":"Texas",
        "zip":"77494-4792",
        "latitude":"29.77621",
        "longitude":"-95.80947"
    },
    {
        "store_name":"Vista Ridge Iii",
        "store_id":"493",
        "url":"\/store\/493-LEWISVILLE",
        "phone":"(972) 459-6738",
        "address":"2425 S Stemmons",
        "city":"Lewisville",
        "state":"Texas",
        "zip":"75067-8764",
        "latitude":"33.00463",
        "longitude":"-96.96911"
    },
    {
        "store_name":"Forum At Olympia Parkway",
        "store_id":"2434",
        "url":"\/store\/2434-LIVE OAK",
        "phone":"(210) 945-0208",
        "address":"8152 Agora Pkwy.",
        "city":"Live Oak",
        "state":"Texas",
        "zip":"78154-1317",
        "latitude":"29.56675",
        "longitude":"-98.32941"
    },
    {
        "store_name":"Canyon West",
        "store_id":"2536",
        "url":"\/store\/2536-LUBBOCK",
        "phone":"(806) 797-1650",
        "address":"5013 Milwaukee Ave.",
        "city":"Lubbock",
        "state":"Texas",
        "zip":"79407-3808",
        "latitude":"33.54619",
        "longitude":"-101.95667"
    },
    {
        "store_name":"La Plaza Mall",
        "store_id":"2531",
        "url":"\/store\/2531-MCALLEN",
        "phone":"(956) 928-1212",
        "address":"2204 S 10Th St.",
        "city":"Mcallen",
        "state":"Texas",
        "zip":"78503-5433",
        "latitude":"26.182923",
        "longitude":"-98.233562"
    },
    {
        "store_name":"Midland Park Mall",
        "store_id":"2542",
        "url":"\/store\/2542-MIDLAND",
        "phone":"(432) 689-0512",
        "address":"4515 N. Midkiff Rd.",
        "city":"Midland",
        "state":"Texas",
        "zip":"79705-3207",
        "latitude":"32.03199",
        "longitude":"-102.12929"
    },
    {
        "store_name":"Pearland Town Center",
        "store_id":"2492",
        "url":"\/store\/2492-PEARLAND",
        "phone":"(713) 340-1655",
        "address":"11222 Broadway Street",
        "city":"Pearland",
        "state":"Texas",
        "zip":"77584-9779",
        "latitude":"29.55524",
        "longitude":"-95.39345"
    },
    {
        "store_name":"Collin Creek Mall",
        "store_id":"498",
        "url":"\/store\/498-PLANO",
        "phone":"(972) 578-9400",
        "address":"301 W Plano Pkwy.",
        "city":"Plano",
        "state":"Texas",
        "zip":"75075-8927",
        "latitude":"33.00955",
        "longitude":"-96.71076"
    },
    {
        "store_name":"Rim",
        "store_id":"2435",
        "url":"\/store\/2435-SAN ANTONIO",
        "phone":"(210) 561-7280",
        "address":"17327 Interstate Hwy. 10 W",
        "city":"San Antonio",
        "state":"Texas",
        "zip":"78257-9524",
        "latitude":"29.605049",
        "longitude":"-98.601006"
    },
    {
        "store_name":"Park North",
        "store_id":"2559",
        "url":"\/store\/2559-SAN ANTONIO",
        "phone":"(210) 340-0124",
        "address":"7427 San Pedro Ave.",
        "city":"San Antonio",
        "state":"Texas",
        "zip":"78216-8308",
        "latitude":"29.51753",
        "longitude":"-98.49991"
    },
    {
        "store_name":"Southlake Town Square - Outparcel",
        "store_id":"2469",
        "url":"\/store\/2469-SOUTHLAKE",
        "phone":"(817) 251-0286",
        "address":"1500 E Southlake Blvd.",
        "city":"Southlake",
        "state":"Texas",
        "zip":"76092-6421",
        "latitude":"32.94138",
        "longitude":"-97.12877"
    },
    {
        "store_name":"Town Center Lakeside",
        "store_id":"439",
        "url":"\/store\/439-SUGAR LAND",
        "phone":"(281) 240-6200",
        "address":"16010 Kensington Dr.",
        "city":"Sugar Land",
        "state":"Texas",
        "zip":"77479-4092",
        "latitude":"29.59924",
        "longitude":"-95.62636"
    },
    {
        "store_name":"Jared Vault Tanger Outlets Houston",
        "store_id":"4205",
        "url":"\/store\/4205-TEXAS CITY",
        "phone":"(281) 337-1912",
        "address":"5885 Gulf Freeway",
        "city":"Texas City",
        "state":"Texas",
        "zip":"77591-7064",
        "latitude":"29.40683",
        "longitude":"-95.0341"
    },
    {
        "store_name":"The Woodlands - Outparcel",
        "store_id":"2529",
        "url":"\/store\/2529-THE WOODLANDS",
        "phone":"(281) 419-4495",
        "address":"1475 Lake Woodlands Drive",
        "city":"The Woodlands",
        "state":"Texas",
        "zip":"77380-3234",
        "latitude":"30.16733",
        "longitude":"-95.45749"
    },
    {
        "store_name":"French Quarter Shopping Center",
        "store_id":"2562",
        "url":"\/store\/2562-TYLER",
        "phone":"(903) 939-0411",
        "address":"4574 South Broadway Ave.",
        "city":"Tyler",
        "state":"Texas",
        "zip":"75703-1305",
        "latitude":"32.29994",
        "longitude":"-95.30024"
    },
    {
        "store_name":"Baybrook Gateway Shopping Center",
        "store_id":"497",
        "url":"\/store\/497-WEBSTER",
        "phone":"(281) 557-2340",
        "address":"1045 W Bay Area Blvd.",
        "city":"Webster",
        "state":"Texas",
        "zip":"77598-4047",
        "latitude":"29.54117",
        "longitude":"-95.1387"
    },
    {
        "store_name":"University Place",
        "store_id":"2501",
        "url":"\/store\/2501-OREM",
        "phone":"(801) 225-4216",
        "address":"531 East University Pkwy",
        "city":"Orem",
        "state":"Utah",
        "zip":"84097-7750",
        "latitude":"40.27408",
        "longitude":"-111.68444"
    },
    {
        "store_name":"59th & S. State",
        "store_id":"496",
        "url":"\/store\/496-SALT LAKE CITY",
        "phone":"(801) 281-8989",
        "address":"5928 South State St.",
        "city":"Salt Lake City",
        "state":"Utah",
        "zip":"84107-7223",
        "latitude":"40.64273",
        "longitude":"-111.88926"
    },
    {
        "store_name":"Shops At Stonefield",
        "store_id":"2583",
        "url":"\/store\/2583-CHARLOTTESVILLE",
        "phone":"(434) 972-7211",
        "address":"3928 Lenox Ave.",
        "city":"Charlottesville",
        "state":"Virginia",
        "zip":"22901-2660",
        "latitude":"38.06824",
        "longitude":"-78.48767"
    },
    {
        "store_name":"Dulles Town Center",
        "store_id":"452",
        "url":"\/store\/452-DULLES",
        "phone":"(703) 433-2305",
        "address":"21115 Dulles Town Circle",
        "city":"Dulles",
        "state":"Virginia",
        "zip":"20166-2473",
        "latitude":"39.03263",
        "longitude":"-77.4199"
    },
    {
        "store_name":"Fair Lakes Center",
        "store_id":"423",
        "url":"\/store\/423-FAIRFAX",
        "phone":"(703) 818-8218",
        "address":"12960 Fair Lakes Shopping Ctr.",
        "city":"Fairfax",
        "state":"Virginia",
        "zip":"22033-5176",
        "latitude":"38.85943",
        "longitude":"-77.38884"
    },
    {
        "store_name":"Spotsylvania Mall",
        "store_id":"2503",
        "url":"\/store\/2503-FREDERICKSBURG",
        "phone":"(540) 548-2081",
        "address":"3102 Plank Rd.",
        "city":"Fredericksburg",
        "state":"Virginia",
        "zip":"22407-4900",
        "latitude":"38.295958",
        "longitude":"-77.500485"
    },
    {
        "store_name":"Newport News",
        "store_id":"2406",
        "url":"\/store\/2406-NEWPORT NEWS",
        "phone":"(757) 881-9212",
        "address":"12249 Jefferson Ave.",
        "city":"Newport News",
        "state":"Virginia",
        "zip":"23602-6970",
        "latitude":"37.11158",
        "longitude":"-76.49969"
    },
    {
        "store_name":"Chesterfield Towne Center Outparcel",
        "store_id":"487",
        "url":"\/store\/487-RICHMOND",
        "phone":"(804) 897-8380",
        "address":"11230 Midlothian Turnpike",
        "city":"North Chesterfield",
        "state":"Virginia",
        "zip":"23235-4714",
        "latitude":"37.50655",
        "longitude":"-77.60455"
    },
    {
        "store_name":"Short Pump Town Center Outparcel",
        "store_id":"495",
        "url":"\/store\/495-RICHMOND",
        "phone":"(804) 364-4915",
        "address":"11724 W Broad St.",
        "city":"Richmond",
        "state":"Virginia",
        "zip":"23233-1005",
        "latitude":"37.564354",
        "longitude":"-77.470897"
    },
    {
        "store_name":"Lynnhaven Parkway",
        "store_id":"2407",
        "url":"\/store\/2407-VIRGINIA BEACH",
        "phone":"(757) 340-5181",
        "address":"656 Phoenix Dr.",
        "city":"Virginia Beach",
        "state":"Virginia",
        "zip":"23452-7317",
        "latitude":"36.82485",
        "longitude":"-76.06764"
    },
    {
        "store_name":"Jared Vault Potomac Mills",
        "store_id":"4054",
        "url":"\/store\/4054-WOODBRIDGE",
        "phone":"(703) 497-0065",
        "address":"2700 Potomac Mills Circle",
        "city":"Woodbridge",
        "state":"Virginia",
        "zip":"22192-4645",
        "latitude":"38.64389",
        "longitude":"-77.29561"
    },
    {
        "store_name":"Golde Creek Plaza Ii",
        "store_id":"414",
        "url":"\/store\/414-LYNNWOOD",
        "phone":"(425) 774-6933",
        "address":"2925 196Th St. Sw",
        "city":"Lynnwood",
        "state":"Washington",
        "zip":"98036-4826",
        "latitude":"47.82145",
        "longitude":"-122.27288"
    },
    {
        "store_name":"Lincoln Plaza Shopping Center",
        "store_id":"416",
        "url":"\/store\/416-TACOMA",
        "phone":"(253) 472-2279",
        "address":"2501 South 38Th St.",
        "city":"Tacoma",
        "state":"Washington",
        "zip":"98409-7373",
        "latitude":"47.22304",
        "longitude":"-122.46922"
    },
    {
        "store_name":"Parkway Square Shopping Center",
        "store_id":"415",
        "url":"\/store\/415-TUKWILA",
        "phone":"(206) 575-2428",
        "address":"16840 Southcenter Pkwy.",
        "city":"Tukwila",
        "state":"Washington",
        "zip":"98188-3309",
        "latitude":"47.45257",
        "longitude":"-122.26079"
    },
    {
        "store_name":"Shoppes At Fountain Square",
        "store_id":"2408",
        "url":"\/store\/2408-BROOKFIELD",
        "phone":"(262) 786-4917",
        "address":"16070 W Bluemound Rd.",
        "city":"Brookfield",
        "state":"Wisconsin",
        "zip":"53005-6009",
        "latitude":"43.0366",
        "longitude":"-88.11243"
    },
    {
        "store_name":"Fox River Mall - Outparcel",
        "store_id":"440",
        "url":"\/store\/440-GRAND CHUTE",
        "phone":"(920) 731-3313",
        "address":"141 N Casaloma Dr.",
        "city":"Grand Chute",
        "state":"Wisconsin",
        "zip":"54913-9676",
        "latitude":"44.26316",
        "longitude":"-88.47681"
    }
]