{
"type": "FeatureCollection",
"crs": { "type": "name", "properties": { "name": "urn:ogc:def:crs:OGC:1.3:CRS84" } },
"features": [
{ "type": "Feature", "properties": { "zip": "90004", "city": "Los Angeles", "state": "CA", "name": "Los Angeles", "teslas": 97, "all_vehicles": 22857, "tesla_rate_1k": 4.24, "avg_house_income": 65893, "avg_net_worth": 232653 }, "geometry": { "type": "Point", "coordinates": [ -118.31, 34.07 ] } },
{ "type": "Feature", "properties": { "zip": "90005", "city": "Los Angeles", "state": "CA", "name": "Los Angeles", "teslas": 16, "all_vehicles": 12343, "tesla_rate_1k": 1.3, "avg_house_income": 53191, "avg_net_worth": 105569 }, "geometry": { "type": "Point", "coordinates": [ -118.31, 34.05 ] } },
{ "type": "Feature", "properties": { "zip": "90008", "city": "Los Angeles", "state": "CA", "name": "Los Angeles", "teslas": 30, "all_vehicles": 12281, "tesla_rate_1k": 2.44, "avg_house_income": 56286, "avg_net_worth": 284531 }, "geometry": { "type": "Point", "coordinates": [ -118.34, 34.0 ] } },
{ "type": "Feature", "properties": { "zip": "90010", "city": "Los Angeles", "state": "CA", "name": "Los Angeles", "teslas": 46, "all_vehicles": 5912, "tesla_rate_1k": 7.78, "avg_house_income": 53753, "avg_net_worth": 59071 }, "geometry": { "type": "Point", "coordinates": [ -118.31, 34.06 ] } },
{ "type": "Feature", "properties": { "zip": "90012", "city": "Los Angeles", "state": "CA", "name": "Los Angeles", "teslas": 57, "all_vehicles": 17647, "tesla_rate_1k": 3.23, "avg_house_income": 51188, "avg_net_worth": 68935 }, "geometry": { "type": "Point", "coordinates": [ -118.24, 34.06 ] } },
{ "type": "Feature", "properties": { "zip": "90014", "city": "Los Angeles", "state": "CA", "name": "Los Angeles", "teslas": 12, "all_vehicles": 2672, "tesla_rate_1k": 4.49, "avg_house_income": 43242, "avg_net_worth": 39950 }, "geometry": { "type": "Point", "coordinates": [ -118.25, 34.04 ] } },
{ "type": "Feature", "properties": { "zip": "90015", "city": "Los Angeles", "state": "CA", "name": "Los Angeles", "teslas": 61, "all_vehicles": 7846, "tesla_rate_1k": 7.77, "avg_house_income": 62200, "avg_net_worth": 100689 }, "geometry": { "type": "Point", "coordinates": [ -118.26, 34.03 ] } },
{ "type": "Feature", "properties": { "zip": "90016", "city": "Los Angeles", "state": "CA", "name": "Los Angeles", "teslas": 17, "all_vehicles": 18653, "tesla_rate_1k": 0.91, "avg_house_income": 55582, "avg_net_worth": 175853 }, "geometry": { "type": "Point", "coordinates": [ -118.35, 34.02 ] } },
{ "type": "Feature", "properties": { "zip": "90017", "city": "Los Angeles", "state": "CA", "name": "Los Angeles", "teslas": 37, "all_vehicles": 8859, "tesla_rate_1k": 4.18, "avg_house_income": 43408, "avg_net_worth": 40713 }, "geometry": { "type": "Point", "coordinates": [ -118.26, 34.05 ] } },
{ "type": "Feature", "properties": { "zip": "90019", "city": "Los Angeles", "state": "CA", "name": "Los Angeles", "teslas": 61, "all_vehicles": 25706, "tesla_rate_1k": 2.37, "avg_house_income": 72111, "avg_net_worth": 177964 }, "geometry": { "type": "Point", "coordinates": [ -118.34, 34.04 ] } },
{ "type": "Feature", "properties": { "zip": "90020", "city": "Los Angeles", "state": "CA", "name": "Los Angeles", "teslas": 50, "all_vehicles": 15201, "tesla_rate_1k": 3.29, "avg_house_income": 57416, "avg_net_worth": 128492 }, "geometry": { "type": "Point", "coordinates": [ -118.31, 34.06 ] } },
{ "type": "Feature", "properties": { "zip": "90024", "city": "Los Angeles", "state": "CA", "name": "Los Angeles", "teslas": 313, "all_vehicles": 16444, "tesla_rate_1k": 19.03, "avg_house_income": 123841, "avg_net_worth": 709379 }, "geometry": { "type": "Point", "coordinates": [ -118.43, 34.06 ] } },
{ "type": "Feature", "properties": { "zip": "90025", "city": "Los Angeles", "state": "CA", "name": "Los Angeles", "teslas": 272, "all_vehicles": 24213, "tesla_rate_1k": 11.23, "avg_house_income": 115619, "avg_net_worth": 333376 }, "geometry": { "type": "Point", "coordinates": [ -118.44, 34.04 ] } },
{ "type": "Feature", "properties": { "zip": "90026", "city": "Los Angeles", "state": "CA", "name": "Los Angeles", "teslas": 50, "all_vehicles": 24706, "tesla_rate_1k": 2.02, "avg_house_income": 72819, "avg_net_worth": 152557 }, "geometry": { "type": "Point", "coordinates": [ -118.26, 34.07 ] } },
{ "type": "Feature", "properties": { "zip": "90027", "city": "Los Angeles", "state": "CA", "name": "Los Angeles", "teslas": 190, "all_vehicles": 21399, "tesla_rate_1k": 8.88, "avg_house_income": 86923, "avg_net_worth": 349921 }, "geometry": { "type": "Point", "coordinates": [ -118.28, 34.12 ] } },
{ "type": "Feature", "properties": { "zip": "90028", "city": "Los Angeles", "state": "CA", "name": "Los Angeles", "teslas": 46, "all_vehicles": 12155, "tesla_rate_1k": 3.78, "avg_house_income": 50625, "avg_net_worth": 37237 }, "geometry": { "type": "Point", "coordinates": [ -118.32, 34.1 ] } },
{ "type": "Feature", "properties": { "zip": "90031", "city": "Los Angeles", "state": "CA", "name": "Los Angeles", "teslas": 12, "all_vehicles": 13425, "tesla_rate_1k": 0.89, "avg_house_income": 55158, "avg_net_worth": 125306 }, "geometry": { "type": "Point", "coordinates": [ -118.2, 34.08 ] } },
{ "type": "Feature", "properties": { "zip": "90032", "city": "Los Angeles", "state": "CA", "name": "Los Angeles", "teslas": 16, "all_vehicles": 17070, "tesla_rate_1k": 0.94, "avg_house_income": 60507, "avg_net_worth": 196457 }, "geometry": { "type": "Point", "coordinates": [ -118.17, 34.08 ] } },
{ "type": "Feature", "properties": { "zip": "90034", "city": "Los Angeles", "state": "CA", "name": "Los Angeles", "teslas": 133, "all_vehicles": 27749, "tesla_rate_1k": 4.79, "avg_house_income": 88027, "avg_net_worth": 284628 }, "geometry": { "type": "Point", "coordinates": [ -118.39, 34.02 ] } },
{ "type": "Feature", "properties": { "zip": "90035", "city": "Los Angeles", "state": "CA", "name": "Los Angeles", "teslas": 72, "all_vehicles": 15033, "tesla_rate_1k": 4.79, "avg_house_income": 113986, "avg_net_worth": 502212 }, "geometry": { "type": "Point", "coordinates": [ -118.38, 34.05 ] } },
{ "type": "Feature", "properties": { "zip": "90036", "city": "Los Angeles", "state": "CA", "name": "Los Angeles", "teslas": 103, "all_vehicles": 20319, "tesla_rate_1k": 5.07, "avg_house_income": 117665, "avg_net_worth": 317300 }, "geometry": { "type": "Point", "coordinates": [ -118.35, 34.06 ] } },
{ "type": "Feature", "properties": { "zip": "90038", "city": "Los Angeles", "state": "CA", "name": "Los Angeles", "teslas": 13, "all_vehicles": 10760, "tesla_rate_1k": 1.21, "avg_house_income": 56852, "avg_net_worth": 63824 }, "geometry": { "type": "Point", "coordinates": [ -118.32, 34.08 ] } },
{ "type": "Feature", "properties": { "zip": "90039", "city": "Los Angeles", "state": "CA", "name": "Los Angeles", "teslas": 76, "all_vehicles": 14713, "tesla_rate_1k": 5.17, "avg_house_income": 100278, "avg_net_worth": 439489 }, "geometry": { "type": "Point", "coordinates": [ -118.26, 34.11 ] } },
{ "type": "Feature", "properties": { "zip": "90040", "city": "Los Angeles", "state": "CA", "name": "Los Angeles", "teslas": 11, "all_vehicles": 6666, "tesla_rate_1k": 1.65, "avg_house_income": 61815, "avg_net_worth": 174156 }, "geometry": { "type": "Point", "coordinates": [ -118.14, 33.99 ] } },
{ "type": "Feature", "properties": { "zip": "90041", "city": "Los Angeles", "state": "CA", "name": "Los Angeles", "teslas": 23, "all_vehicles": 12560, "tesla_rate_1k": 1.83, "avg_house_income": 94562, "avg_net_worth": 517547 }, "geometry": { "type": "Point", "coordinates": [ -118.2, 34.13 ] } },
{ "type": "Feature", "properties": { "zip": "90042", "city": "Los Angeles", "state": "CA", "name": "Los Angeles", "teslas": 49, "all_vehicles": 24444, "tesla_rate_1k": 2.0, "avg_house_income": 71450, "avg_net_worth": 238700 }, "geometry": { "type": "Point", "coordinates": [ -118.19, 34.11 ] } },
{ "type": "Feature", "properties": { "zip": "90043", "city": "Los Angeles", "state": "CA", "name": "Los Angeles", "teslas": 22, "all_vehicles": 18286, "tesla_rate_1k": 1.2, "avg_house_income": 66403, "avg_net_worth": 443312 }, "geometry": { "type": "Point", "coordinates": [ -118.33, 33.98 ] } },
{ "type": "Feature", "properties": { "zip": "90045", "city": "Los Angeles", "state": "CA", "name": "Los Angeles", "teslas": 178, "all_vehicles": 126303, "tesla_rate_1k": 1.41, "avg_house_income": 122098, "avg_net_worth": 969118 }, "geometry": { "type": "Point", "coordinates": [ -118.4, 33.95 ] } },
{ "type": "Feature", "properties": { "zip": "90046", "city": "Los Angeles", "state": "CA", "name": "Los Angeles", "teslas": 286, "all_vehicles": 27624, "tesla_rate_1k": 10.35, "avg_house_income": 104552, "avg_net_worth": 416475 }, "geometry": { "type": "Point", "coordinates": [ -118.37, 34.1 ] } },
{ "type": "Feature", "properties": { "zip": "90047", "city": "Los Angeles", "state": "CA", "name": "Los Angeles", "teslas": 14, "all_vehicles": 19813, "tesla_rate_1k": 0.71, "avg_house_income": 55403, "avg_net_worth": 269341 }, "geometry": { "type": "Point", "coordinates": [ -118.3, 33.95 ] } },
{ "type": "Feature", "properties": { "zip": "90048", "city": "Los Angeles", "state": "CA", "name": "Los Angeles", "teslas": 170, "all_vehicles": 13085, "tesla_rate_1k": 12.99, "avg_house_income": 131176, "avg_net_worth": 392422 }, "geometry": { "type": "Point", "coordinates": [ -118.37, 34.07 ] } },
{ "type": "Feature", "properties": { "zip": "90049", "city": "Los Angeles", "state": "CA", "name": "Los Angeles", "teslas": 748, "all_vehicles": 23170, "tesla_rate_1k": 32.28, "avg_house_income": 199864, "avg_net_worth": 1678098 }, "geometry": { "type": "Point", "coordinates": [ -118.49, 34.08 ] } },
{ "type": "Feature", "properties": { "zip": "90056", "city": "Los Angeles", "state": "CA", "name": "Los Angeles", "teslas": 44, "all_vehicles": 5041, "tesla_rate_1k": 8.73, "avg_house_income": 134704, "avg_net_worth": 1546050 }, "geometry": { "type": "Point", "coordinates": [ -118.37, 33.98 ] } },
{ "type": "Feature", "properties": { "zip": "90058", "city": "Los Angeles", "state": "CA", "name": "Los Angeles", "teslas": 11, "all_vehicles": 2569, "tesla_rate_1k": 4.28, "avg_house_income": 34949, "avg_net_worth": 39695 }, "geometry": { "type": "Point", "coordinates": [ -118.21, 34.0 ] } },
{ "type": "Feature", "properties": { "zip": "90064", "city": "Los Angeles", "state": "CA", "name": "Los Angeles", "teslas": 292, "all_vehicles": 16416, "tesla_rate_1k": 17.79, "avg_house_income": 148352, "avg_net_worth": 1156819 }, "geometry": { "type": "Point", "coordinates": [ -118.43, 34.03 ] } },
{ "type": "Feature", "properties": { "zip": "90065", "city": "Los Angeles", "state": "CA", "name": "Los Angeles", "teslas": 50, "all_vehicles": 20326, "tesla_rate_1k": 2.46, "avg_house_income": 83940, "avg_net_worth": 402613 }, "geometry": { "type": "Point", "coordinates": [ -118.22, 34.1 ] } },
{ "type": "Feature", "properties": { "zip": "90066", "city": "Los Angeles", "state": "CA", "name": "Los Angeles", "teslas": 236, "all_vehicles": 27692, "tesla_rate_1k": 8.52, "avg_house_income": 109187, "avg_net_worth": 587302 }, "geometry": { "type": "Point", "coordinates": [ -118.43, 34.0 ] } },
{ "type": "Feature", "properties": { "zip": "90067", "city": "Los Angeles", "state": "CA", "name": "Los Angeles", "teslas": 162, "all_vehicles": 3774, "tesla_rate_1k": 42.93, "avg_house_income": 180115, "avg_net_worth": 2157237 }, "geometry": { "type": "Point", "coordinates": [ -118.41, 34.05 ] } },
{ "type": "Feature", "properties": { "zip": "90068", "city": "Los Angeles", "state": "CA", "name": "Los Angeles", "teslas": 229, "all_vehicles": 12623, "tesla_rate_1k": 18.14, "avg_house_income": 132979, "avg_net_worth": 666654 }, "geometry": { "type": "Point", "coordinates": [ -118.33, 34.13 ] } },
{ "type": "Feature", "properties": { "zip": "90069", "city": "West Hollywood", "state": "CA", "name": "West Hollywood", "teslas": 215, "all_vehicles": 13429, "tesla_rate_1k": 16.01, "avg_house_income": 125721, "avg_net_worth": 484728 }, "geometry": { "type": "Point", "coordinates": [ -118.38, 34.09 ] } },
{ "type": "Feature", "properties": { "zip": "90077", "city": "Los Angeles", "state": "CA", "name": "Los Angeles", "teslas": 258, "all_vehicles": 6285, "tesla_rate_1k": 41.05, "avg_house_income": 280179, "avg_net_worth": 3548806 }, "geometry": { "type": "Point", "coordinates": [ -118.45, 34.1 ] } },
{ "type": "Feature", "properties": { "zip": "90094", "city": "Playa Vista", "state": "CA", "name": "Playa Vista", "teslas": 161, "all_vehicles": 5747, "tesla_rate_1k": 28.01, "avg_house_income": 157974, "avg_net_worth": 466653 }, "geometry": { "type": "Point", "coordinates": [ -118.43, 33.97 ] } },
{ "type": "Feature", "properties": { "zip": "90210", "city": "Beverly Hills", "state": "CA", "name": "Beverly Hills", "teslas": 589, "all_vehicles": 15505, "tesla_rate_1k": 37.99, "avg_house_income": 220906, "avg_net_worth": 2702726 }, "geometry": { "type": "Point", "coordinates": [ -118.41, 34.09 ] } },
{ "type": "Feature", "properties": { "zip": "90211", "city": "Beverly Hills", "state": "CA", "name": "Beverly Hills", "teslas": 111, "all_vehicles": 7192, "tesla_rate_1k": 15.43, "avg_house_income": 116068, "avg_net_worth": 645404 }, "geometry": { "type": "Point", "coordinates": [ -118.38, 34.06 ] } },
{ "type": "Feature", "properties": { "zip": "90212", "city": "Beverly Hills", "state": "CA", "name": "Beverly Hills", "teslas": 162, "all_vehicles": 8504, "tesla_rate_1k": 19.05, "avg_house_income": 141008, "avg_net_worth": 514251 }, "geometry": { "type": "Point", "coordinates": [ -118.4, 34.06 ] } },
{ "type": "Feature", "properties": { "zip": "90230", "city": "Culver City", "state": "CA", "name": "Culver City", "teslas": 77, "all_vehicles": 16726, "tesla_rate_1k": 4.6, "avg_house_income": 105774, "avg_net_worth": 709926 }, "geometry": { "type": "Point", "coordinates": [ -118.39, 33.99 ] } },
{ "type": "Feature", "properties": { "zip": "90232", "city": "Culver City", "state": "CA", "name": "Culver City", "teslas": 72, "all_vehicles": 8996, "tesla_rate_1k": 8.0, "avg_house_income": 108537, "avg_net_worth": 485501 }, "geometry": { "type": "Point", "coordinates": [ -118.39, 34.02 ] } },
{ "type": "Feature", "properties": { "zip": "90240", "city": "Downey", "state": "CA", "name": "Downey", "teslas": 27, "all_vehicles": 13906, "tesla_rate_1k": 1.94, "avg_house_income": 95286, "avg_net_worth": 609134 }, "geometry": { "type": "Point", "coordinates": [ -118.12, 33.95 ] } },
{ "type": "Feature", "properties": { "zip": "90241", "city": "Downey", "state": "CA", "name": "Downey", "teslas": 23, "all_vehicles": 22068, "tesla_rate_1k": 1.04, "avg_house_income": 74214, "avg_net_worth": 290737 }, "geometry": { "type": "Point", "coordinates": [ -118.13, 33.94 ] } },
{ "type": "Feature", "properties": { "zip": "90245", "city": "El Segundo", "state": "CA", "name": "El Segundo", "teslas": 111, "all_vehicles": 10979, "tesla_rate_1k": 10.11, "avg_house_income": 135843, "avg_net_worth": 709807 }, "geometry": { "type": "Point", "coordinates": [ -118.4, 33.91 ] } },
{ "type": "Feature", "properties": { "zip": "90247", "city": "Gardena", "state": "CA", "name": "Gardena", "teslas": 14, "all_vehicles": 20551, "tesla_rate_1k": 0.68, "avg_house_income": 58579, "avg_net_worth": 160881 }, "geometry": { "type": "Point", "coordinates": [ -118.29, 33.89 ] } },
{ "type": "Feature", "properties": { "zip": "90248", "city": "Gardena", "state": "CA", "name": "Gardena", "teslas": 29, "all_vehicles": 7595, "tesla_rate_1k": 3.82, "avg_house_income": 75330, "avg_net_worth": 647759 }, "geometry": { "type": "Point", "coordinates": [ -118.27, 33.88 ] } },
{ "type": "Feature", "properties": { "zip": "90250", "city": "Hawthorne", "state": "CA", "name": "Hawthorne", "teslas": 82, "all_vehicles": 39953, "tesla_rate_1k": 2.05, "avg_house_income": 64245, "avg_net_worth": 236515 }, "geometry": { "type": "Point", "coordinates": [ -118.34, 33.91 ] } },
{ "type": "Feature", "properties": { "zip": "90254", "city": "Hermosa Beach", "state": "CA", "name": "Hermosa Beach", "teslas": 229, "all_vehicles": 12138, "tesla_rate_1k": 18.87, "avg_house_income": 166092, "avg_net_worth": 747082 }, "geometry": { "type": "Point", "coordinates": [ -118.39, 33.86 ] } },
{ "type": "Feature", "properties": { "zip": "90260", "city": "Lawndale", "state": "CA", "name": "Lawndale", "teslas": 11, "all_vehicles": 14191, "tesla_rate_1k": 0.78, "avg_house_income": 69590, "avg_net_worth": 207643 }, "geometry": { "type": "Point", "coordinates": [ -118.35, 33.88 ] } },
{ "type": "Feature", "properties": { "zip": "90265", "city": "Malibu", "state": "CA", "name": "Malibu", "teslas": 311, "all_vehicles": 11003, "tesla_rate_1k": 28.27, "avg_house_income": 207202, "avg_net_worth": 2132316 }, "geometry": { "type": "Point", "coordinates": [ -118.81, 34.06 ] } },
{ "type": "Feature", "properties": { "zip": "90266", "city": "Manhattan Beach", "state": "CA", "name": "Manhattan Beach", "teslas": 787, "all_vehicles": 22601, "tesla_rate_1k": 34.82, "avg_house_income": 213257, "avg_net_worth": 2035741 }, "geometry": { "type": "Point", "coordinates": [ -118.4, 33.88 ] } },
{ "type": "Feature", "properties": { "zip": "90272", "city": "Pacific Palisades", "state": "CA", "name": "Pacific Palisades", "teslas": 592, "all_vehicles": 15178, "tesla_rate_1k": 39.0, "avg_house_income": 249224, "avg_net_worth": 2989010 }, "geometry": { "type": "Point", "coordinates": [ -118.54, 34.07 ] } },
{ "type": "Feature", "properties": { "zip": "90274", "city": "Palos Verdes Peninsula", "state": "CA", "name": "Palos Verdes Peninsula", "teslas": 510, "all_vehicles": 17840, "tesla_rate_1k": 28.59, "avg_house_income": 242723, "avg_net_worth": 3353489 }, "geometry": { "type": "Point", "coordinates": [ -118.34, 33.77 ] } },
{ "type": "Feature", "properties": { "zip": "90275", "city": "Rancho Palos Verdes", "state": "CA", "name": "Rancho Palos Verdes", "teslas": 423, "all_vehicles": 26376, "tesla_rate_1k": 16.04, "avg_house_income": 184359, "avg_net_worth": 2450299 }, "geometry": { "type": "Point", "coordinates": [ -118.31, 33.75 ] } },
{ "type": "Feature", "properties": { "zip": "90277", "city": "Redondo Beach", "state": "CA", "name": "Redondo Beach", "teslas": 250, "all_vehicles": 21423, "tesla_rate_1k": 11.67, "avg_house_income": 142284, "avg_net_worth": 860004 }, "geometry": { "type": "Point", "coordinates": [ -118.38, 33.83 ] } },
{ "type": "Feature", "properties": { "zip": "90278", "city": "Redondo Beach", "state": "CA", "name": "Redondo Beach", "teslas": 263, "all_vehicles": 23110, "tesla_rate_1k": 11.38, "avg_house_income": 145674, "avg_net_worth": 908039 }, "geometry": { "type": "Point", "coordinates": [ -118.37, 33.87 ] } },
{ "type": "Feature", "properties": { "zip": "90290", "city": "Topanga", "state": "CA", "name": "Topanga", "teslas": 53, "all_vehicles": 3757, "tesla_rate_1k": 14.11, "avg_house_income": 193089, "avg_net_worth": 1680110 }, "geometry": { "type": "Point", "coordinates": [ -118.6, 34.1 ] } },
{ "type": "Feature", "properties": { "zip": "90291", "city": "Venice", "state": "CA", "name": "Venice", "teslas": 197, "all_vehicles": 13413, "tesla_rate_1k": 14.69, "avg_house_income": 126054, "avg_net_worth": 431291 }, "geometry": { "type": "Point", "coordinates": [ -118.46, 33.99 ] } },
{ "type": "Feature", "properties": { "zip": "90292", "city": "Marina Del Rey", "state": "CA", "name": "Marina Del Rey", "teslas": 241, "all_vehicles": 15161, "tesla_rate_1k": 15.9, "avg_house_income": 156192, "avg_net_worth": 673849 }, "geometry": { "type": "Point", "coordinates": [ -118.43, 33.97 ] } },
{ "type": "Feature", "properties": { "zip": "90293", "city": "Playa Del Rey", "state": "CA", "name": "Playa Del Rey", "teslas": 43, "all_vehicles": 7527, "tesla_rate_1k": 5.71, "avg_house_income": 149295, "avg_net_worth": 827229 }, "geometry": { "type": "Point", "coordinates": [ -118.44, 33.94 ] } },
{ "type": "Feature", "properties": { "zip": "90401", "city": "Santa Monica", "state": "CA", "name": "Santa Monica", "teslas": 58, "all_vehicles": 4906, "tesla_rate_1k": 11.82, "avg_house_income": 94417, "avg_net_worth": 117705 }, "geometry": { "type": "Point", "coordinates": [ -118.49, 34.01 ] } },
{ "type": "Feature", "properties": { "zip": "90402", "city": "Santa Monica", "state": "CA", "name": "Santa Monica", "teslas": 291, "all_vehicles": 7240, "tesla_rate_1k": 40.19, "avg_house_income": 206819, "avg_net_worth": 2163557 }, "geometry": { "type": "Point", "coordinates": [ -118.5, 34.03 ] } },
{ "type": "Feature", "properties": { "zip": "90403", "city": "Santa Monica", "state": "CA", "name": "Santa Monica", "teslas": 190, "all_vehicles": 14336, "tesla_rate_1k": 13.25, "avg_house_income": 127062, "avg_net_worth": 413427 }, "geometry": { "type": "Point", "coordinates": [ -118.49, 34.03 ] } },
{ "type": "Feature", "properties": { "zip": "90404", "city": "Santa Monica", "state": "CA", "name": "Santa Monica", "teslas": 54, "all_vehicles": 11001, "tesla_rate_1k": 4.91, "avg_house_income": 85373, "avg_net_worth": 172368 }, "geometry": { "type": "Point", "coordinates": [ -118.47, 34.02 ] } },
{ "type": "Feature", "properties": { "zip": "90405", "city": "Santa Monica", "state": "CA", "name": "Santa Monica", "teslas": 199, "all_vehicles": 15044, "tesla_rate_1k": 13.23, "avg_house_income": 135529, "avg_net_worth": 566023 }, "geometry": { "type": "Point", "coordinates": [ -118.46, 34.01 ] } },
{ "type": "Feature", "properties": { "zip": "90501", "city": "Torrance", "state": "CA", "name": "Torrance", "teslas": 62, "all_vehicles": 23543, "tesla_rate_1k": 2.63, "avg_house_income": 83350, "avg_net_worth": 416071 }, "geometry": { "type": "Point", "coordinates": [ -118.31, 33.83 ] } },
{ "type": "Feature", "properties": { "zip": "90502", "city": "Torrance", "state": "CA", "name": "Torrance", "teslas": 12, "all_vehicles": 9123, "tesla_rate_1k": 1.32, "avg_house_income": 91555, "avg_net_worth": 564832 }, "geometry": { "type": "Point", "coordinates": [ -118.29, 33.83 ] } },
{ "type": "Feature", "properties": { "zip": "90503", "city": "Torrance", "state": "CA", "name": "Torrance", "teslas": 104, "all_vehicles": 25726, "tesla_rate_1k": 4.04, "avg_house_income": 108919, "avg_net_worth": 757464 }, "geometry": { "type": "Point", "coordinates": [ -118.35, 33.84 ] } },
{ "type": "Feature", "properties": { "zip": "90504", "city": "Torrance", "state": "CA", "name": "Torrance", "teslas": 22, "all_vehicles": 18274, "tesla_rate_1k": 1.2, "avg_house_income": 96776, "avg_net_worth": 647630 }, "geometry": { "type": "Point", "coordinates": [ -118.33, 33.86 ] } },
{ "type": "Feature", "properties": { "zip": "90505", "city": "Torrance", "state": "CA", "name": "Torrance", "teslas": 103, "all_vehicles": 21688, "tesla_rate_1k": 4.75, "avg_house_income": 109157, "avg_net_worth": 874747 }, "geometry": { "type": "Point", "coordinates": [ -118.35, 33.8 ] } },
{ "type": "Feature", "properties": { "zip": "90601", "city": "Whittier", "state": "CA", "name": "Whittier", "teslas": 18, "all_vehicles": 16647, "tesla_rate_1k": 1.08, "avg_house_income": 94171, "avg_net_worth": 604267 }, "geometry": { "type": "Point", "coordinates": [ -118.03, 34.0 ] } },
{ "type": "Feature", "properties": { "zip": "90603", "city": "Whittier", "state": "CA", "name": "Whittier", "teslas": 12, "all_vehicles": 11083, "tesla_rate_1k": 1.08, "avg_house_income": 117356, "avg_net_worth": 1111934 }, "geometry": { "type": "Point", "coordinates": [ -117.99, 33.94 ] } },
{ "type": "Feature", "properties": { "zip": "90605", "city": "Whittier", "state": "CA", "name": "Whittier", "teslas": 14, "all_vehicles": 18519, "tesla_rate_1k": 0.76, "avg_house_income": 88987, "avg_net_worth": 554203 }, "geometry": { "type": "Point", "coordinates": [ -118.03, 33.94 ] } },
{ "type": "Feature", "properties": { "zip": "90620", "city": "Buena Park", "state": "CA", "name": "Buena Park", "teslas": 23, "all_vehicles": 24442, "tesla_rate_1k": 0.94, "avg_house_income": 88020, "avg_net_worth": 530149 }, "geometry": { "type": "Point", "coordinates": [ -118.0, 33.84 ] } },
{ "type": "Feature", "properties": { "zip": "90621", "city": "Buena Park", "state": "CA", "name": "Buena Park", "teslas": 37, "all_vehicles": 18416, "tesla_rate_1k": 2.01, "avg_house_income": 79342, "avg_net_worth": 331696 }, "geometry": { "type": "Point", "coordinates": [ -117.99, 33.87 ] } },
{ "type": "Feature", "properties": { "zip": "90623", "city": "La Palma", "state": "CA", "name": "La Palma", "teslas": 32, "all_vehicles": 9534, "tesla_rate_1k": 3.36, "avg_house_income": 116937, "avg_net_worth": 1003741 }, "geometry": { "type": "Point", "coordinates": [ -118.04, 33.85 ] } },
{ "type": "Feature", "properties": { "zip": "90630", "city": "Cypress", "state": "CA", "name": "Cypress", "teslas": 91, "all_vehicles": 28986, "tesla_rate_1k": 3.14, "avg_house_income": 110053, "avg_net_worth": 920375 }, "geometry": { "type": "Point", "coordinates": [ -118.03, 33.81 ] } },
{ "type": "Feature", "properties": { "zip": "90631", "city": "La Habra", "state": "CA", "name": "La Habra", "teslas": 94, "all_vehicles": 34458, "tesla_rate_1k": 2.73, "avg_house_income": 98209, "avg_net_worth": 736679 }, "geometry": { "type": "Point", "coordinates": [ -117.95, 33.94 ] } },
{ "type": "Feature", "properties": { "zip": "90638", "city": "La Mirada", "state": "CA", "name": "La Mirada", "teslas": 34, "all_vehicles": 25183, "tesla_rate_1k": 1.35, "avg_house_income": 105345, "avg_net_worth": 936622 }, "geometry": { "type": "Point", "coordinates": [ -118.0, 33.9 ] } },
{ "type": "Feature", "properties": { "zip": "90640", "city": "Montebello", "state": "CA", "name": "Montebello", "teslas": 20, "all_vehicles": 28133, "tesla_rate_1k": 0.71, "avg_house_income": 69890, "avg_net_worth": 323108 }, "geometry": { "type": "Point", "coordinates": [ -118.1, 34.0 ] } },
{ "type": "Feature", "properties": { "zip": "90650", "city": "Norwalk", "state": "CA", "name": "Norwalk", "teslas": 18, "all_vehicles": 46286, "tesla_rate_1k": 0.39, "avg_house_income": 73108, "avg_net_worth": 322209 }, "geometry": { "type": "Point", "coordinates": [ -118.07, 33.9 ] } },
{ "type": "Feature", "properties": { "zip": "90670", "city": "Santa Fe Springs", "state": "CA", "name": "Santa Fe Springs", "teslas": 32, "all_vehicles": 11820, "tesla_rate_1k": 2.71, "avg_house_income": 71313, "avg_net_worth": 313722 }, "geometry": { "type": "Point", "coordinates": [ -118.06, 33.92 ] } },
{ "type": "Feature", "properties": { "zip": "90680", "city": "Stanton", "state": "CA", "name": "Stanton", "teslas": 14, "all_vehicles": 13139, "tesla_rate_1k": 1.07, "avg_house_income": 73882, "avg_net_worth": 263482 }, "geometry": { "type": "Point", "coordinates": [ -117.99, 33.79 ] } },
{ "type": "Feature", "properties": { "zip": "90703", "city": "Cerritos", "state": "CA", "name": "Cerritos", "teslas": 210, "all_vehicles": 31192, "tesla_rate_1k": 6.73, "avg_house_income": 120427, "avg_net_worth": 1146304 }, "geometry": { "type": "Point", "coordinates": [ -118.05, 33.86 ] } },
{ "type": "Feature", "properties": { "zip": "90706", "city": "Bellflower", "state": "CA", "name": "Bellflower", "teslas": 11, "all_vehicles": 33531, "tesla_rate_1k": 0.33, "avg_house_income": 65931, "avg_net_worth": 199185 }, "geometry": { "type": "Point", "coordinates": [ -118.13, 33.88 ] } },
{ "type": "Feature", "properties": { "zip": "90710", "city": "Harbor City", "state": "CA", "name": "Harbor City", "teslas": 11, "all_vehicles": 11816, "tesla_rate_1k": 0.93, "avg_house_income": 80812, "avg_net_worth": 661267 }, "geometry": { "type": "Point", "coordinates": [ -118.29, 33.79 ] } },
{ "type": "Feature", "properties": { "zip": "90712", "city": "Lakewood", "state": "CA", "name": "Lakewood", "teslas": 14, "all_vehicles": 17288, "tesla_rate_1k": 0.81, "avg_house_income": 95209, "avg_net_worth": 755797 }, "geometry": { "type": "Point", "coordinates": [ -118.14, 33.84 ] } },
{ "type": "Feature", "properties": { "zip": "90713", "city": "Lakewood", "state": "CA", "name": "Lakewood", "teslas": 11, "all_vehicles": 15216, "tesla_rate_1k": 0.72, "avg_house_income": 103330, "avg_net_worth": 935664 }, "geometry": { "type": "Point", "coordinates": [ -118.11, 33.85 ] } },
{ "type": "Feature", "properties": { "zip": "90717", "city": "Lomita", "state": "CA", "name": "Lomita", "teslas": 11, "all_vehicles": 9962, "tesla_rate_1k": 1.1, "avg_house_income": 87430, "avg_net_worth": 376061 }, "geometry": { "type": "Point", "coordinates": [ -118.31, 33.79 ] } },
{ "type": "Feature", "properties": { "zip": "90720", "city": "Los Alamitos", "state": "CA", "name": "Los Alamitos", "teslas": 102, "all_vehicles": 13624, "tesla_rate_1k": 7.49, "avg_house_income": 143111, "avg_net_worth": 1632930 }, "geometry": { "type": "Point", "coordinates": [ -118.06, 33.79 ] } },
{ "type": "Feature", "properties": { "zip": "90731", "city": "San Pedro", "state": "CA", "name": "San Pedro", "teslas": 27, "all_vehicles": 24183, "tesla_rate_1k": 1.12, "avg_house_income": 72825, "avg_net_worth": 291847 }, "geometry": { "type": "Point", "coordinates": [ -118.29, 33.73 ] } },
{ "type": "Feature", "properties": { "zip": "90732", "city": "San Pedro", "state": "CA", "name": "San Pedro", "teslas": 20, "all_vehicles": 11217, "tesla_rate_1k": 1.78, "avg_house_income": 113500, "avg_net_worth": 1186743 }, "geometry": { "type": "Point", "coordinates": [ -118.31, 33.73 ] } },
{ "type": "Feature", "properties": { "zip": "90740", "city": "Seal Beach", "state": "CA", "name": "Seal Beach", "teslas": 111, "all_vehicles": 15095, "tesla_rate_1k": 7.35, "avg_house_income": 95989, "avg_net_worth": 1302513 }, "geometry": { "type": "Point", "coordinates": [ -118.07, 33.75 ] } },
{ "type": "Feature", "properties": { "zip": "90745", "city": "Carson", "state": "CA", "name": "Carson", "teslas": 12, "all_vehicles": 27109, "tesla_rate_1k": 0.44, "avg_house_income": 89636, "avg_net_worth": 588657 }, "geometry": { "type": "Point", "coordinates": [ -118.26, 33.82 ] } },
{ "type": "Feature", "properties": { "zip": "90755", "city": "Signal Hill", "state": "CA", "name": "Signal Hill", "teslas": 13, "all_vehicles": 7815, "tesla_rate_1k": 1.66, "avg_house_income": 104032, "avg_net_worth": 539569 }, "geometry": { "type": "Point", "coordinates": [ -118.16, 33.8 ] } },
{ "type": "Feature", "properties": { "zip": "90802", "city": "Long Beach", "state": "CA", "name": "Long Beach", "teslas": 19, "all_vehicles": 16409, "tesla_rate_1k": 1.16, "avg_house_income": 65755, "avg_net_worth": 122565 }, "geometry": { "type": "Point", "coordinates": [ -118.2, 33.75 ] } },
{ "type": "Feature", "properties": { "zip": "90803", "city": "Long Beach", "state": "CA", "name": "Long Beach", "teslas": 166, "all_vehicles": 18637, "tesla_rate_1k": 8.91, "avg_house_income": 121310, "avg_net_worth": 721693 }, "geometry": { "type": "Point", "coordinates": [ -118.13, 33.75 ] } },
{ "type": "Feature", "properties": { "zip": "90804", "city": "Long Beach", "state": "CA", "name": "Long Beach", "teslas": 12, "all_vehicles": 14177, "tesla_rate_1k": 0.85, "avg_house_income": 60211, "avg_net_worth": 102358 }, "geometry": { "type": "Point", "coordinates": [ -118.14, 33.78 ] } },
{ "type": "Feature", "properties": { "zip": "90807", "city": "Long Beach", "state": "CA", "name": "Long Beach", "teslas": 59, "all_vehicles": 16739, "tesla_rate_1k": 3.52, "avg_house_income": 103317, "avg_net_worth": 581649 }, "geometry": { "type": "Point", "coordinates": [ -118.18, 33.83 ] } },
{ "type": "Feature", "properties": { "zip": "90808", "city": "Long Beach", "state": "CA", "name": "Long Beach", "teslas": 53, "all_vehicles": 21921, "tesla_rate_1k": 2.42, "avg_house_income": 119296, "avg_net_worth": 1107113 }, "geometry": { "type": "Point", "coordinates": [ -118.11, 33.82 ] } },
{ "type": "Feature", "properties": { "zip": "90814", "city": "Long Beach", "state": "CA", "name": "Long Beach", "teslas": 18, "all_vehicles": 9259, "tesla_rate_1k": 1.94, "avg_house_income": 95214, "avg_net_worth": 387944 }, "geometry": { "type": "Point", "coordinates": [ -118.14, 33.77 ] } },
{ "type": "Feature", "properties": { "zip": "90815", "city": "Long Beach", "state": "CA", "name": "Long Beach", "teslas": 30, "all_vehicles": 20639, "tesla_rate_1k": 1.45, "avg_house_income": 110388, "avg_net_worth": 946732 }, "geometry": { "type": "Point", "coordinates": [ -118.12, 33.79 ] } },
{ "type": "Feature", "properties": { "zip": "91001", "city": "Altadena", "state": "CA", "name": "Altadena", "teslas": 134, "all_vehicles": 19157, "tesla_rate_1k": 6.99, "avg_house_income": 129531, "avg_net_worth": 1271815 }, "geometry": { "type": "Point", "coordinates": [ -118.13, 34.2 ] } },
{ "type": "Feature", "properties": { "zip": "91006", "city": "Arcadia", "state": "CA", "name": "Arcadia", "teslas": 210, "all_vehicles": 19275, "tesla_rate_1k": 10.89, "avg_house_income": 131366, "avg_net_worth": 1243235 }, "geometry": { "type": "Point", "coordinates": [ -118.02, 34.13 ] } },
{ "type": "Feature", "properties": { "zip": "91007", "city": "Arcadia", "state": "CA", "name": "Arcadia", "teslas": 148, "all_vehicles": 17744, "tesla_rate_1k": 8.34, "avg_house_income": 109631, "avg_net_worth": 853608 }, "geometry": { "type": "Point", "coordinates": [ -118.05, 34.12 ] } },
{ "type": "Feature", "properties": { "zip": "91010", "city": "Duarte", "state": "CA", "name": "Duarte", "teslas": 11, "all_vehicles": 12949, "tesla_rate_1k": 0.85, "avg_house_income": 85006, "avg_net_worth": 592386 }, "geometry": { "type": "Point", "coordinates": [ -117.94, 34.13 ] } },
{ "type": "Feature", "properties": { "zip": "91011", "city": "La Canada Flintridge", "state": "CA", "name": "La Canada Flintridge", "teslas": 317, "all_vehicles": 14408, "tesla_rate_1k": 22.0, "avg_house_income": 231624, "avg_net_worth": 3288780 }, "geometry": { "type": "Point", "coordinates": [ -118.14, 34.23 ] } },
{ "type": "Feature", "properties": { "zip": "91016", "city": "Monrovia", "state": "CA", "name": "Monrovia", "teslas": 61, "all_vehicles": 21223, "tesla_rate_1k": 2.87, "avg_house_income": 96345, "avg_net_worth": 564860 }, "geometry": { "type": "Point", "coordinates": [ -117.99, 34.15 ] } },
{ "type": "Feature", "properties": { "zip": "91024", "city": "Sierra Madre", "state": "CA", "name": "Sierra Madre", "teslas": 56, "all_vehicles": 6395, "tesla_rate_1k": 8.76, "avg_house_income": 148110, "avg_net_worth": 1350352 }, "geometry": { "type": "Point", "coordinates": [ -118.05, 34.2 ] } },
{ "type": "Feature", "properties": { "zip": "91030", "city": "South Pasadena", "state": "CA", "name": "South Pasadena", "teslas": 150, "all_vehicles": 14317, "tesla_rate_1k": 10.48, "avg_house_income": 133405, "avg_net_worth": 792975 }, "geometry": { "type": "Point", "coordinates": [ -118.15, 34.11 ] } },
{ "type": "Feature", "properties": { "zip": "91040", "city": "Sunland", "state": "CA", "name": "Sunland", "teslas": 12, "all_vehicles": 11739, "tesla_rate_1k": 1.02, "avg_house_income": 95298, "avg_net_worth": 659225 }, "geometry": { "type": "Point", "coordinates": [ -118.32, 34.26 ] } },
{ "type": "Feature", "properties": { "zip": "91042", "city": "Tujunga", "state": "CA", "name": "Tujunga", "teslas": 17, "all_vehicles": 14754, "tesla_rate_1k": 1.15, "avg_house_income": 83626, "avg_net_worth": 517163 }, "geometry": { "type": "Point", "coordinates": [ -118.25, 34.29 ] } },
{ "type": "Feature", "properties": { "zip": "91101", "city": "Pasadena", "state": "CA", "name": "Pasadena", "teslas": 45, "all_vehicles": 9971, "tesla_rate_1k": 4.51, "avg_house_income": 85812, "avg_net_worth": 164361 }, "geometry": { "type": "Point", "coordinates": [ -118.13, 34.14 ] } },
{ "type": "Feature", "properties": { "zip": "91103", "city": "Pasadena", "state": "CA", "name": "Pasadena", "teslas": 91, "all_vehicles": 11589, "tesla_rate_1k": 7.85, "avg_house_income": 101427, "avg_net_worth": 748983 }, "geometry": { "type": "Point", "coordinates": [ -118.17, 34.17 ] } },
{ "type": "Feature", "properties": { "zip": "91104", "city": "Pasadena", "state": "CA", "name": "Pasadena", "teslas": 84, "all_vehicles": 17051, "tesla_rate_1k": 4.93, "avg_house_income": 103117, "avg_net_worth": 571372 }, "geometry": { "type": "Point", "coordinates": [ -118.12, 34.16 ] } },
{ "type": "Feature", "properties": { "zip": "91105", "city": "Pasadena", "state": "CA", "name": "Pasadena", "teslas": 146, "all_vehicles": 8720, "tesla_rate_1k": 16.74, "avg_house_income": 173598, "avg_net_worth": 1552365 }, "geometry": { "type": "Point", "coordinates": [ -118.16, 34.14 ] } },
{ "type": "Feature", "properties": { "zip": "91106", "city": "Pasadena", "state": "CA", "name": "Pasadena", "teslas": 122, "all_vehicles": 12995, "tesla_rate_1k": 9.39, "avg_house_income": 108197, "avg_net_worth": 542515 }, "geometry": { "type": "Point", "coordinates": [ -118.13, 34.13 ] } },
{ "type": "Feature", "properties": { "zip": "91107", "city": "Pasadena", "state": "CA", "name": "Pasadena", "teslas": 166, "all_vehicles": 19651, "tesla_rate_1k": 8.45, "avg_house_income": 125031, "avg_net_worth": 1041178 }, "geometry": { "type": "Point", "coordinates": [ -118.08, 34.16 ] } },
{ "type": "Feature", "properties": { "zip": "91108", "city": "San Marino", "state": "CA", "name": "San Marino", "teslas": 266, "all_vehicles": 8652, "tesla_rate_1k": 30.74, "avg_house_income": 239942, "avg_net_worth": 3340540 }, "geometry": { "type": "Point", "coordinates": [ -118.11, 34.12 ] } },
{ "type": "Feature", "properties": { "zip": "91201", "city": "Glendale", "state": "CA", "name": "Glendale", "teslas": 12, "all_vehicles": 13513, "tesla_rate_1k": 0.89, "avg_house_income": 78738, "avg_net_worth": 388277 }, "geometry": { "type": "Point", "coordinates": [ -118.29, 34.17 ] } },
{ "type": "Feature", "properties": { "zip": "91202", "city": "Glendale", "state": "CA", "name": "Glendale", "teslas": 51, "all_vehicles": 13099, "tesla_rate_1k": 3.89, "avg_house_income": 105003, "avg_net_worth": 691121 }, "geometry": { "type": "Point", "coordinates": [ -118.26, 34.16 ] } },
{ "type": "Feature", "properties": { "zip": "91203", "city": "Glendale", "state": "CA", "name": "Glendale", "teslas": 22, "all_vehicles": 8391, "tesla_rate_1k": 2.62, "avg_house_income": 65629, "avg_net_worth": 116537 }, "geometry": { "type": "Point", "coordinates": [ -118.26, 34.15 ] } },
{ "type": "Feature", "properties": { "zip": "91205", "city": "Glendale", "state": "CA", "name": "Glendale", "teslas": 12, "all_vehicles": 17254, "tesla_rate_1k": 0.7, "avg_house_income": 58063, "avg_net_worth": 112137 }, "geometry": { "type": "Point", "coordinates": [ -118.24, 34.13 ] } },
{ "type": "Feature", "properties": { "zip": "91206", "city": "Glendale", "state": "CA", "name": "Glendale", "teslas": 74, "all_vehicles": 18205, "tesla_rate_1k": 4.06, "avg_house_income": 95669, "avg_net_worth": 710468 }, "geometry": { "type": "Point", "coordinates": [ -118.2, 34.16 ] } },
{ "type": "Feature", "properties": { "zip": "91207", "city": "Glendale", "state": "CA", "name": "Glendale", "teslas": 26, "all_vehicles": 6437, "tesla_rate_1k": 4.04, "avg_house_income": 148638, "avg_net_worth": 1751091 }, "geometry": { "type": "Point", "coordinates": [ -118.25, 34.18 ] } },
{ "type": "Feature", "properties": { "zip": "91208", "city": "Glendale", "state": "CA", "name": "Glendale", "teslas": 53, "all_vehicles": 10473, "tesla_rate_1k": 5.06, "avg_house_income": 146988, "avg_net_worth": 1498843 }, "geometry": { "type": "Point", "coordinates": [ -118.24, 34.19 ] } },
{ "type": "Feature", "properties": { "zip": "91214", "city": "La Crescenta", "state": "CA", "name": "La Crescenta", "teslas": 65, "all_vehicles": 19205, "tesla_rate_1k": 3.38, "avg_house_income": 129470, "avg_net_worth": 1258527 }, "geometry": { "type": "Point", "coordinates": [ -118.24, 34.23 ] } },
{ "type": "Feature", "properties": { "zip": "91301", "city": "Agoura Hills", "state": "CA", "name": "Agoura Hills", "teslas": 175, "all_vehicles": 16852, "tesla_rate_1k": 10.38, "avg_house_income": 168350, "avg_net_worth": 1688037 }, "geometry": { "type": "Point", "coordinates": [ -118.76, 34.12 ] } },
{ "type": "Feature", "properties": { "zip": "91302", "city": "Calabasas", "state": "CA", "name": "Calabasas", "teslas": 453, "all_vehicles": 19110, "tesla_rate_1k": 23.7, "avg_house_income": 211611, "avg_net_worth": 2517388 }, "geometry": { "type": "Point", "coordinates": [ -118.67, 34.11 ] } },
{ "type": "Feature", "properties": { "zip": "91304", "city": "Canoga Park", "state": "CA", "name": "Canoga Park", "teslas": 49, "all_vehicles": 24033, "tesla_rate_1k": 2.04, "avg_house_income": 92273, "avg_net_worth": 794891 }, "geometry": { "type": "Point", "coordinates": [ -118.59, 34.22 ] } },
{ "type": "Feature", "properties": { "zip": "91306", "city": "Winnetka", "state": "CA", "name": "Winnetka", "teslas": 27, "all_vehicles": 21657, "tesla_rate_1k": 1.25, "avg_house_income": 79425, "avg_net_worth": 425429 }, "geometry": { "type": "Point", "coordinates": [ -118.57, 34.2 ] } },
{ "type": "Feature", "properties": { "zip": "91307", "city": "West Hills", "state": "CA", "name": "West Hills", "teslas": 121, "all_vehicles": 15521, "tesla_rate_1k": 7.8, "avg_house_income": 135866, "avg_net_worth": 1441657 }, "geometry": { "type": "Point", "coordinates": [ -118.69, 34.2 ] } },
{ "type": "Feature", "properties": { "zip": "91311", "city": "Chatsworth", "state": "CA", "name": "Chatsworth", "teslas": 95, "all_vehicles": 22749, "tesla_rate_1k": 4.18, "avg_house_income": 118345, "avg_net_worth": 1093829 }, "geometry": { "type": "Point", "coordinates": [ -118.61, 34.28 ] } },
{ "type": "Feature", "properties": { "zip": "91316", "city": "Encino", "state": "CA", "name": "Encino", "teslas": 161, "all_vehicles": 17188, "tesla_rate_1k": 9.37, "avg_house_income": 103968, "avg_net_worth": 731822 }, "geometry": { "type": "Point", "coordinates": [ -118.52, 34.15 ] } },
{ "type": "Feature", "properties": { "zip": "91320", "city": "Newbury Park", "state": "CA", "name": "Newbury Park", "teslas": 221, "all_vehicles": 27300, "tesla_rate_1k": 8.1, "avg_house_income": 143648, "avg_net_worth": 1270033 }, "geometry": { "type": "Point", "coordinates": [ -118.95, 34.17 ] } },
{ "type": "Feature", "properties": { "zip": "91321", "city": "Newhall", "state": "CA", "name": "Newhall", "teslas": 23, "all_vehicles": 16420, "tesla_rate_1k": 1.4, "avg_house_income": 88605, "avg_net_worth": 619146 }, "geometry": { "type": "Point", "coordinates": [ -118.47, 34.36 ] } },
{ "type": "Feature", "properties": { "zip": "91324", "city": "Northridge", "state": "CA", "name": "Northridge", "teslas": 27, "all_vehicles": 14809, "tesla_rate_1k": 1.82, "avg_house_income": 97386, "avg_net_worth": 608537 }, "geometry": { "type": "Point", "coordinates": [ -118.55, 34.24 ] } },
{ "type": "Feature", "properties": { "zip": "91325", "city": "Northridge", "state": "CA", "name": "Northridge", "teslas": 47, "all_vehicles": 17225, "tesla_rate_1k": 2.73, "avg_house_income": 98211, "avg_net_worth": 699763 }, "geometry": { "type": "Point", "coordinates": [ -118.51, 34.23 ] } },
{ "type": "Feature", "properties": { "zip": "91326", "city": "Porter Ranch", "state": "CA", "name": "Porter Ranch", "teslas": 283, "all_vehicles": 23440, "tesla_rate_1k": 12.07, "avg_house_income": 139870, "avg_net_worth": 1522543 }, "geometry": { "type": "Point", "coordinates": [ -118.55, 34.28 ] } },
{ "type": "Feature", "properties": { "zip": "91335", "city": "Reseda", "state": "CA", "name": "Reseda", "teslas": 26, "all_vehicles": 34411, "tesla_rate_1k": 0.76, "avg_house_income": 73121, "avg_net_worth": 261729 }, "geometry": { "type": "Point", "coordinates": [ -118.54, 34.2 ] } },
{ "type": "Feature", "properties": { "zip": "91342", "city": "Sylmar", "state": "CA", "name": "Sylmar", "teslas": 19, "all_vehicles": 44270, "tesla_rate_1k": 0.43, "avg_house_income": 77173, "avg_net_worth": 415201 }, "geometry": { "type": "Point", "coordinates": [ -118.38, 34.32 ] } },
{ "type": "Feature", "properties": { "zip": "91343", "city": "North Hills", "state": "CA", "name": "North Hills", "teslas": 26, "all_vehicles": 27077, "tesla_rate_1k": 0.96, "avg_house_income": 78425, "avg_net_worth": 476746 }, "geometry": { "type": "Point", "coordinates": [ -118.47, 34.23 ] } },
{ "type": "Feature", "properties": { "zip": "91344", "city": "Granada Hills", "state": "CA", "name": "Granada Hills", "teslas": 140, "all_vehicles": 30038, "tesla_rate_1k": 4.66, "avg_house_income": 111994, "avg_net_worth": 1158138 }, "geometry": { "type": "Point", "coordinates": [ -118.5, 34.29 ] } },
{ "type": "Feature", "properties": { "zip": "91350", "city": "Santa Clarita", "state": "CA", "name": "Santa Clarita", "teslas": 102, "all_vehicles": 23584, "tesla_rate_1k": 4.32, "avg_house_income": 132465, "avg_net_worth": 1256389 }, "geometry": { "type": "Point", "coordinates": [ -118.51, 34.43 ] } },
{ "type": "Feature", "properties": { "zip": "91351", "city": "Canyon Country", "state": "CA", "name": "Canyon Country", "teslas": 24, "all_vehicles": 17934, "tesla_rate_1k": 1.34, "avg_house_income": 91078, "avg_net_worth": 615569 }, "geometry": { "type": "Point", "coordinates": [ -118.46, 34.43 ] } },
{ "type": "Feature", "properties": { "zip": "91354", "city": "Valencia", "state": "CA", "name": "Valencia", "teslas": 109, "all_vehicles": 19981, "tesla_rate_1k": 5.46, "avg_house_income": 139161, "avg_net_worth": 942945 }, "geometry": { "type": "Point", "coordinates": [ -118.57, 34.46 ] } },
{ "type": "Feature", "properties": { "zip": "91355", "city": "Valencia", "state": "CA", "name": "Valencia", "teslas": 86, "all_vehicles": 21227, "tesla_rate_1k": 4.05, "avg_house_income": 119330, "avg_net_worth": 909188 }, "geometry": { "type": "Point", "coordinates": [ -118.56, 34.41 ] } },
{ "type": "Feature", "properties": { "zip": "91356", "city": "Tarzana", "state": "CA", "name": "Tarzana", "teslas": 200, "all_vehicles": 18174, "tesla_rate_1k": 11.0, "avg_house_income": 132921, "avg_net_worth": 1369568 }, "geometry": { "type": "Point", "coordinates": [ -118.54, 34.15 ] } },
{ "type": "Feature", "properties": { "zip": "91360", "city": "Thousand Oaks", "state": "CA", "name": "Thousand Oaks", "teslas": 64, "all_vehicles": 23716, "tesla_rate_1k": 2.7, "avg_house_income": 129574, "avg_net_worth": 1314973 }, "geometry": { "type": "Point", "coordinates": [ -118.88, 34.21 ] } },
{ "type": "Feature", "properties": { "zip": "91361", "city": "Westlake Village", "state": "CA", "name": "Westlake Village", "teslas": 222, "all_vehicles": 14783, "tesla_rate_1k": 15.02, "avg_house_income": 166828, "avg_net_worth": 1854091 }, "geometry": { "type": "Point", "coordinates": [ -118.89, 34.14 ] } },
{ "type": "Feature", "properties": { "zip": "91362", "city": "Thousand Oaks", "state": "CA", "name": "Thousand Oaks", "teslas": 279, "all_vehicles": 26136, "tesla_rate_1k": 10.67, "avg_house_income": 161540, "avg_net_worth": 1770328 }, "geometry": { "type": "Point", "coordinates": [ -118.81, 34.19 ] } },
{ "type": "Feature", "properties": { "zip": "91364", "city": "Woodland Hills", "state": "CA", "name": "Woodland Hills", "teslas": 162, "all_vehicles": 17361, "tesla_rate_1k": 9.33, "avg_house_income": 160518, "avg_net_worth": 1590126 }, "geometry": { "type": "Point", "coordinates": [ -118.6, 34.15 ] } },
{ "type": "Feature", "properties": { "zip": "91367", "city": "Woodland Hills", "state": "CA", "name": "Woodland Hills", "teslas": 200, "all_vehicles": 26309, "tesla_rate_1k": 7.6, "avg_house_income": 121497, "avg_net_worth": 974122 }, "geometry": { "type": "Point", "coordinates": [ -118.61, 34.17 ] } },
{ "type": "Feature", "properties": { "zip": "91377", "city": "Oak Park", "state": "CA", "name": "Oak Park", "teslas": 74, "all_vehicles": 9767, "tesla_rate_1k": 7.58, "avg_house_income": 181554, "avg_net_worth": 1492577 }, "geometry": { "type": "Point", "coordinates": [ -118.76, 34.19 ] } },
{ "type": "Feature", "properties": { "zip": "91381", "city": "Stevenson Ranch", "state": "CA", "name": "Stevenson Ranch", "teslas": 133, "all_vehicles": 12808, "tesla_rate_1k": 10.38, "avg_house_income": 157862, "avg_net_worth": 918692 }, "geometry": { "type": "Point", "coordinates": [ -118.61, 34.37 ] } },
{ "type": "Feature", "properties": { "zip": "91384", "city": "Castaic", "state": "CA", "name": "Castaic", "teslas": 27, "all_vehicles": 13283, "tesla_rate_1k": 2.03, "avg_house_income": 133698, "avg_net_worth": 1014464 }, "geometry": { "type": "Point", "coordinates": [ -118.68, 34.51 ] } },
{ "type": "Feature", "properties": { "zip": "91387", "city": "Canyon Country", "state": "CA", "name": "Canyon Country", "teslas": 66, "all_vehicles": 23789, "tesla_rate_1k": 2.77, "avg_house_income": 110860, "avg_net_worth": 758188 }, "geometry": { "type": "Point", "coordinates": [ -118.4, 34.4 ] } },
{ "type": "Feature", "properties": { "zip": "91390", "city": "Santa Clarita", "state": "CA", "name": "Santa Clarita", "teslas": 22, "all_vehicles": 11890, "tesla_rate_1k": 1.85, "avg_house_income": 143814, "avg_net_worth": 1180205 }, "geometry": { "type": "Point", "coordinates": [ -118.4, 34.53 ] } },
{ "type": "Feature", "properties": { "zip": "91401", "city": "Van Nuys", "state": "CA", "name": "Van Nuys", "teslas": 30, "all_vehicles": 20175, "tesla_rate_1k": 1.49, "avg_house_income": 82920, "avg_net_worth": 342491 }, "geometry": { "type": "Point", "coordinates": [ -118.43, 34.17 ] } },
{ "type": "Feature", "properties": { "zip": "91403", "city": "Sherman Oaks", "state": "CA", "name": "Sherman Oaks", "teslas": 203, "all_vehicles": 16042, "tesla_rate_1k": 12.65, "avg_house_income": 132678, "avg_net_worth": 949848 }, "geometry": { "type": "Point", "coordinates": [ -118.46, 34.14 ] } },
{ "type": "Feature", "properties": { "zip": "91405", "city": "Van Nuys", "state": "CA", "name": "Van Nuys", "teslas": 12, "all_vehicles": 24995, "tesla_rate_1k": 0.48, "avg_house_income": 60769, "avg_net_worth": 106123 }, "geometry": { "type": "Point", "coordinates": [ -118.44, 34.2 ] } },
{ "type": "Feature", "properties": { "zip": "91406", "city": "Van Nuys", "state": "CA", "name": "Van Nuys", "teslas": 41, "all_vehicles": 25725, "tesla_rate_1k": 1.59, "avg_house_income": 71740, "avg_net_worth": 255376 }, "geometry": { "type": "Point", "coordinates": [ -118.49, 34.19 ] } },
{ "type": "Feature", "properties": { "zip": "91411", "city": "Van Nuys", "state": "CA", "name": "Van Nuys", "teslas": 17, "all_vehicles": 11150, "tesla_rate_1k": 1.52, "avg_house_income": 76692, "avg_net_worth": 207784 }, "geometry": { "type": "Point", "coordinates": [ -118.46, 34.17 ] } },
{ "type": "Feature", "properties": { "zip": "91423", "city": "Sherman Oaks", "state": "CA", "name": "Sherman Oaks", "teslas": 228, "all_vehicles": 19705, "tesla_rate_1k": 11.57, "avg_house_income": 129164, "avg_net_worth": 751791 }, "geometry": { "type": "Point", "coordinates": [ -118.42, 34.14 ] } },
{ "type": "Feature", "properties": { "zip": "91436", "city": "Encino", "state": "CA", "name": "Encino", "teslas": 360, "all_vehicles": 11921, "tesla_rate_1k": 30.2, "avg_house_income": 213009, "avg_net_worth": 2626425 }, "geometry": { "type": "Point", "coordinates": [ -118.49, 34.15 ] } },
{ "type": "Feature", "properties": { "zip": "91501", "city": "Burbank", "state": "CA", "name": "Burbank", "teslas": 30, "all_vehicles": 11726, "tesla_rate_1k": 2.56, "avg_house_income": 91902, "avg_net_worth": 436870 }, "geometry": { "type": "Point", "coordinates": [ -118.29, 34.19 ] } },
{ "type": "Feature", "properties": { "zip": "91504", "city": "Burbank", "state": "CA", "name": "Burbank", "teslas": 59, "all_vehicles": 15194, "tesla_rate_1k": 3.88, "avg_house_income": 108498, "avg_net_worth": 879492 }, "geometry": { "type": "Point", "coordinates": [ -118.3, 34.2 ] } },
{ "type": "Feature", "properties": { "zip": "91505", "city": "Burbank", "state": "CA", "name": "Burbank", "teslas": 78, "all_vehicles": 17868, "tesla_rate_1k": 4.37, "avg_house_income": 98280, "avg_net_worth": 412924 }, "geometry": { "type": "Point", "coordinates": [ -118.34, 34.17 ] } },
{ "type": "Feature", "properties": { "zip": "91506", "city": "Burbank", "state": "CA", "name": "Burbank", "teslas": 26, "all_vehicles": 10789, "tesla_rate_1k": 2.41, "avg_house_income": 110765, "avg_net_worth": 633859 }, "geometry": { "type": "Point", "coordinates": [ -118.32, 34.17 ] } },
{ "type": "Feature", "properties": { "zip": "91601", "city": "North Hollywood", "state": "CA", "name": "North Hollywood", "teslas": 22, "all_vehicles": 17908, "tesla_rate_1k": 1.23, "avg_house_income": 71800, "avg_net_worth": 134791 }, "geometry": { "type": "Point", "coordinates": [ -118.37, 34.16 ] } },
{ "type": "Feature", "properties": { "zip": "91602", "city": "North Hollywood", "state": "CA", "name": "North Hollywood", "teslas": 93, "all_vehicles": 11611, "tesla_rate_1k": 8.01, "avg_house_income": 108939, "avg_net_worth": 387835 }, "geometry": { "type": "Point", "coordinates": [ -118.36, 34.15 ] } },
{ "type": "Feature", "properties": { "zip": "91604", "city": "Studio City", "state": "CA", "name": "Studio City", "teslas": 277, "all_vehicles": 19109, "tesla_rate_1k": 14.5, "avg_house_income": 147998, "avg_net_worth": 898797 }, "geometry": { "type": "Point", "coordinates": [ -118.39, 34.13 ] } },
{ "type": "Feature", "properties": { "zip": "91605", "city": "North Hollywood", "state": "CA", "name": "North Hollywood", "teslas": 13, "all_vehicles": 25684, "tesla_rate_1k": 0.51, "avg_house_income": 62031, "avg_net_worth": 202026 }, "geometry": { "type": "Point", "coordinates": [ -118.39, 34.2 ] } },
{ "type": "Feature", "properties": { "zip": "91606", "city": "North Hollywood", "state": "CA", "name": "North Hollywood", "teslas": 16, "all_vehicles": 19532, "tesla_rate_1k": 0.82, "avg_house_income": 61774, "avg_net_worth": 160007 }, "geometry": { "type": "Point", "coordinates": [ -118.39, 34.18 ] } },
{ "type": "Feature", "properties": { "zip": "91607", "city": "Valley Village", "state": "CA", "name": "Valley Village", "teslas": 48, "all_vehicles": 16372, "tesla_rate_1k": 2.93, "avg_house_income": 94301, "avg_net_worth": 311034 }, "geometry": { "type": "Point", "coordinates": [ -118.4, 34.16 ] } },
{ "type": "Feature", "properties": { "zip": "91701", "city": "Rancho Cucamonga", "state": "CA", "name": "Rancho Cucamonga", "teslas": 20, "all_vehicles": 23110, "tesla_rate_1k": 0.87, "avg_house_income": 105282, "avg_net_worth": 997816 }, "geometry": { "type": "Point", "coordinates": [ -117.61, 34.14 ] } },
{ "type": "Feature", "properties": { "zip": "91702", "city": "Azusa", "state": "CA", "name": "Azusa", "teslas": 45, "all_vehicles": 26271, "tesla_rate_1k": 1.71, "avg_house_income": 73870, "avg_net_worth": 335223 }, "geometry": { "type": "Point", "coordinates": [ -117.87, 34.17 ] } },
{ "type": "Feature", "properties": { "zip": "91706", "city": "Baldwin Park", "state": "CA", "name": "Baldwin Park", "teslas": 24, "all_vehicles": 34502, "tesla_rate_1k": 0.7, "avg_house_income": 67399, "avg_net_worth": 242148 }, "geometry": { "type": "Point", "coordinates": [ -117.96, 34.09 ] } },
{ "type": "Feature", "properties": { "zip": "91708", "city": "Chino", "state": "CA", "name": "Chino", "teslas": 15, "all_vehicles": 5555, "tesla_rate_1k": 2.7, "avg_house_income": 116706, "avg_net_worth": 535702 }, "geometry": { "type": "Point", "coordinates": [ -117.68, 34.02 ] } },
{ "type": "Feature", "properties": { "zip": "91709", "city": "Chino Hills", "state": "CA", "name": "Chino Hills", "teslas": 269, "all_vehicles": 47676, "tesla_rate_1k": 5.64, "avg_house_income": 128066, "avg_net_worth": 1030773 }, "geometry": { "type": "Point", "coordinates": [ -117.72, 33.94 ] } },
{ "type": "Feature", "properties": { "zip": "91710", "city": "Chino", "state": "CA", "name": "Chino", "teslas": 101, "all_vehicles": 43531, "tesla_rate_1k": 2.32, "avg_house_income": 93050, "avg_net_worth": 579195 }, "geometry": { "type": "Point", "coordinates": [ -117.65, 33.98 ] } },
{ "type": "Feature", "properties": { "zip": "91711", "city": "Claremont", "state": "CA", "name": "Claremont", "teslas": 137, "all_vehicles": 18121, "tesla_rate_1k": 7.56, "avg_house_income": 128594, "avg_net_worth": 1348155 }, "geometry": { "type": "Point", "coordinates": [ -117.71, 34.12 ] } },
{ "type": "Feature", "properties": { "zip": "91724", "city": "Covina", "state": "CA", "name": "Covina", "teslas": 13, "all_vehicles": 14211, "tesla_rate_1k": 0.91, "avg_house_income": 99322, "avg_net_worth": 865970 }, "geometry": { "type": "Point", "coordinates": [ -117.84, 34.07 ] } },
{ "type": "Feature", "properties": { "zip": "91730", "city": "Rancho Cucamonga", "state": "CA", "name": "Rancho Cucamonga", "teslas": 53, "all_vehicles": 37095, "tesla_rate_1k": 1.43, "avg_house_income": 82939, "avg_net_worth": 404364 }, "geometry": { "type": "Point", "coordinates": [ -117.58, 34.09 ] } },
{ "type": "Feature", "properties": { "zip": "91731", "city": "El Monte", "state": "CA", "name": "El Monte", "teslas": 14, "all_vehicles": 12124, "tesla_rate_1k": 1.15, "avg_house_income": 52971, "avg_net_worth": 172794 }, "geometry": { "type": "Point", "coordinates": [ -118.03, 34.08 ] } },
{ "type": "Feature", "properties": { "zip": "91732", "city": "El Monte", "state": "CA", "name": "El Monte", "teslas": 11, "all_vehicles": 23944, "tesla_rate_1k": 0.46, "avg_house_income": 58419, "avg_net_worth": 171873 }, "geometry": { "type": "Point", "coordinates": [ -118.01, 34.07 ] } },
{ "type": "Feature", "properties": { "zip": "91733", "city": "South El Monte", "state": "CA", "name": "South El Monte", "teslas": 15, "all_vehicles": 17700, "tesla_rate_1k": 0.85, "avg_house_income": 57838, "avg_net_worth": 180486 }, "geometry": { "type": "Point", "coordinates": [ -118.04, 34.04 ] } },
{ "type": "Feature", "properties": { "zip": "91737", "city": "Rancho Cucamonga", "state": "CA", "name": "Rancho Cucamonga", "teslas": 43, "all_vehicles": 14981, "tesla_rate_1k": 2.87, "avg_house_income": 137859, "avg_net_worth": 1299038 }, "geometry": { "type": "Point", "coordinates": [ -117.61, 34.19 ] } },
{ "type": "Feature", "properties": { "zip": "91739", "city": "Rancho Cucamonga", "state": "CA", "name": "Rancho Cucamonga", "teslas": 135, "all_vehicles": 22984, "tesla_rate_1k": 5.87, "avg_house_income": 138582, "avg_net_worth": 926096 }, "geometry": { "type": "Point", "coordinates": [ -117.51, 34.14 ] } },
{ "type": "Feature", "properties": { "zip": "91740", "city": "Glendora", "state": "CA", "name": "Glendora", "teslas": 11, "all_vehicles": 13684, "tesla_rate_1k": 0.8, "avg_house_income": 91060, "avg_net_worth": 603415 }, "geometry": { "type": "Point", "coordinates": [ -117.85, 34.11 ] } },
{ "type": "Feature", "properties": { "zip": "91741", "city": "Glendora", "state": "CA", "name": "Glendora", "teslas": 51, "all_vehicles": 15355, "tesla_rate_1k": 3.32, "avg_house_income": 118203, "avg_net_worth": 1271792 }, "geometry": { "type": "Point", "coordinates": [ -117.85, 34.14 ] } },
{ "type": "Feature", "properties": { "zip": "91745", "city": "Hacienda Heights", "state": "CA", "name": "Hacienda Heights", "teslas": 118, "all_vehicles": 31012, "tesla_rate_1k": 3.8, "avg_house_income": 102176, "avg_net_worth": 804861 }, "geometry": { "type": "Point", "coordinates": [ -117.97, 34.0 ] } },
{ "type": "Feature", "properties": { "zip": "91748", "city": "Rowland Heights", "state": "CA", "name": "Rowland Heights", "teslas": 148, "all_vehicles": 26166, "tesla_rate_1k": 5.66, "avg_house_income": 91524, "avg_net_worth": 668865 }, "geometry": { "type": "Point", "coordinates": [ -117.9, 33.97 ] } },
{ "type": "Feature", "properties": { "zip": "91750", "city": "La Verne", "state": "CA", "name": "La Verne", "teslas": 34, "all_vehicles": 19510, "tesla_rate_1k": 1.74, "avg_house_income": 108367, "avg_net_worth": 1148637 }, "geometry": { "type": "Point", "coordinates": [ -117.76, 34.15 ] } },
{ "type": "Feature", "properties": { "zip": "91752", "city": "Mira Loma", "state": "CA", "name": "Mira Loma", "teslas": 20, "all_vehicles": 18267, "tesla_rate_1k": 1.09, "avg_house_income": 95378, "avg_net_worth": 469997 }, "geometry": { "type": "Point", "coordinates": [ -117.53, 33.99 ] } },
{ "type": "Feature", "properties": { "zip": "91754", "city": "Monterey Park", "state": "CA", "name": "Monterey Park", "teslas": 73, "all_vehicles": 18652, "tesla_rate_1k": 3.91, "avg_house_income": 84216, "avg_net_worth": 518507 }, "geometry": { "type": "Point", "coordinates": [ -118.14, 34.05 ] } },
{ "type": "Feature", "properties": { "zip": "91755", "city": "Monterey Park", "state": "CA", "name": "Monterey Park", "teslas": 34, "all_vehicles": 14996, "tesla_rate_1k": 2.27, "avg_house_income": 81093, "avg_net_worth": 454532 }, "geometry": { "type": "Point", "coordinates": [ -118.11, 34.05 ] } },
{ "type": "Feature", "properties": { "zip": "91761", "city": "Ontario", "state": "CA", "name": "Ontario", "teslas": 34, "all_vehicles": 33427, "tesla_rate_1k": 1.02, "avg_house_income": 81978, "avg_net_worth": 463779 }, "geometry": { "type": "Point", "coordinates": [ -117.58, 34.02 ] } },
{ "type": "Feature", "properties": { "zip": "91762", "city": "Ontario", "state": "CA", "name": "Ontario", "teslas": 17, "all_vehicles": 26470, "tesla_rate_1k": 0.64, "avg_house_income": 71149, "avg_net_worth": 290912 }, "geometry": { "type": "Point", "coordinates": [ -117.67, 34.04 ] } },
{ "type": "Feature", "properties": { "zip": "91764", "city": "Ontario", "state": "CA", "name": "Ontario", "teslas": 11, "all_vehicles": 23333, "tesla_rate_1k": 0.47, "avg_house_income": 63441, "avg_net_worth": 198871 }, "geometry": { "type": "Point", "coordinates": [ -117.62, 34.07 ] } },
{ "type": "Feature", "properties": { "zip": "91765", "city": "Diamond Bar", "state": "CA", "name": "Diamond Bar", "teslas": 260, "all_vehicles": 29408, "tesla_rate_1k": 8.84, "avg_house_income": 121105, "avg_net_worth": 1168809 }, "geometry": { "type": "Point", "coordinates": [ -117.81, 33.99 ] } },
{ "type": "Feature", "properties": { "zip": "91766", "city": "Pomona", "state": "CA", "name": "Pomona", "teslas": 23, "all_vehicles": 29123, "tesla_rate_1k": 0.79, "avg_house_income": 71375, "avg_net_worth": 373016 }, "geometry": { "type": "Point", "coordinates": [ -117.75, 34.03 ] } },
{ "type": "Feature", "properties": { "zip": "91770", "city": "Rosemead", "state": "CA", "name": "Rosemead", "teslas": 57, "all_vehicles": 31464, "tesla_rate_1k": 1.81, "avg_house_income": 69099, "avg_net_worth": 292995 }, "geometry": { "type": "Point", "coordinates": [ -118.08, 34.06 ] } },
{ "type": "Feature", "properties": { "zip": "91773", "city": "San Dimas", "state": "CA", "name": "San Dimas", "teslas": 28, "all_vehicles": 19882, "tesla_rate_1k": 1.41, "avg_house_income": 113247, "avg_net_worth": 1074709 }, "geometry": { "type": "Point", "coordinates": [ -117.81, 34.1 ] } },
{ "type": "Feature", "properties": { "zip": "91775", "city": "San Gabriel", "state": "CA", "name": "San Gabriel", "teslas": 64, "all_vehicles": 12712, "tesla_rate_1k": 5.03, "avg_house_income": 117981, "avg_net_worth": 958699 }, "geometry": { "type": "Point", "coordinates": [ -118.08, 34.11 ] } },
{ "type": "Feature", "properties": { "zip": "91776", "city": "San Gabriel", "state": "CA", "name": "San Gabriel", "teslas": 60, "all_vehicles": 20612, "tesla_rate_1k": 2.91, "avg_house_income": 76586, "avg_net_worth": 316964 }, "geometry": { "type": "Point", "coordinates": [ -118.09, 34.08 ] } },
{ "type": "Feature", "properties": { "zip": "91780", "city": "Temple City", "state": "CA", "name": "Temple City", "teslas": 109, "all_vehicles": 19199, "tesla_rate_1k": 5.68, "avg_house_income": 97616, "avg_net_worth": 638493 }, "geometry": { "type": "Point", "coordinates": [ -118.05, 34.1 ] } },
{ "type": "Feature", "properties": { "zip": "91784", "city": "Upland", "state": "CA", "name": "Upland", "teslas": 81, "all_vehicles": 17742, "tesla_rate_1k": 4.57, "avg_house_income": 142873, "avg_net_worth": 1770833 }, "geometry": { "type": "Point", "coordinates": [ -117.65, 34.14 ] } },
{ "type": "Feature", "properties": { "zip": "91786", "city": "Upland", "state": "CA", "name": "Upland", "teslas": 27, "all_vehicles": 25641, "tesla_rate_1k": 1.05, "avg_house_income": 73864, "avg_net_worth": 409011 }, "geometry": { "type": "Point", "coordinates": [ -117.66, 34.1 ] } },
{ "type": "Feature", "properties": { "zip": "91789", "city": "Walnut", "state": "CA", "name": "Walnut", "teslas": 254, "all_vehicles": 26680, "tesla_rate_1k": 9.52, "avg_house_income": 127094, "avg_net_worth": 1332165 }, "geometry": { "type": "Point", "coordinates": [ -117.85, 34.01 ] } },
{ "type": "Feature", "properties": { "zip": "91790", "city": "West Covina", "state": "CA", "name": "West Covina", "teslas": 37, "all_vehicles": 22521, "tesla_rate_1k": 1.64, "avg_house_income": 81679, "avg_net_worth": 455888 }, "geometry": { "type": "Point", "coordinates": [ -117.94, 34.06 ] } },
{ "type": "Feature", "properties": { "zip": "91791", "city": "West Covina", "state": "CA", "name": "West Covina", "teslas": 81, "all_vehicles": 18285, "tesla_rate_1k": 4.43, "avg_house_income": 98631, "avg_net_worth": 722410 }, "geometry": { "type": "Point", "coordinates": [ -117.89, 34.06 ] } },
{ "type": "Feature", "properties": { "zip": "91792", "city": "West Covina", "state": "CA", "name": "West Covina", "teslas": 15, "all_vehicles": 15114, "tesla_rate_1k": 0.99, "avg_house_income": 85864, "avg_net_worth": 504543 }, "geometry": { "type": "Point", "coordinates": [ -117.89, 34.02 ] } },
{ "type": "Feature", "properties": { "zip": "91801", "city": "Alhambra", "state": "CA", "name": "Alhambra", "teslas": 45, "all_vehicles": 26516, "tesla_rate_1k": 1.7, "avg_house_income": 75891, "avg_net_worth": 276767 }, "geometry": { "type": "Point", "coordinates": [ -118.13, 34.09 ] } },
{ "type": "Feature", "properties": { "zip": "91803", "city": "Alhambra", "state": "CA", "name": "Alhambra", "teslas": 37, "all_vehicles": 15212, "tesla_rate_1k": 2.43, "avg_house_income": 81659, "avg_net_worth": 366041 }, "geometry": { "type": "Point", "coordinates": [ -118.14, 34.07 ] } },
{ "type": "Feature", "properties": { "zip": "91902", "city": "Bonita", "state": "CA", "name": "Bonita", "teslas": 15, "all_vehicles": 10920, "tesla_rate_1k": 1.37, "avg_house_income": 122019, "avg_net_worth": 1268827 }, "geometry": { "type": "Point", "coordinates": [ -117.01, 32.67 ] } },
{ "type": "Feature", "properties": { "zip": "91910", "city": "Chula Vista", "state": "CA", "name": "Chula Vista", "teslas": 40, "all_vehicles": 39767, "tesla_rate_1k": 1.01, "avg_house_income": 75844, "avg_net_worth": 438566 }, "geometry": { "type": "Point", "coordinates": [ -117.05, 32.63 ] } },
{ "type": "Feature", "properties": { "zip": "91911", "city": "Chula Vista", "state": "CA", "name": "Chula Vista", "teslas": 13, "all_vehicles": 42646, "tesla_rate_1k": 0.3, "avg_house_income": 67833, "avg_net_worth": 289019 }, "geometry": { "type": "Point", "coordinates": [ -117.03, 32.61 ] } },
{ "type": "Feature", "properties": { "zip": "91913", "city": "Chula Vista", "state": "CA", "name": "Chula Vista", "teslas": 35, "all_vehicles": 27824, "tesla_rate_1k": 1.26, "avg_house_income": 105713, "avg_net_worth": 577627 }, "geometry": { "type": "Point", "coordinates": [ -116.98, 32.64 ] } },
{ "type": "Feature", "properties": { "zip": "91914", "city": "Chula Vista", "state": "CA", "name": "Chula Vista", "teslas": 56, "all_vehicles": 10867, "tesla_rate_1k": 5.15, "avg_house_income": 141692, "avg_net_worth": 963993 }, "geometry": { "type": "Point", "coordinates": [ -116.94, 32.66 ] } },
{ "type": "Feature", "properties": { "zip": "91915", "city": "Chula Vista", "state": "CA", "name": "Chula Vista", "teslas": 29, "all_vehicles": 17472, "tesla_rate_1k": 1.66, "avg_house_income": 123717, "avg_net_worth": 728012 }, "geometry": { "type": "Point", "coordinates": [ -116.93, 32.6 ] } },
{ "type": "Feature", "properties": { "zip": "91935", "city": "Jamul", "state": "CA", "name": "Jamul", "teslas": 15, "all_vehicles": 5401, "tesla_rate_1k": 2.78, "avg_house_income": 126756, "avg_net_worth": 1383614 }, "geometry": { "type": "Point", "coordinates": [ -116.8, 32.69 ] } },
{ "type": "Feature", "properties": { "zip": "91941", "city": "La Mesa", "state": "CA", "name": "La Mesa", "teslas": 71, "all_vehicles": 17479, "tesla_rate_1k": 4.06, "avg_house_income": 99953, "avg_net_worth": 967694 }, "geometry": { "type": "Point", "coordinates": [ -116.99, 32.75 ] } },
{ "type": "Feature", "properties": { "zip": "91942", "city": "La Mesa", "state": "CA", "name": "La Mesa", "teslas": 17, "all_vehicles": 19827, "tesla_rate_1k": 0.86, "avg_house_income": 72043, "avg_net_worth": 302386 }, "geometry": { "type": "Point", "coordinates": [ -117.01, 32.78 ] } },
{ "type": "Feature", "properties": { "zip": "91977", "city": "Spring Valley", "state": "CA", "name": "Spring Valley", "teslas": 14, "all_vehicles": 28744, "tesla_rate_1k": 0.49, "avg_house_income": 80595, "avg_net_worth": 517436 }, "geometry": { "type": "Point", "coordinates": [ -116.99, 32.71 ] } },
{ "type": "Feature", "properties": { "zip": "92007", "city": "Cardiff By The Sea", "state": "CA", "name": "Cardiff By The Sea", "teslas": 35, "all_vehicles": 6743, "tesla_rate_1k": 5.19, "avg_house_income": 132296, "avg_net_worth": 902909 }, "geometry": { "type": "Point", "coordinates": [ -117.27, 33.01 ] } },
{ "type": "Feature", "properties": { "zip": "92008", "city": "Carlsbad", "state": "CA", "name": "Carlsbad", "teslas": 114, "all_vehicles": 17508, "tesla_rate_1k": 6.51, "avg_house_income": 98539, "avg_net_worth": 675039 }, "geometry": { "type": "Point", "coordinates": [ -117.3, 33.13 ] } },
{ "type": "Feature", "properties": { "zip": "92009", "city": "Carlsbad", "state": "CA", "name": "Carlsbad", "teslas": 324, "all_vehicles": 28147, "tesla_rate_1k": 11.51, "avg_house_income": 149902, "avg_net_worth": 1247313 }, "geometry": { "type": "Point", "coordinates": [ -117.27, 33.09 ] } },
{ "type": "Feature", "properties": { "zip": "92010", "city": "Carlsbad", "state": "CA", "name": "Carlsbad", "teslas": 53, "all_vehicles": 10249, "tesla_rate_1k": 5.17, "avg_house_income": 110420, "avg_net_worth": 988779 }, "geometry": { "type": "Point", "coordinates": [ -117.28, 33.15 ] } },
{ "type": "Feature", "properties": { "zip": "92011", "city": "Carlsbad", "state": "CA", "name": "Carlsbad", "teslas": 173, "all_vehicles": 15515, "tesla_rate_1k": 11.15, "avg_house_income": 147070, "avg_net_worth": 1272243 }, "geometry": { "type": "Point", "coordinates": [ -117.29, 33.1 ] } },
{ "type": "Feature", "properties": { "zip": "92014", "city": "Del Mar", "state": "CA", "name": "Del Mar", "teslas": 239, "all_vehicles": 9787, "tesla_rate_1k": 24.42, "avg_house_income": 205084, "avg_net_worth": 2161052 }, "geometry": { "type": "Point", "coordinates": [ -117.25, 32.96 ] } },
{ "type": "Feature", "properties": { "zip": "92019", "city": "El Cajon", "state": "CA", "name": "El Cajon", "teslas": 23, "all_vehicles": 23849, "tesla_rate_1k": 0.96, "avg_house_income": 103709, "avg_net_worth": 1013423 }, "geometry": { "type": "Point", "coordinates": [ -116.86, 32.77 ] } },
{ "type": "Feature", "properties": { "zip": "92020", "city": "El Cajon", "state": "CA", "name": "El Cajon", "teslas": 16, "all_vehicles": 28607, "tesla_rate_1k": 0.56, "avg_house_income": 75839, "avg_net_worth": 577728 }, "geometry": { "type": "Point", "coordinates": [ -116.96, 32.79 ] } },
{ "type": "Feature", "properties": { "zip": "92021", "city": "El Cajon", "state": "CA", "name": "El Cajon", "teslas": 14, "all_vehicles": 31663, "tesla_rate_1k": 0.44, "avg_house_income": 70762, "avg_net_worth": 483981 }, "geometry": { "type": "Point", "coordinates": [ -116.88, 32.84 ] } },
{ "type": "Feature", "properties": { "zip": "92024", "city": "Encinitas", "state": "CA", "name": "Encinitas", "teslas": 393, "all_vehicles": 31693, "tesla_rate_1k": 12.4, "avg_house_income": 141305, "avg_net_worth": 1230108 }, "geometry": { "type": "Point", "coordinates": [ -117.25, 33.05 ] } },
{ "type": "Feature", "properties": { "zip": "92025", "city": "Escondido", "state": "CA", "name": "Escondido", "teslas": 22, "all_vehicles": 21958, "tesla_rate_1k": 1.0, "avg_house_income": 81709, "avg_net_worth": 557453 }, "geometry": { "type": "Point", "coordinates": [ -116.94, 33.09 ] } },
{ "type": "Feature", "properties": { "zip": "92026", "city": "Escondido", "state": "CA", "name": "Escondido", "teslas": 36, "all_vehicles": 26198, "tesla_rate_1k": 1.37, "avg_house_income": 82061, "avg_net_worth": 675974 }, "geometry": { "type": "Point", "coordinates": [ -117.1, 33.22 ] } },
{ "type": "Feature", "properties": { "zip": "92027", "city": "Escondido", "state": "CA", "name": "Escondido", "teslas": 34, "all_vehicles": 25610, "tesla_rate_1k": 1.33, "avg_house_income": 82705, "avg_net_worth": 547927 }, "geometry": { "type": "Point", "coordinates": [ -116.98, 33.13 ] } },
{ "type": "Feature", "properties": { "zip": "92028", "city": "Fallbrook", "state": "CA", "name": "Fallbrook", "teslas": 29, "all_vehicles": 25343, "tesla_rate_1k": 1.14, "avg_house_income": 101581, "avg_net_worth": 1303310 }, "geometry": { "type": "Point", "coordinates": [ -117.29, 33.39 ] } },
{ "type": "Feature", "properties": { "zip": "92029", "city": "Escondido", "state": "CA", "name": "Escondido", "teslas": 42, "all_vehicles": 13779, "tesla_rate_1k": 3.05, "avg_house_income": 113185, "avg_net_worth": 1283045 }, "geometry": { "type": "Point", "coordinates": [ -117.13, 33.08 ] } },
{ "type": "Feature", "properties": { "zip": "92037", "city": "La Jolla", "state": "CA", "name": "La Jolla", "teslas": 566, "all_vehicles": 23884, "tesla_rate_1k": 23.7, "avg_house_income": 159756, "avg_net_worth": 1545600 }, "geometry": { "type": "Point", "coordinates": [ -117.24, 32.86 ] } },
{ "type": "Feature", "properties": { "zip": "92054", "city": "Oceanside", "state": "CA", "name": "Oceanside", "teslas": 26, "all_vehicles": 17726, "tesla_rate_1k": 1.47, "avg_house_income": 72486, "avg_net_worth": 386662 }, "geometry": { "type": "Point", "coordinates": [ -117.43, 33.35 ] } },
{ "type": "Feature", "properties": { "zip": "92056", "city": "Oceanside", "state": "CA", "name": "Oceanside", "teslas": 34, "all_vehicles": 29602, "tesla_rate_1k": 1.15, "avg_house_income": 88969, "avg_net_worth": 773611 }, "geometry": { "type": "Point", "coordinates": [ -117.29, 33.2 ] } },
{ "type": "Feature", "properties": { "zip": "92057", "city": "Oceanside", "state": "CA", "name": "Oceanside", "teslas": 36, "all_vehicles": 29464, "tesla_rate_1k": 1.22, "avg_house_income": 91716, "avg_net_worth": 616671 }, "geometry": { "type": "Point", "coordinates": [ -117.28, 33.27 ] } },
{ "type": "Feature", "properties": { "zip": "92064", "city": "Poway", "state": "CA", "name": "Poway", "teslas": 200, "all_vehicles": 28896, "tesla_rate_1k": 6.92, "avg_house_income": 138685, "avg_net_worth": 1616625 }, "geometry": { "type": "Point", "coordinates": [ -117.02, 32.97 ] } },
{ "type": "Feature", "properties": { "zip": "92065", "city": "Ramona", "state": "CA", "name": "Ramona", "teslas": 16, "all_vehicles": 19318, "tesla_rate_1k": 0.83, "avg_house_income": 105722, "avg_net_worth": 969268 }, "geometry": { "type": "Point", "coordinates": [ -116.83, 33.07 ] } },
{ "type": "Feature", "properties": { "zip": "92067", "city": "Rancho Santa Fe", "state": "CA", "name": "Rancho Santa Fe", "teslas": 338, "all_vehicles": 8456, "tesla_rate_1k": 39.97, "avg_house_income": 235690, "avg_net_worth": 3311315 }, "geometry": { "type": "Point", "coordinates": [ -117.19, 33.02 ] } },
{ "type": "Feature", "properties": { "zip": "92069", "city": "San Marcos", "state": "CA", "name": "San Marcos", "teslas": 29, "all_vehicles": 24501, "tesla_rate_1k": 1.18, "avg_house_income": 80753, "avg_net_worth": 485559 }, "geometry": { "type": "Point", "coordinates": [ -117.17, 33.15 ] } },
{ "type": "Feature", "properties": { "zip": "92071", "city": "Santee", "state": "CA", "name": "Santee", "teslas": 26, "all_vehicles": 29809, "tesla_rate_1k": 0.87, "avg_house_income": 87688, "avg_net_worth": 627121 }, "geometry": { "type": "Point", "coordinates": [ -116.99, 32.85 ] } },
{ "type": "Feature", "properties": { "zip": "92075", "city": "Solana Beach", "state": "CA", "name": "Solana Beach", "teslas": 128, "all_vehicles": 8233, "tesla_rate_1k": 15.55, "avg_house_income": 151013, "avg_net_worth": 1187272 }, "geometry": { "type": "Point", "coordinates": [ -117.25, 32.99 ] } },
{ "type": "Feature", "properties": { "zip": "92078", "city": "San Marcos", "state": "CA", "name": "San Marcos", "teslas": 164, "all_vehicles": 26386, "tesla_rate_1k": 6.22, "avg_house_income": 90652, "avg_net_worth": 594348 }, "geometry": { "type": "Point", "coordinates": [ -117.16, 33.11 ] } },
{ "type": "Feature", "properties": { "zip": "92081", "city": "Vista", "state": "CA", "name": "Vista", "teslas": 24, "all_vehicles": 16446, "tesla_rate_1k": 1.46, "avg_house_income": 84756, "avg_net_worth": 541619 }, "geometry": { "type": "Point", "coordinates": [ -117.24, 33.18 ] } },
{ "type": "Feature", "properties": { "zip": "92084", "city": "Vista", "state": "CA", "name": "Vista", "teslas": 31, "all_vehicles": 22435, "tesla_rate_1k": 1.38, "avg_house_income": 81375, "avg_net_worth": 616732 }, "geometry": { "type": "Point", "coordinates": [ -117.2, 33.21 ] } },
{ "type": "Feature", "properties": { "zip": "92091", "city": "Rancho Santa Fe", "state": "CA", "name": "Rancho Santa Fe", "teslas": 63, "all_vehicles": 1802, "tesla_rate_1k": 34.96, "avg_house_income": 175708, "avg_net_worth": 2667558 }, "geometry": { "type": "Point", "coordinates": [ -117.19, 33.05 ] } },
{ "type": "Feature", "properties": { "zip": "92101", "city": "San Diego", "state": "CA", "name": "San Diego", "teslas": 206, "all_vehicles": 35200, "tesla_rate_1k": 5.85, "avg_house_income": 89150, "avg_net_worth": 196433 }, "geometry": { "type": "Point", "coordinates": [ -117.16, 32.71 ] } },
{ "type": "Feature", "properties": { "zip": "92103", "city": "San Diego", "state": "CA", "name": "San Diego", "teslas": 131, "all_vehicles": 18886, "tesla_rate_1k": 6.94, "avg_house_income": 99163, "avg_net_worth": 360483 }, "geometry": { "type": "Point", "coordinates": [ -117.17, 32.74 ] } },
{ "type": "Feature", "properties": { "zip": "92104", "city": "San Diego", "state": "CA", "name": "San Diego", "teslas": 41, "all_vehicles": 21696, "tesla_rate_1k": 1.89, "avg_house_income": 70526, "avg_net_worth": 184213 }, "geometry": { "type": "Point", "coordinates": [ -117.12, 32.73 ] } },
{ "type": "Feature", "properties": { "zip": "92106", "city": "San Diego", "state": "CA", "name": "San Diego", "teslas": 89, "all_vehicles": 10815, "tesla_rate_1k": 8.23, "avg_house_income": 128973, "avg_net_worth": 1246204 }, "geometry": { "type": "Point", "coordinates": [ -117.23, 32.72 ] } },
{ "type": "Feature", "properties": { "zip": "92107", "city": "San Diego", "state": "CA", "name": "San Diego", "teslas": 44, "all_vehicles": 14415, "tesla_rate_1k": 3.05, "avg_house_income": 95976, "avg_net_worth": 592325 }, "geometry": { "type": "Point", "coordinates": [ -117.24, 32.73 ] } },
{ "type": "Feature", "properties": { "zip": "92108", "city": "San Diego", "state": "CA", "name": "San Diego", "teslas": 62, "all_vehicles": 14423, "tesla_rate_1k": 4.3, "avg_house_income": 88893, "avg_net_worth": 242737 }, "geometry": { "type": "Point", "coordinates": [ -117.1, 32.77 ] } },
{ "type": "Feature", "properties": { "zip": "92109", "city": "San Diego", "state": "CA", "name": "San Diego", "teslas": 123, "all_vehicles": 24476, "tesla_rate_1k": 5.03, "avg_house_income": 96140, "avg_net_worth": 335985 }, "geometry": { "type": "Point", "coordinates": [ -117.23, 32.79 ] } },
{ "type": "Feature", "properties": { "zip": "92110", "city": "San Diego", "state": "CA", "name": "San Diego", "teslas": 20, "all_vehicles": 15668, "tesla_rate_1k": 1.28, "avg_house_income": 85446, "avg_net_worth": 494545 }, "geometry": { "type": "Point", "coordinates": [ -117.18, 32.77 ] } },
{ "type": "Feature", "properties": { "zip": "92111", "city": "San Diego", "state": "CA", "name": "San Diego", "teslas": 60, "all_vehicles": 25361, "tesla_rate_1k": 2.37, "avg_house_income": 80382, "avg_net_worth": 431171 }, "geometry": { "type": "Point", "coordinates": [ -117.16, 32.8 ] } },
{ "type": "Feature", "properties": { "zip": "92115", "city": "San Diego", "state": "CA", "name": "San Diego", "teslas": 32, "all_vehicles": 23782, "tesla_rate_1k": 1.35, "avg_house_income": 62314, "avg_net_worth": 208622 }, "geometry": { "type": "Point", "coordinates": [ -117.07, 32.75 ] } },
{ "type": "Feature", "properties": { "zip": "92116", "city": "San Diego", "state": "CA", "name": "San Diego", "teslas": 42, "all_vehicles": 16937, "tesla_rate_1k": 2.48, "avg_house_income": 77306, "avg_net_worth": 305640 }, "geometry": { "type": "Point", "coordinates": [ -117.12, 32.76 ] } },
{ "type": "Feature", "properties": { "zip": "92117", "city": "San Diego", "state": "CA", "name": "San Diego", "teslas": 74, "all_vehicles": 27179, "tesla_rate_1k": 2.72, "avg_house_income": 88772, "avg_net_worth": 586601 }, "geometry": { "type": "Point", "coordinates": [ -117.19, 32.81 ] } },
{ "type": "Feature", "properties": { "zip": "92118", "city": "Coronado", "state": "CA", "name": "Coronado", "teslas": 61, "all_vehicles": 9628, "tesla_rate_1k": 6.34, "avg_house_income": 137812, "avg_net_worth": 1273862 }, "geometry": { "type": "Point", "coordinates": [ -117.14, 32.65 ] } },
{ "type": "Feature", "properties": { "zip": "92119", "city": "San Diego", "state": "CA", "name": "San Diego", "teslas": 18, "all_vehicles": 13286, "tesla_rate_1k": 1.35, "avg_house_income": 92809, "avg_net_worth": 1021584 }, "geometry": { "type": "Point", "coordinates": [ -117.03, 32.81 ] } },
{ "type": "Feature", "properties": { "zip": "92120", "city": "San Diego", "state": "CA", "name": "San Diego", "teslas": 44, "all_vehicles": 17348, "tesla_rate_1k": 2.54, "avg_house_income": 103501, "avg_net_worth": 1087052 }, "geometry": { "type": "Point", "coordinates": [ -117.06, 32.79 ] } },
{ "type": "Feature", "properties": { "zip": "92121", "city": "San Diego", "state": "CA", "name": "San Diego", "teslas": 71, "all_vehicles": 6058, "tesla_rate_1k": 11.72, "avg_house_income": 153783, "avg_net_worth": 1108024 }, "geometry": { "type": "Point", "coordinates": [ -117.2, 32.9 ] } },
{ "type": "Feature", "properties": { "zip": "92122", "city": "San Diego", "state": "CA", "name": "San Diego", "teslas": 111, "all_vehicles": 21938, "tesla_rate_1k": 5.06, "avg_house_income": 108323, "avg_net_worth": 627178 }, "geometry": { "type": "Point", "coordinates": [ -117.2, 32.85 ] } },
{ "type": "Feature", "properties": { "zip": "92123", "city": "San Diego", "state": "CA", "name": "San Diego", "teslas": 29, "all_vehicles": 19527, "tesla_rate_1k": 1.49, "avg_house_income": 92289, "avg_net_worth": 408165 }, "geometry": { "type": "Point", "coordinates": [ -117.13, 32.8 ] } },
{ "type": "Feature", "properties": { "zip": "92124", "city": "San Diego", "state": "CA", "name": "San Diego", "teslas": 56, "all_vehicles": 15111, "tesla_rate_1k": 3.71, "avg_house_income": 109520, "avg_net_worth": 907617 }, "geometry": { "type": "Point", "coordinates": [ -117.08, 32.82 ] } },
{ "type": "Feature", "properties": { "zip": "92126", "city": "San Diego", "state": "CA", "name": "San Diego", "teslas": 119, "all_vehicles": 40818, "tesla_rate_1k": 2.92, "avg_house_income": 100493, "avg_net_worth": 573633 }, "geometry": { "type": "Point", "coordinates": [ -117.13, 32.88 ] } },
{ "type": "Feature", "properties": { "zip": "92127", "city": "San Diego", "state": "CA", "name": "San Diego", "teslas": 511, "all_vehicles": 28570, "tesla_rate_1k": 17.89, "avg_house_income": 158748, "avg_net_worth": 1066618 }, "geometry": { "type": "Point", "coordinates": [ -117.12, 33.02 ] } },
{ "type": "Feature", "properties": { "zip": "92128", "city": "San Diego", "state": "CA", "name": "San Diego", "teslas": 130, "all_vehicles": 29855, "tesla_rate_1k": 4.35, "avg_house_income": 123334, "avg_net_worth": 1218479 }, "geometry": { "type": "Point", "coordinates": [ -117.07, 32.99 ] } },
{ "type": "Feature", "properties": { "zip": "92129", "city": "San Diego", "state": "CA", "name": "San Diego", "teslas": 219, "all_vehicles": 31032, "tesla_rate_1k": 7.06, "avg_house_income": 139578, "avg_net_worth": 1073496 }, "geometry": { "type": "Point", "coordinates": [ -117.12, 32.96 ] } },
{ "type": "Feature", "properties": { "zip": "92130", "city": "San Diego", "state": "CA", "name": "San Diego", "teslas": 796, "all_vehicles": 35941, "tesla_rate_1k": 22.15, "avg_house_income": 183826, "avg_net_worth": 1403611 }, "geometry": { "type": "Point", "coordinates": [ -117.19, 32.95 ] } },
{ "type": "Feature", "properties": { "zip": "92131", "city": "San Diego", "state": "CA", "name": "San Diego", "teslas": 222, "all_vehicles": 23251, "tesla_rate_1k": 9.55, "avg_house_income": 172094, "avg_net_worth": 1474486 }, "geometry": { "type": "Point", "coordinates": [ -117.07, 32.89 ] } },
{ "type": "Feature", "properties": { "zip": "92154", "city": "San Diego", "state": "CA", "name": "San Diego", "teslas": 13, "all_vehicles": 46182, "tesla_rate_1k": 0.28, "avg_house_income": 73187, "avg_net_worth": 328140 }, "geometry": { "type": "Point", "coordinates": [ -117.01, 32.56 ] } },
{ "type": "Feature", "properties": { "zip": "92203", "city": "Indio", "state": "CA", "name": "Indio", "teslas": 22, "all_vehicles": 16949, "tesla_rate_1k": 1.3, "avg_house_income": 96755, "avg_net_worth": 1037175 }, "geometry": { "type": "Point", "coordinates": [ -116.23, 33.75 ] } },
{ "type": "Feature", "properties": { "zip": "92210", "city": "Indian Wells", "state": "CA", "name": "Indian Wells", "teslas": 24, "all_vehicles": 3073, "tesla_rate_1k": 7.81, "avg_house_income": 127125, "avg_net_worth": 2078023 }, "geometry": { "type": "Point", "coordinates": [ -116.33, 33.7 ] } },
{ "type": "Feature", "properties": { "zip": "92211", "city": "Palm Desert", "state": "CA", "name": "Palm Desert", "teslas": 49, "all_vehicles": 16257, "tesla_rate_1k": 3.01, "avg_house_income": 99307, "avg_net_worth": 1852504 }, "geometry": { "type": "Point", "coordinates": [ -116.34, 33.77 ] } },
{ "type": "Feature", "properties": { "zip": "92223", "city": "Beaumont", "state": "CA", "name": "Beaumont", "teslas": 13, "all_vehicles": 29023, "tesla_rate_1k": 0.45, "avg_house_income": 89867, "avg_net_worth": 750567 }, "geometry": { "type": "Point", "coordinates": [ -116.97, 33.94 ] } },
{ "type": "Feature", "properties": { "zip": "92234", "city": "Cathedral City", "state": "CA", "name": "Cathedral City", "teslas": 12, "all_vehicles": 24553, "tesla_rate_1k": 0.49, "avg_house_income": 68415, "avg_net_worth": 617602 }, "geometry": { "type": "Point", "coordinates": [ -116.45, 33.82 ] } },
{ "type": "Feature", "properties": { "zip": "92253", "city": "La Quinta", "state": "CA", "name": "La Quinta", "teslas": 84, "all_vehicles": 22283, "tesla_rate_1k": 3.77, "avg_house_income": 118830, "avg_net_worth": 1452156 }, "geometry": { "type": "Point", "coordinates": [ -116.27, 33.65 ] } },
{ "type": "Feature", "properties": { "zip": "92260", "city": "Palm Desert", "state": "CA", "name": "Palm Desert", "teslas": 54, "all_vehicles": 16754, "tesla_rate_1k": 3.22, "avg_house_income": 88677, "avg_net_worth": 1164053 }, "geometry": { "type": "Point", "coordinates": [ -116.4, 33.7 ] } },
{ "type": "Feature", "properties": { "zip": "92262", "city": "Palm Springs", "state": "CA", "name": "Palm Springs", "teslas": 85, "all_vehicles": 13662, "tesla_rate_1k": 6.22, "avg_house_income": 75909, "avg_net_worth": 565236 }, "geometry": { "type": "Point", "coordinates": [ -116.56, 33.85 ] } },
{ "type": "Feature", "properties": { "zip": "92264", "city": "Palm Springs", "state": "CA", "name": "Palm Springs", "teslas": 55, "all_vehicles": 10888, "tesla_rate_1k": 5.05, "avg_house_income": 85661, "avg_net_worth": 998467 }, "geometry": { "type": "Point", "coordinates": [ -116.51, 33.72 ] } },
{ "type": "Feature", "properties": { "zip": "92270", "city": "Rancho Mirage", "state": "CA", "name": "Rancho Mirage", "teslas": 124, "all_vehicles": 11534, "tesla_rate_1k": 10.75, "avg_house_income": 119941, "avg_net_worth": 2059917 }, "geometry": { "type": "Point", "coordinates": [ -116.41, 33.78 ] } },
{ "type": "Feature", "properties": { "zip": "92336", "city": "Fontana", "state": "CA", "name": "Fontana", "teslas": 34, "all_vehicles": 51982, "tesla_rate_1k": 0.65, "avg_house_income": 101792, "avg_net_worth": 590569 }, "geometry": { "type": "Point", "coordinates": [ -117.45, 34.14 ] } },
{ "type": "Feature", "properties": { "zip": "92346", "city": "Highland", "state": "CA", "name": "Highland", "teslas": 12, "all_vehicles": 27263, "tesla_rate_1k": 0.44, "avg_house_income": 87020, "avg_net_worth": 671494 }, "geometry": { "type": "Point", "coordinates": [ -117.15, 34.13 ] } },
{ "type": "Feature", "properties": { "zip": "92354", "city": "Loma Linda", "state": "CA", "name": "Loma Linda", "teslas": 19, "all_vehicles": 10626, "tesla_rate_1k": 1.79, "avg_house_income": 86227, "avg_net_worth": 424691 }, "geometry": { "type": "Point", "coordinates": [ -117.24, 34.05 ] } },
{ "type": "Feature", "properties": { "zip": "92373", "city": "Redlands", "state": "CA", "name": "Redlands", "teslas": 84, "all_vehicles": 19056, "tesla_rate_1k": 4.41, "avg_house_income": 109095, "avg_net_worth": 1203337 }, "geometry": { "type": "Point", "coordinates": [ -117.12, 34.0 ] } },
{ "type": "Feature", "properties": { "zip": "92399", "city": "Yucaipa", "state": "CA", "name": "Yucaipa", "teslas": 11, "all_vehicles": 27475, "tesla_rate_1k": 0.4, "avg_house_income": 83329, "avg_net_worth": 719445 }, "geometry": { "type": "Point", "coordinates": [ -117.01, 34.04 ] } },
{ "type": "Feature", "properties": { "zip": "92407", "city": "San Bernardino", "state": "CA", "name": "San Bernardino", "teslas": 12, "all_vehicles": 27737, "tesla_rate_1k": 0.43, "avg_house_income": 71998, "avg_net_worth": 372394 }, "geometry": { "type": "Point", "coordinates": [ -117.37, 34.22 ] } },
{ "type": "Feature", "properties": { "zip": "92503", "city": "Riverside", "state": "CA", "name": "Riverside", "teslas": 38, "all_vehicles": 41514, "tesla_rate_1k": 0.92, "avg_house_income": 76679, "avg_net_worth": 436809 }, "geometry": { "type": "Point", "coordinates": [ -117.44, 33.89 ] } },
{ "type": "Feature", "properties": { "zip": "92504", "city": "Riverside", "state": "CA", "name": "Riverside", "teslas": 14, "all_vehicles": 29120, "tesla_rate_1k": 0.48, "avg_house_income": 75800, "avg_net_worth": 459606 }, "geometry": { "type": "Point", "coordinates": [ -117.4, 33.9 ] } },
{ "type": "Feature", "properties": { "zip": "92506", "city": "Riverside", "state": "CA", "name": "Riverside", "teslas": 71, "all_vehicles": 24792, "tesla_rate_1k": 2.86, "avg_house_income": 120198, "avg_net_worth": 1386320 }, "geometry": { "type": "Point", "coordinates": [ -117.36, 33.92 ] } },
{ "type": "Feature", "properties": { "zip": "92507", "city": "Riverside", "state": "CA", "name": "Riverside", "teslas": 17, "all_vehicles": 22277, "tesla_rate_1k": 0.76, "avg_house_income": 58825, "avg_net_worth": 213398 }, "geometry": { "type": "Point", "coordinates": [ -117.31, 33.96 ] } },
{ "type": "Feature", "properties": { "zip": "92508", "city": "Riverside", "state": "CA", "name": "Riverside", "teslas": 21, "all_vehicles": 19804, "tesla_rate_1k": 1.06, "avg_house_income": 120112, "avg_net_worth": 842734 }, "geometry": { "type": "Point", "coordinates": [ -117.32, 33.89 ] } },
{ "type": "Feature", "properties": { "zip": "92509", "city": "Riverside", "state": "CA", "name": "Riverside", "teslas": 12, "all_vehicles": 35049, "tesla_rate_1k": 0.34, "avg_house_income": 71753, "avg_net_worth": 346070 }, "geometry": { "type": "Point", "coordinates": [ -117.44, 33.99 ] } },
{ "type": "Feature", "properties": { "zip": "92530", "city": "Lake Elsinore", "state": "CA", "name": "Lake Elsinore", "teslas": 18, "all_vehicles": 24632, "tesla_rate_1k": 0.73, "avg_house_income": 69681, "avg_net_worth": 324579 }, "geometry": { "type": "Point", "coordinates": [ -117.37, 33.68 ] } },
{ "type": "Feature", "properties": { "zip": "92532", "city": "Lake Elsinore", "state": "CA", "name": "Lake Elsinore", "teslas": 15, "all_vehicles": 13590, "tesla_rate_1k": 1.1, "avg_house_income": 89637, "avg_net_worth": 464713 }, "geometry": { "type": "Point", "coordinates": [ -117.34, 33.71 ] } },
{ "type": "Feature", "properties": { "zip": "92562", "city": "Murrieta", "state": "CA", "name": "Murrieta", "teslas": 81, "all_vehicles": 35961, "tesla_rate_1k": 2.25, "avg_house_income": 108317, "avg_net_worth": 959259 }, "geometry": { "type": "Point", "coordinates": [ -117.33, 33.54 ] } },
{ "type": "Feature", "properties": { "zip": "92563", "city": "Murrieta", "state": "CA", "name": "Murrieta", "teslas": 54, "all_vehicles": 36811, "tesla_rate_1k": 1.47, "avg_house_income": 105393, "avg_net_worth": 669964 }, "geometry": { "type": "Point", "coordinates": [ -117.14, 33.57 ] } },
{ "type": "Feature", "properties": { "zip": "92584", "city": "Menifee", "state": "CA", "name": "Menifee", "teslas": 12, "all_vehicles": 27026, "tesla_rate_1k": 0.44, "avg_house_income": 91836, "avg_net_worth": 665848 }, "geometry": { "type": "Point", "coordinates": [ -117.18, 33.65 ] } },
{ "type": "Feature", "properties": { "zip": "92587", "city": "Sun City", "state": "CA", "name": "Quail Valley", "teslas": 11, "all_vehicles": 9648, "tesla_rate_1k": 1.14, "avg_house_income": 98786, "avg_net_worth": 949793 }, "geometry": { "type": "Point", "coordinates": [ -117.24, 33.69 ] } },
{ "type": "Feature", "properties": { "zip": "92591", "city": "Temecula", "state": "CA", "name": "Temecula", "teslas": 28, "all_vehicles": 22618, "tesla_rate_1k": 1.24, "avg_house_income": 94309, "avg_net_worth": 617928 }, "geometry": { "type": "Point", "coordinates": [ -117.1, 33.53 ] } },
{ "type": "Feature", "properties": { "zip": "92592", "city": "Temecula", "state": "CA", "name": "Temecula", "teslas": 102, "all_vehicles": 44949, "tesla_rate_1k": 2.27, "avg_house_income": 111031, "avg_net_worth": 800215 }, "geometry": { "type": "Point", "coordinates": [ -117.04, 33.53 ] } },
{ "type": "Feature", "properties": { "zip": "92602", "city": "Irvine", "state": "CA", "name": "Irvine", "teslas": 292, "all_vehicles": 16266, "tesla_rate_1k": 17.95, "avg_house_income": 150269, "avg_net_worth": 583761 }, "geometry": { "type": "Point", "coordinates": [ -117.76, 33.74 ] } },
{ "type": "Feature", "properties": { "zip": "92603", "city": "Irvine", "state": "CA", "name": "Irvine", "teslas": 417, "all_vehicles": 13037, "tesla_rate_1k": 31.99, "avg_house_income": 183212, "avg_net_worth": 1606021 }, "geometry": { "type": "Point", "coordinates": [ -117.79, 33.62 ] } },
{ "type": "Feature", "properties": { "zip": "92604", "city": "Irvine", "state": "CA", "name": "Irvine", "teslas": 102, "all_vehicles": 15798, "tesla_rate_1k": 6.46, "avg_house_income": 119363, "avg_net_worth": 1099390 }, "geometry": { "type": "Point", "coordinates": [ -117.78, 33.69 ] } },
{ "type": "Feature", "properties": { "zip": "92606", "city": "Irvine", "state": "CA", "name": "Irvine", "teslas": 106, "all_vehicles": 14323, "tesla_rate_1k": 7.4, "avg_house_income": 122888, "avg_net_worth": 659541 }, "geometry": { "type": "Point", "coordinates": [ -117.79, 33.7 ] } },
{ "type": "Feature", "properties": { "zip": "92610", "city": "Foothill Ranch", "state": "CA", "name": "Foothill Ranch", "teslas": 57, "all_vehicles": 8099, "tesla_rate_1k": 7.04, "avg_house_income": 155622, "avg_net_worth": 1093125 }, "geometry": { "type": "Point", "coordinates": [ -117.67, 33.7 ] } },
{ "type": "Feature", "properties": { "zip": "92612", "city": "Irvine", "state": "CA", "name": "Irvine", "teslas": 139, "all_vehicles": 15714, "tesla_rate_1k": 8.85, "avg_house_income": 108033, "avg_net_worth": 595327 }, "geometry": { "type": "Point", "coordinates": [ -117.81, 33.63 ] } },
{ "type": "Feature", "properties": { "zip": "92614", "city": "Irvine", "state": "CA", "name": "Irvine", "teslas": 137, "all_vehicles": 18549, "tesla_rate_1k": 7.39, "avg_house_income": 127856, "avg_net_worth": 791614 }, "geometry": { "type": "Point", "coordinates": [ -117.85, 33.68 ] } },
{ "type": "Feature", "properties": { "zip": "92617", "city": "Irvine", "state": "CA", "name": "Irvine", "teslas": 16, "all_vehicles": 3973, "tesla_rate_1k": 4.03, "avg_house_income": 30542, "avg_net_worth": 38666 }, "geometry": { "type": "Point", "coordinates": [ -117.83, 33.63 ] } },
{ "type": "Feature", "properties": { "zip": "92618", "city": "Irvine", "state": "CA", "name": "Irvine", "teslas": 621, "all_vehicles": 30767, "tesla_rate_1k": 20.18, "avg_house_income": 119937, "avg_net_worth": 486310 }, "geometry": { "type": "Point", "coordinates": [ -117.73, 33.67 ] } },
{ "type": "Feature", "properties": { "zip": "92620", "city": "Irvine", "state": "CA", "name": "Irvine", "teslas": 569, "all_vehicles": 34752, "tesla_rate_1k": 16.37, "avg_house_income": 139489, "avg_net_worth": 984647 }, "geometry": { "type": "Point", "coordinates": [ -117.76, 33.7 ] } },
{ "type": "Feature", "properties": { "zip": "92624", "city": "Capistrano Beach", "state": "CA", "name": "Capistrano Beach", "teslas": 14, "all_vehicles": 4286, "tesla_rate_1k": 3.27, "avg_house_income": 120419, "avg_net_worth": 1108779 }, "geometry": { "type": "Point", "coordinates": [ -117.66, 33.45 ] } },
{ "type": "Feature", "properties": { "zip": "92625", "city": "Corona Del Mar", "state": "CA", "name": "Corona Del Mar", "teslas": 316, "all_vehicles": 9011, "tesla_rate_1k": 35.07, "avg_house_income": 206930, "avg_net_worth": 2057149 }, "geometry": { "type": "Point", "coordinates": [ -117.86, 33.6 ] } },
{ "type": "Feature", "properties": { "zip": "92626", "city": "Costa Mesa", "state": "CA", "name": "Costa Mesa", "teslas": 154, "all_vehicles": 28757, "tesla_rate_1k": 5.36, "avg_house_income": 108758, "avg_net_worth": 645087 }, "geometry": { "type": "Point", "coordinates": [ -117.9, 33.67 ] } },
{ "type": "Feature", "properties": { "zip": "92627", "city": "Costa Mesa", "state": "CA", "name": "Costa Mesa", "teslas": 144, "all_vehicles": 29210, "tesla_rate_1k": 4.93, "avg_house_income": 88891, "avg_net_worth": 313728 }, "geometry": { "type": "Point", "coordinates": [ -117.91, 33.64 ] } },
{ "type": "Feature", "properties": { "zip": "92629", "city": "Dana Point", "state": "CA", "name": "Dana Point", "teslas": 178, "all_vehicles": 17034, "tesla_rate_1k": 10.45, "avg_house_income": 141140, "avg_net_worth": 1302451 }, "geometry": { "type": "Point", "coordinates": [ -117.7, 33.47 ] } },
{ "type": "Feature", "properties": { "zip": "92630", "city": "Lake Forest", "state": "CA", "name": "Lake Forest", "teslas": 259, "all_vehicles": 38432, "tesla_rate_1k": 6.74, "avg_house_income": 118389, "avg_net_worth": 931495 }, "geometry": { "type": "Point", "coordinates": [ -117.67, 33.64 ] } },
{ "type": "Feature", "properties": { "zip": "92646", "city": "Huntington Beach", "state": "CA", "name": "Huntington Beach", "teslas": 202, "all_vehicles": 33722, "tesla_rate_1k": 5.99, "avg_house_income": 118078, "avg_net_worth": 1270882 }, "geometry": { "type": "Point", "coordinates": [ -117.97, 33.66 ] } },
{ "type": "Feature", "properties": { "zip": "92647", "city": "Huntington Beach", "state": "CA", "name": "Huntington Beach", "teslas": 99, "all_vehicles": 30508, "tesla_rate_1k": 3.25, "avg_house_income": 98790, "avg_net_worth": 694189 }, "geometry": { "type": "Point", "coordinates": [ -118.0, 33.72 ] } },
{ "type": "Feature", "properties": { "zip": "92648", "city": "Huntington Beach", "state": "CA", "name": "Huntington Beach", "teslas": 354, "all_vehicles": 28812, "tesla_rate_1k": 12.29, "avg_house_income": 139961, "avg_net_worth": 1151248 }, "geometry": { "type": "Point", "coordinates": [ -118.0, 33.67 ] } },
{ "type": "Feature", "properties": { "zip": "92649", "city": "Huntington Beach", "state": "CA", "name": "Huntington Beach", "teslas": 235, "all_vehicles": 22103, "tesla_rate_1k": 10.63, "avg_house_income": 135201, "avg_net_worth": 1343836 }, "geometry": { "type": "Point", "coordinates": [ -118.04, 33.71 ] } },