{
"type": "FeatureCollection",
"name": "stations",
"crs": { "type": "name", "properties": { "name": "urn:ogc:def:crs:OGC:1.3:CRS84" } },
"features": [
{ "type": "Feature", "properties": { "OBJECTID": 1, "STANUM": 77.0, "ADDRESS": "46833 Peace Valley Road", "CITY": "Gorman", "STATEZIP": "CA 93243-0002", "BN": 6, "DIV": "III", "REGION": "North" }, "geometry": { "type": "Point", "coordinates": [ -118.797401291625789, 34.759384100033657 ] } },
{ "type": "Feature", "properties": { "OBJECTID": 2, "STANUM": 112.0, "ADDRESS": "8812 W. Avenue E-8", "CITY": "Lancaster", "STATEZIP": "CA 93535-9662", "BN": 11, "DIV": "V", "REGION": "North" }, "geometry": { "type": "Point", "coordinates": [ -118.288173573302558, 34.754403320391631 ] } },
{ "type": "Feature", "properties": { "OBJECTID": 3, "STANUM": 117.0, "ADDRESS": "44851 30th Street East", "CITY": "Lancaster", "STATEZIP": "CA 93535-1338", "BN": 11, "DIV": "V", "REGION": "North" }, "geometry": { "type": "Point", "coordinates": [ -118.077459589632227, 34.698662894256273 ] } },
{ "type": "Feature", "properties": { "OBJECTID": 4, "STANUM": 33.0, "ADDRESS": "44947 Date Avenue", "CITY": "Lancaster", "STATEZIP": "CA 93534-3213", "BN": 11, "DIV": "V", "REGION": "North" }, "geometry": { "type": "Point", "coordinates": [ -118.141378096295853, 34.699386479911333 ] } },
{ "type": "Feature", "properties": { "OBJECTID": 5, "STANUM": 130.0, "ADDRESS": "44558 40th Street West", "CITY": "Lancaster", "STATEZIP": "CA 93536-9575", "BN": 11, "DIV": "V", "REGION": "North" }, "geometry": { "type": "Point", "coordinates": [ -118.201091538981245, 34.692813935490896 ] } },
{ "type": "Feature", "properties": { "OBJECTID": 6, "STANUM": 78.0, "ADDRESS": "17021 Elizabeth Lake Road", "CITY": "Lake Hughes", "STATEZIP": "CA 93532-9519", "BN": 11, "DIV": "V", "REGION": "North" }, "geometry": { "type": "Point", "coordinates": [ -118.430884212320265, 34.673660055988897 ] } },
{ "type": "Feature", "properties": { "OBJECTID": 7, "STANUM": 135.0, "ADDRESS": "1846 East Avenue K-4", "CITY": "Lancaster", "STATEZIP": "CA 93535", "BN": 11, "DIV": "V", "REGION": "North" }, "geometry": { "type": "Point", "coordinates": [ -118.095187446652218, 34.671075334831372 ] } },
{ "type": "Feature", "properties": { "OBJECTID": 8, "STANUM": 134.0, "ADDRESS": "43225 North 25th Street West", "CITY": "Lancaster", "STATEZIP": "CA 93534", "BN": 11, "DIV": "V", "REGION": "North" }, "geometry": { "type": "Point", "coordinates": [ -118.175032887181757, 34.668300703199726 ] } },
{ "type": "Feature", "properties": { "OBJECTID": 9, "STANUM": 129.0, "ADDRESS": "42110 6th Street West", "CITY": "Lancaster", "STATEZIP": "CA 93534-7134", "BN": 11, "DIV": "V", "REGION": "North" }, "geometry": { "type": "Point", "coordinates": [ -118.140777980865707, 34.648068877208452 ] } },
{ "type": "Feature", "properties": { "OBJECTID": 10, "STANUM": 84.0, "ADDRESS": "5030 W. Avenue L-14", "CITY": "Quartz Hill", "STATEZIP": "CA 93536-3622", "BN": 11, "DIV": "V", "REGION": "North" }, "geometry": { "type": "Point", "coordinates": [ -118.219570686238242, 34.647139497885242 ] } },
{ "type": "Feature", "properties": { "OBJECTID": 12, "STANUM": 140.0, "ADDRESS": "8723 Elizabeth Lake Road", "CITY": "Leona Valley", "STATEZIP": "CA 93551-9715", "BN": 11, "DIV": "V", "REGION": "North" }, "geometry": { "type": "Point", "coordinates": [ -118.284875824805781, 34.617319491182002 ] } },
{ "type": "Feature", "properties": { "OBJECTID": 13, "STANUM": 136.0, "ADDRESS": "3650 Bolz Ranch Road", "CITY": "Palmdale", "STATEZIP": "CA 93551", "BN": 17, "DIV": "V", "REGION": "North" }, "geometry": { "type": "Point", "coordinates": [ -118.194742654341397, 34.616153265892002 ] } },
{ "type": "Feature", "properties": { "OBJECTID": 14, "STANUM": 114.0, "ADDRESS": "39939 N. 170th Street East", "CITY": "Palmdale", "STATEZIP": "CA 93550-9618", "BN": 17, "DIV": "V", "REGION": "North" }, "geometry": { "type": "Point", "coordinates": [ -117.825424888101452, 34.606897673055322 ] } },
{ "type": "Feature", "properties": { "OBJECTID": 15, "STANUM": 24.0, "ADDRESS": "1050 W. Avenue P", "CITY": "Palmdale", "STATEZIP": "CA 93550-2932", "BN": 17, "DIV": "V", "REGION": "North" }, "geometry": { "type": "Point", "coordinates": [ -118.149516835844167, 34.601427899425481 ] } },
{ "type": "Feature", "properties": { "OBJECTID": 16, "STANUM": 37.0, "ADDRESS": "38318 E. 9th Street East", "CITY": "Palmdale", "STATEZIP": "CA 93550-4790", "BN": 17, "DIV": "V", "REGION": "North" }, "geometry": { "type": "Point", "coordinates": [ -118.113990215371672, 34.578132366395188 ] } },
{ "type": "Feature", "properties": { "OBJECTID": 17, "STANUM": 93.0, "ADDRESS": "5624 E Avenue R", "CITY": "Palmdale", "STATEZIP": "CA 93550", "BN": 17, "DIV": "V", "REGION": "North" }, "geometry": { "type": "Point", "coordinates": [ -118.028667274802942, 34.572192000414859 ] } },
{ "type": "Feature", "properties": { "OBJECTID": 18, "STANUM": 131.0, "ADDRESS": "2629 E. Avenue S", "CITY": "Palmdale", "STATEZIP": "CA 93550-4790", "BN": 17, "DIV": "V", "REGION": "North" }, "geometry": { "type": "Point", "coordinates": [ -118.081264820821332, 34.55844679216392 ] } },
{ "type": "Feature", "properties": { "OBJECTID": 19, "STANUM": 92.0, "ADDRESS": "8905 E. Avenue U", "CITY": "Littlerock", "STATEZIP": "CA 93543-9520", "BN": 17, "DIV": "V", "REGION": "North" }, "geometry": { "type": "Point", "coordinates": [ -117.970938896427441, 34.528685446758217 ] } },
{ "type": "Feature", "properties": { "OBJECTID": 20, "STANUM": 81.0, "ADDRESS": "8710 W. Sierra Highway", "CITY": "Agua Dulce", "STATEZIP": "CA 91350-2814", "BN": 22, "DIV": "III", "REGION": "Noth" }, "geometry": { "type": "Point", "coordinates": [ -118.286433289840446, 34.51918943470767 ] } },
{ "type": "Feature", "properties": { "OBJECTID": 21, "STANUM": 79.0, "ADDRESS": "33957 Longview Road", "CITY": "Pearblossom", "STATEZIP": "CA 93553-9704", "BN": 17, "DIV": "V", "REGION": "North" }, "geometry": { "type": "Point", "coordinates": [ -117.896892834121573, 34.502494712078693 ] } },
{ "type": "Feature", "properties": { "OBJECTID": 22, "STANUM": 149.0, "ADDRESS": "31770 Ridge Route Road", "CITY": "Castaic", "STATEZIP": "CA 91384-3329", "BN": 6, "DIV": "III", "REGION": "North" }, "geometry": { "type": "Point", "coordinates": [ -118.616050931734364, 34.496558691072764 ] } },
{ "type": "Feature", "properties": { "OBJECTID": 23, "STANUM": 80.0, "ADDRESS": "1533 W. Sierra Highway", "CITY": "Acton", "STATEZIP": "CA 93510-9740", "BN": 17, "DIV": "V", "REGION": "North" }, "geometry": { "type": "Point", "coordinates": [ -118.14208660726527, 34.487844058207791 ] } },
{ "type": "Feature", "properties": { "OBJECTID": 24, "STANUM": 108.0, "ADDRESS": "28799 N. Rock Canyon Dr.", "CITY": "Santa Clarita", "STATEZIP": "CA 91390-4297", "BN": 22, "DIV": "III", "REGION": "North" }, "geometry": { "type": "Point", "coordinates": [ -118.514655345924879, 34.46880540747258 ] } },
{ "type": "Feature", "properties": { "OBJECTID": 28, "STANUM": 111.0, "ADDRESS": "26829 Seco Canyon Road", "CITY": "Valencia", "STATEZIP": "CA 91350-2217", "BN": 22, "DIV": "III", "REGION": "North" }, "geometry": { "type": "Point", "coordinates": [ -118.531939712642853, 34.434200569977712 ] } },
{ "type": "Feature", "properties": { "OBJECTID": 29, "STANUM": 107.0, "ADDRESS": "18239 W. Soledad Canyon Road", "CITY": "Canyon Country", "STATEZIP": "CA 91351-3521", "BN": 22, "DIV": "III", "REGION": "North" }, "geometry": { "type": "Point", "coordinates": [ -118.451200417439779, 34.416770931153394 ] } },
{ "type": "Feature", "properties": { "OBJECTID": 30, "STANUM": 126.0, "ADDRESS": "26320 Citrus St.", "CITY": "Santa Clarita", "STATEZIP": "CA 91355", "BN": 6, "DIV": "III", "REGION": "North" }, "geometry": { "type": "Point", "coordinates": [ -118.553222994856768, 34.41507575493538 ] } },
{ "type": "Feature", "properties": { "OBJECTID": 33, "STANUM": 73.0, "ADDRESS": "24875 N. Railroad Avenue", "CITY": "Newhall", "STATEZIP": "CA 91321-1520", "BN": 6, "DIV": "III", "REGION": "North" }, "geometry": { "type": "Point", "coordinates": [ -118.533804284378206, 34.387484382762651 ] } },
{ "type": "Feature", "properties": { "OBJECTID": 34, "STANUM": 123.0, "ADDRESS": "26321 N. Sand Canyon Road", "CITY": "Canyon Country", "STATEZIP": "CA 91351-4020", "BN": 22, "DIV": "III", "REGION": "North" }, "geometry": { "type": "Point", "coordinates": [ -118.414066539918323, 34.384957572954697 ] } },
{ "type": "Feature", "properties": { "OBJECTID": 36, "STANUM": 75.0, "ADDRESS": "23310 Lake Manor Drive", "CITY": "Chatsworth", "STATEZIP": "CA 91311-6418", "BN": 6, "DIV": "III", "REGION": "North" }, "geometry": { "type": "Point", "coordinates": [ -118.634764354145915, 34.237789193905527 ] } },
{ "type": "Feature", "properties": { "OBJECTID": 37, "STANUM": 63.0, "ADDRESS": "4526 Ramsdell Avenue", "CITY": "La Cresecenta", "STATEZIP": "CA 91214-2838", "BN": 4, "DIV": "III", "REGION": "North" }, "geometry": { "type": "Point", "coordinates": [ -118.244012213882854, 34.227862104719584 ] } },
{ "type": "Feature", "properties": { "OBJECTID": 38, "STANUM": 19.0, "ADDRESS": "1729 W. Foothill Blvd.", "CITY": "La Canada Flintridge", "STATEZIP": "CA 91011-2950", "BN": 4, "DIV": "III", "REGION": "North" }, "geometry": { "type": "Point", "coordinates": [ -118.214386105410085, 34.211286728687824 ] } },
{ "type": "Feature", "properties": { "OBJECTID": 39, "STANUM": 82.0, "ADDRESS": "352 W. Foothill Blvd.", "CITY": "La Canada Flintridge", "STATEZIP": "CA 91011-3501", "BN": 4, "DIV": "III", "REGION": "North" }, "geometry": { "type": "Point", "coordinates": [ -118.186353374294356, 34.19750687264002 ] } },
{ "type": "Feature", "properties": { "OBJECTID": 40, "STANUM": 12.0, "ADDRESS": "2760 N. Lincoln Avenue", "CITY": "Altadena", "STATEZIP": "CA 91001-4961", "BN": 4, "DIV": "III", "REGION": "North" }, "geometry": { "type": "Point", "coordinates": [ -118.158444920228604, 34.192938460830227 ] } },
{ "type": "Feature", "properties": { "OBJECTID": 41, "STANUM": 11.0, "ADDRESS": "2521 N. El Molino Avenue", "CITY": "Altadena", "STATEZIP": "CA 91001-2317", "BN": 4, "DIV": "III", "REGION": "North" }, "geometry": { "type": "Point", "coordinates": [ -118.132813196205319, 34.18857753030867 ] } },
{ "type": "Feature", "properties": { "OBJECTID": 43, "STANUM": 68.0, "ADDRESS": "24130 Calabasas Road", "CITY": "Calabasas", "STATEZIP": "CA 91302-1511", "BN": 5, "DIV": "VII", "REGION": "Central" }, "geometry": { "type": "Point", "coordinates": [ -118.652336025631371, 34.151734371329098 ] } },
{ "type": "Feature", "properties": { "OBJECTID": 44, "STANUM": 125.0, "ADDRESS": "5215 N. Las Virgenes Road", "CITY": "Calabasas", "STATEZIP": "CA 91302-1061", "BN": 5, "DIV": "VII", "REGION": "Central" }, "geometry": { "type": "Point", "coordinates": [ -118.697770661826851, 34.151151967223072 ] } },
{ "type": "Feature", "properties": { "OBJECTID": 47, "STANUM": 144.0, "ADDRESS": "31981 W. Foxfield Drive", "CITY": "Westlake Village", "STATEZIP": "CA 91361-4203", "BN": 5, "DIV": "VII", "REGION": "Central" }, "geometry": { "type": "Point", "coordinates": [ -118.819252979576675, 34.138988519601916 ] } },
{ "type": "Feature", "properties": { "OBJECTID": 48, "STANUM": 44.0, "ADDRESS": "1105 S. Highland Avenue", "CITY": "Duarte", "STATEZIP": "CA 91010-2546", "BN": 16, "DIV": "II", "REGION": "East" }, "geometry": { "type": "Point", "coordinates": [ -117.966931257795395, 34.140710360402259 ] } },
{ "type": "Feature", "properties": { "OBJECTID": 49, "STANUM": 51.0, "ADDRESS": "3900 N. Lankershim Blvd.", "CITY": "Universal City", "STATEZIP": "CA 91608-1085", "BN": 1, "DIV": "VII", "REGION": "Central" }, "geometry": { "type": "Point", "coordinates": [ -118.356618591155879, 34.139547583896814 ] } },
{ "type": "Feature", "properties": { "OBJECTID": 50, "STANUM": 151.0, "ADDRESS": "231 W. Mountain View Avenue", "CITY": "Glendora", "STATEZIP": "CA 91741-3302", "BN": 2, "DIV": "II", "REGION": "East" }, "geometry": { "type": "Point", "coordinates": [ -117.867656903032767, 34.137794616132432 ] } },
{ "type": "Feature", "properties": { "OBJECTID": 51, "STANUM": 65.0, "ADDRESS": "4206 N. Cornell Road", "CITY": "Agoura", "STATEZIP": "CA 91301-2528", "BN": 5, "DIV": "VII", "REGION": "Central" }, "geometry": { "type": "Point", "coordinates": [ -118.753485327730772, 34.134384859592089 ] } },
{ "type": "Feature", "properties": { "OBJECTID": 52, "STANUM": 62.0, "ADDRESS": "3701 N. Mills Avenue", "CITY": "Claremont", "STATEZIP": "CA 91711-1423", "BN": 2, "DIV": "II", "REGION": "East" }, "geometry": { "type": "Point", "coordinates": [ -117.707734053791555, 34.136312582386978 ] } },
{ "type": "Feature", "properties": { "OBJECTID": 53, "STANUM": 32.0, "ADDRESS": "605 N. Angeleno Avenue", "CITY": "Azusa", "STATEZIP": "CA 91702-2904", "BN": 16, "DIV": "II", "REGION": "East" }, "geometry": { "type": "Point", "coordinates": [ -117.910427300657403, 34.131876836576318 ] } },
{ "type": "Feature", "properties": { "OBJECTID": 54, "STANUM": 5.0, "ADDRESS": "7225 N. Rosemead Blvd.", "CITY": "San Gabriel", "STATEZIP": "CA 91775-1315", "BN": 10, "DIV": "IX", "REGION": "East" }, "geometry": { "type": "Point", "coordinates": [ -118.073478012027664, 34.128409419363145 ] } },
{ "type": "Feature", "properties": { "OBJECTID": 55, "STANUM": 86.0, "ADDRESS": "520 S. Amelia Avenue", "CITY": "Glendora", "STATEZIP": "CA 91741-4027", "BN": 2, "DIV": "II", "REGION": "East" }, "geometry": { "type": "Point", "coordinates": [ -117.820164626698542, 34.128212600262628 ] } },
{ "type": "Feature", "properties": { "OBJECTID": 56, "STANUM": 102.0, "ADDRESS": "4370 N. Sumner Avenue", "CITY": "Claremont", "STATEZIP": "CA 91711-2493", "BN": 2, "DIV": "II", "REGION": "East" }, "geometry": { "type": "Point", "coordinates": [ -117.738128003035683, 34.121112291637417 ] } },
{ "type": "Feature", "properties": { "OBJECTID": 57, "STANUM": 85.0, "ADDRESS": "650 E. Gladstone Street", "CITY": "Glendora", "STATEZIP": "CA 91740-5726", "BN": 2, "DIV": "II", "REGION": "East" }, "geometry": { "type": "Point", "coordinates": [ -117.851032861865946, 34.113635913957388 ] } },
{ "type": "Feature", "properties": { "OBJECTID": 58, "STANUM": 47.0, "ADDRESS": "5946 N. Kauffman Avenue", "CITY": "Temple City", "STATEZIP": "CA 91780-2234", "BN": 10, "DIV": "IX", "REGION": "East" }, "geometry": { "type": "Point", "coordinates": [ -118.058067962005708, 34.108489736894882 ] } },
{ "type": "Feature", "properties": { "OBJECTID": 59, "STANUM": 48.0, "ADDRESS": "15546 E. Arrow Hwy.", "CITY": "Irwindale", "STATEZIP": "CA 91706-2001", "BN": 16, "DIV": "II", "REGION": "East" }, "geometry": { "type": "Point", "coordinates": [ -117.941281934487918, 34.106729413821746 ] } },
{ "type": "Feature", "properties": { "OBJECTID": 60, "STANUM": 64.0, "ADDRESS": "164 S. Walnut", "CITY": "San Dimas", "STATEZIP": "CA 91773-2620", "BN": 2, "DIV": "II", "REGION": "East" }, "geometry": { "type": "Point", "coordinates": [ -117.802375173914129, 34.105486365293025 ] } },
{ "type": "Feature", "properties": { "OBJECTID": 61, "STANUM": 101.0, "ADDRESS": "606 W. Bonita Avenue", "CITY": "Claremont", "STATEZIP": "CA 91711-4512", "BN": 2, "DIV": "II", "REGION": "East" }, "geometry": { "type": "Point", "coordinates": [ -117.723588404005554, 34.096211283042656 ] } },
{ "type": "Feature", "properties": { "OBJECTID": 62, "STANUM": 153.0, "ADDRESS": "1577 E. Cypress Street", "CITY": "Covina", "STATEZIP": "CA 91723", "BN": 16, "DIV": "II", "REGION": "East" }, "geometry": { "type": "Point", "coordinates": [ -117.857584236903676, 34.096116872420403 ] } },
{ "type": "Feature", "properties": { "OBJECTID": 63, "STANUM": 186.0, "ADDRESS": "280 E. Bonita Ave.", "CITY": "Pomona", "STATEZIP": "CA 91767-1924", "BN": 15, "DIV": "VIII", "REGION": "East" }, "geometry": { "type": "Point", "coordinates": [ -117.745242412063121, 34.095893756908673 ] } },
{ "type": "Feature", "properties": { "OBJECTID": 64, "STANUM": 152.0, "ADDRESS": "807 W. Cypress Street", "CITY": "Covina", "STATEZIP": "CA 91723", "BN": 16, "DIV": "II", "REGION": "East" }, "geometry": { "type": "Point", "coordinates": [ -117.905867895882579, 34.096032926538847 ] } },
{ "type": "Feature", "properties": { "OBJECTID": 65, "STANUM": 169.0, "ADDRESS": "5112 N. Peck Rd.", "CITY": "El Monte", "STATEZIP": "CA 91732", "BN": 10, "DIV": "IX", "REGION": "East" }, "geometry": { "type": "Point", "coordinates": [ -118.011859957822367, 34.095526652155755 ] } },
{ "type": "Feature", "properties": { "OBJECTID": 66, "STANUM": 29.0, "ADDRESS": "14334 E. Los Angeles Street", "CITY": "Baldwin Park", "STATEZIP": "CA 91706-2603", "BN": 16, "DIV": "II", "REGION": "East" }, "geometry": { "type": "Point", "coordinates": [ -117.961829442268595, 34.091994662758516 ] } },
{ "type": "Feature", "properties": { "OBJECTID": 67, "STANUM": 8.0, "ADDRESS": "7643 W. Santa Monica Blvd.", "CITY": "West Hollywood", "STATEZIP": "CA 90046-6408", "BN": 1, "DIV": "VII", "REGION": "Central" }, "geometry": { "type": "Point", "coordinates": [ -118.35645794228482, 34.09103209803753 ] } },
{ "type": "Feature", "properties": { "OBJECTID": 68, "STANUM": 154.0, "ADDRESS": "401 N. Second Avenue", "CITY": "Covina", "STATEZIP": "CA 91723", "BN": 16, "DIV": "II", "REGION": "East" }, "geometry": { "type": "Point", "coordinates": [ -117.888322638445928, 34.08957251745737 ] } },
{ "type": "Feature", "properties": { "OBJECTID": 69, "STANUM": 7.0, "ADDRESS": "846 N. San Vincente Blvd.", "CITY": "West Hollywood", "STATEZIP": "CA 90069-4007", "BN": 1, "DIV": "VII", "REGION": "Central" }, "geometry": { "type": "Point", "coordinates": [ -118.385068318530031, 34.086982878172691 ] } },
{ "type": "Feature", "properties": { "OBJECTID": 70, "STANUM": 72.0, "ADDRESS": "1832 S. Decker Canyon Road", "CITY": "Malibu", "STATEZIP": "CA 90265-9613", "BN": 5, "DIV": "VII", "REGION": "Central" }, "geometry": { "type": "Point", "coordinates": [ -118.881123611997396, 34.076626250521308 ] } },
{ "type": "Feature", "properties": { "OBJECTID": 71, "STANUM": 69.0, "ADDRESS": "401 S. Topanga Canyon Blvd.", "CITY": "Topanga", "STATEZIP": "CA 90290-9774", "BN": 5, "DIV": "VII", "REGION": "Central" }, "geometry": { "type": "Point", "coordinates": [ -118.600051483245991, 34.083846198256396 ] } },
{ "type": "Feature", "properties": { "OBJECTID": 72, "STANUM": 42.0, "ADDRESS": "9319 E. Valley Blvd.", "CITY": "Rosemead", "STATEZIP": "CA 91770-1923", "BN": 10, "DIV": "IX", "REGION": "East" }, "geometry": { "type": "Point", "coordinates": [ -118.066582618647814, 34.08135429059837 ] } },
{ "type": "Feature", "properties": { "OBJECTID": 73, "STANUM": 67.0, "ADDRESS": "25801 Piuma Road", "CITY": "Calabasas", "STATEZIP": "CA 91302-1511", "BN": 5, "DIV": "VII", "REGION": "Central" }, "geometry": { "type": "Point", "coordinates": [ -118.694073307221558, 34.078078588978364 ] } },
{ "type": "Feature", "properties": { "OBJECTID": 74, "STANUM": 167.0, "ADDRESS": "11567 Bryant Road", "CITY": "El Monte", "STATEZIP": "CA 91732", "BN": 10, "DIV": "IX", "REGION": "East" }, "geometry": { "type": "Point", "coordinates": [ -118.020797049469394, 34.078972308012638 ] } },
{ "type": "Feature", "properties": { "OBJECTID": 75, "STANUM": 166.0, "ADDRESS": "3615 Santa Anita Ave.", "CITY": "El Monte", "STATEZIP": "CA 91731", "BN": 10, "DIV": "IX", "REGION": "East" }, "geometry": { "type": "Point", "coordinates": [ -118.041760051272675, 34.07513292266119 ] } },
{ "type": "Feature", "properties": { "OBJECTID": 76, "STANUM": 141.0, "ADDRESS": "1124 W. Puente Avenue", "CITY": "San Dimas", "STATEZIP": "CA 91773-4414", "BN": 2, "DIV": "II", "REGION": "East" }, "geometry": { "type": "Point", "coordinates": [ -117.829448394598472, 34.074593475434504 ] } },
{ "type": "Feature", "properties": { "OBJECTID": 77, "STANUM": 182.0, "ADDRESS": "1059 N. White Ave.", "CITY": "Pomona", "STATEZIP": "CA  91768-3038", "BN": 15, "DIV": "VIII", "REGION": "East" }, "geometry": { "type": "Point", "coordinates": [ -117.759551284906749, 34.067684230367256 ] } },
{ "type": "Feature", "properties": { "OBJECTID": 78, "STANUM": 183.0, "ADDRESS": "708 N. San Antonio Ave", "CITY": "Pomona", "STATEZIP": "CA  91767-4910", "BN": 15, "DIV": "VIII", "REGION": "East" }, "geometry": { "type": "Point", "coordinates": [ -117.736345401665815, 34.065615431721596 ] } },
{ "type": "Feature", "properties": { "OBJECTID": 79, "STANUM": 168.0, "ADDRESS": "3207 Cogswell Rd.", "CITY": "El Monte", "STATEZIP": "CA 91732", "BN": 10, "DIV": "IX", "REGION": "East" }, "geometry": { "type": "Point", "coordinates": [ -118.018421148072022, 34.064583165499279 ] } },
{ "type": "Feature", "properties": { "OBJECTID": 80, "STANUM": 184.0, "ADDRESS": "1980 W. Orange Grove Ave.", "CITY": "Pomona", "STATEZIP": "CA  91768-2046", "BN": 15, "DIV": "VIII", "REGION": "East" }, "geometry": { "type": "Point", "coordinates": [ -117.784808135366148, 34.062965692234258 ] } },
{ "type": "Feature", "properties": { "OBJECTID": 81, "STANUM": 4.0, "ADDRESS": "2644 N. San Gabriel Blvd.", "CITY": "Rosemead", "STATEZIP": "CA 91770-3254", "BN": 10, "DIV": "IX", "REGION": "East" }, "geometry": { "type": "Point", "coordinates": [ -118.090164029786351, 34.060245357432279 ] } },
{ "type": "Feature", "properties": { "OBJECTID": 83, "STANUM": 90.0, "ADDRESS": "10115 E. Rush Street", "CITY": "So. El Monte", "STATEZIP": "CA 91733-3223", "BN": 10, "DIV": "IX", "REGION": "East" }, "geometry": { "type": "Point", "coordinates": [ -118.049356358772457, 34.052100910712277 ] } },
{ "type": "Feature", "properties": { "OBJECTID": 84, "STANUM": 1.0, "ADDRESS": "1108 N. Eastern Avenue", "CITY": "Los Angeles", "STATEZIP": "CA 90063-3216", "BN": 3, "DIV": "IX", "REGION": "East" }, "geometry": { "type": "Point", "coordinates": [ -118.170766315152946, 34.0498249404761 ] } },
{ "type": "Feature", "properties": { "OBJECTID": 85, "STANUM": 187.0, "ADDRESS": "3325 W. Temple Ave", "CITY": "Pomona", "STATEZIP": "CA 91768-3256", "BN": 19, "DIV": "VIII", "REGION": "East" }, "geometry": { "type": "Point", "coordinates": [ -117.808271037261861, 34.046300672800953 ] } },
{ "type": "Feature", "properties": { "OBJECTID": 86, "STANUM": 87.0, "ADDRESS": "140 S. Second Avenue", "CITY": "Industry", "STATEZIP": "CA 91746-2413", "BN": 12, "DIV": "VIII", "REGION": "East" }, "geometry": { "type": "Point", "coordinates": [ -117.993301084458267, 34.046058306122497 ] } },
{ "type": "Feature", "properties": { "OBJECTID": 87, "STANUM": 146.0, "ADDRESS": "20604 E. Loyalton Drive", "CITY": "Walnut", "STATEZIP": "CA 91789-1216", "BN": 19, "DIV": "VIII", "REGION": "East" }, "geometry": { "type": "Point", "coordinates": [ -117.852780645674656, 34.045088745011299 ] } },
{ "type": "Feature", "properties": { "OBJECTID": 88, "STANUM": 99.0, "ADDRESS": "32550 Pacific Coast Highway", "CITY": "Malibu", "STATEZIP": "CA 90265-253", "BN": 5, "DIV": "VII", "REGION": "Central" }, "geometry": { "type": "Point", "coordinates": [ -118.88359516733901, 34.039934365948668 ] } },
{ "type": "Feature", "properties": { "OBJECTID": 89, "STANUM": 70.0, "ADDRESS": "3970 Carbon Canyon Road", "CITY": "Malibu", "STATEZIP": "CA 90265-5005", "BN": 5, "DIV": "VII", "REGION": "Central" }, "geometry": { "type": "Point", "coordinates": [ -118.649611002329635, 34.038444990839551 ] } },
{ "type": "Feature", "properties": { "OBJECTID": 90, "STANUM": 185.0, "ADDRESS": "925 E. Lexington Ave.", "CITY": "Pomona", "STATEZIP": "CA  91766-5204", "BN": 15, "DIV": "VIII", "REGION": "East" }, "geometry": { "type": "Point", "coordinates": [ -117.737970387417221, 34.037526120840219 ] } },
{ "type": "Feature", "properties": { "OBJECTID": 91, "STANUM": 26.0, "ADDRESS": "15336 E. Elliott Avenue", "CITY": "La Puente", "STATEZIP": "CA 91744-2710", "BN": 12, "DIV": "VIII", "REGION": "East" }, "geometry": { "type": "Point", "coordinates": [ -117.951315865521522, 34.03626561133526 ] } },
{ "type": "Feature", "properties": { "OBJECTID": 92, "STANUM": 88.0, "ADDRESS": "23720 W. Malibu Road", "CITY": "Malibu", "STATEZIP": "CA 90265-4603", "BN": 5, "DIV": "VII", "REGION": "Central" }, "geometry": { "type": "Point", "coordinates": [ -118.691769404810898, 34.033543388140899 ] } },
{ "type": "Feature", "properties": { "OBJECTID": 93, "STANUM": 188.0, "ADDRESS": "18-A Village Loop Rd.", "CITY": "Pomona", "STATEZIP": "CA 91766-4811", "BN": 15, "DIV": "VIII", "REGION": "East" }, "geometry": { "type": "Point", "coordinates": [ -117.770022612784786, 34.033697014511596 ] } },
{ "type": "Feature", "properties": { "OBJECTID": 94, "STANUM": 121.0, "ADDRESS": "346 Armitos Place", "CITY": "Diamond Bar", "STATEZIP": "CA 91765-1838", "BN": 19, "DIV": "VIII", "REGION": "East" }, "geometry": { "type": "Point", "coordinates": [ -117.793259462512282, 34.025990408994815 ] } },
{ "type": "Feature", "properties": { "OBJECTID": 95, "STANUM": 3.0, "ADDRESS": "930 S. Eastern Avenue", "CITY": "Los Angeles", "STATEZIP": "CA 90022-4801", "BN": 3, "DIV": "IX", "REGION": "East" }, "geometry": { "type": "Point", "coordinates": [ -118.173574464512924, 34.023005578237189 ] } },
{ "type": "Feature", "properties": { "OBJECTID": 96, "STANUM": 71.0, "ADDRESS": "28722 W. Pacific Coast Hwy.", "CITY": "Malibu", "STATEZIP": "CA 90265-3902", "BN": 5, "DIV": "VII", "REGION": "Central" }, "geometry": { "type": "Point", "coordinates": [ -118.797371624875851, 34.020158567535923 ] } },
{ "type": "Feature", "properties": { "OBJECTID": 97, "STANUM": 61.0, "ADDRESS": "20011 La Puente Road", "CITY": "Walnut", "STATEZIP": "CA 91789-1719", "BN": 19, "DIV": "VIII", "REGION": "East" }, "geometry": { "type": "Point", "coordinates": [ -117.865645724630767, 34.02079239438163 ] } },
{ "type": "Feature", "properties": { "OBJECTID": 98, "STANUM": 22.0, "ADDRESS": "928 S. Gerhart Avenue", "CITY": "Commerce", "STATEZIP": "CA 90022-4108", "BN": 3, "DIV": "IX", "REGION": "East" }, "geometry": { "type": "Point", "coordinates": [ -118.146910231755854, 34.017325349941032 ] } },
{ "type": "Feature", "properties": { "OBJECTID": 99, "STANUM": 43.0, "ADDRESS": "921 S. Stimson Avenue", "CITY": "La Puente", "STATEZIP": "CA 91746-2413", "BN": 12, "DIV": "VIII", "REGION": "East" }, "geometry": { "type": "Point", "coordinates": [ -117.955750805450364, 34.010337512200792 ] } },
{ "type": "Feature", "properties": { "OBJECTID": 100, "STANUM": 120.0, "ADDRESS": "1051 S. Grand Avenue", "CITY": "Diamond Bar", "STATEZIP": "CA 91765-2210", "BN": 19, "DIV": "VIII", "REGION": "East" }, "geometry": { "type": "Point", "coordinates": [ -117.814216768870367, 34.001900677575591 ] } },
{ "type": "Feature", "properties": { "OBJECTID": 101, "STANUM": 40.0, "ADDRESS": "4864 S. Durfee Avenue", "CITY": "Pico Rivera", "STATEZIP": "CA 90660-2459", "BN": 8, "DIV": "IV", "REGION": "East" }, "geometry": { "type": "Point", "coordinates": [ -118.078376678308246, 34.001429150711594 ] } },
{ "type": "Feature", "properties": { "OBJECTID": 102, "STANUM": 50.0, "ADDRESS": "2327 S. Saybrook Avenue", "CITY": "Commerce", "STATEZIP": "CA 90040-1721", "BN": 3, "DIV": "IX", "REGION": "East" }, "geometry": { "type": "Point", "coordinates": [ -118.140585516255584, 34.000934435582757 ] } },
{ "type": "Feature", "properties": { "OBJECTID": 103, "STANUM": 118.0, "ADDRESS": "17056 Gale Avenue", "CITY": "City of Industry", "STATEZIP": "CA 91748-1511", "BN": 12, "DIV": "VIII", "REGION": "East" }, "geometry": { "type": "Point", "coordinates": [ -117.935482336723965, 34.000235856096729 ] } },
{ "type": "Feature", "properties": { "OBJECTID": 104, "STANUM": 91.0, "ADDRESS": "2691 S. Turnbull Canyon Road", "CITY": "Hacienda Heights", "STATEZIP": "CA 91745-5135", "BN": 12, "DIV": "VIII", "REGION": "East" }, "geometry": { "type": "Point", "coordinates": [ -117.98843229043807, 33.996537450911205 ] } },
{ "type": "Feature", "properties": { "OBJECTID": 106, "STANUM": 145.0, "ADDRESS": "1525 S. Nogales Street", "CITY": "Rowland Heights", "STATEZIP": "CA 91748-2256", "BN": 12, "DIV": "VIII", "REGION": "East" }, "geometry": { "type": "Point", "coordinates": [ -117.88952353225956, 33.989310046111747 ] } },
{ "type": "Feature", "properties": { "OBJECTID": 107, "STANUM": 27.0, "ADDRESS": "6031 Rickenbacker Road", "CITY": "Commerce", "STATEZIP": "CA 90040-3031", "BN": 3, "DIV": "IX", "REGION": "East" }, "geometry": { "type": "Point", "coordinates": [ -118.154101130589538, 33.988478395790715 ] } },
{ "type": "Feature", "properties": { "OBJECTID": 108, "STANUM": 58.0, "ADDRESS": "5757 S. Fairfax Avenue", "CITY": "Los Angeles", "STATEZIP": "CA 90056-1243", "BN": 1, "DIV": "VII", "REGION": "Central" }, "geometry": { "type": "Point", "coordinates": [ -118.363144208213058, 33.987894690546575 ] } },
{ "type": "Feature", "properties": { "OBJECTID": 109, "STANUM": 110.0, "ADDRESS": "4433 Admiralty Way", "CITY": "Marina Del Rey", "STATEZIP": "CA 90292-5415", "BN": 1, "DIV": "VII", "REGION": "Central" }, "geometry": { "type": "Point", "coordinates": [ -118.448571132527007, 33.983920742699731 ] } },
{ "type": "Feature", "properties": { "OBJECTID": 110, "STANUM": 164.0, "ADDRESS": "6301 S. Santa Fe Ave.", "CITY": "Huntington Park", "STATEZIP": "CA 90255-3805", "BN": 13, "DIV": "VI", "REGION": "Central" }, "geometry": { "type": "Point", "coordinates": [ -118.230572448273023, 33.983332737250457 ] } },
{ "type": "Feature", "properties": { "OBJECTID": 111, "STANUM": 103.0, "ADDRESS": "7300 S. Paramount Blvd.", "CITY": "Pico Rivera", "STATEZIP": "CA 90660-3714", "BN": 8, "DIV": "IV", "REGION": "East" }, "geometry": { "type": "Point", "coordinates": [ -118.10816327029697, 33.982781528513833 ] } },
{ "type": "Feature", "properties": { "OBJECTID": 112, "STANUM": 17.0, "ADDRESS": "12006 Hadley Street", "CITY": "Whittier", "STATEZIP": "CA 90601-3910", "BN": 8, "DIV": "IV", "REGION": "East" }, "geometry": { "type": "Point", "coordinates": [ -118.048856837834634, 33.98250136713758 ] } },
{ "type": "Feature", "properties": { "OBJECTID": 113, "STANUM": 163.0, "ADDRESS": "6320 Pine Ave.", "CITY": "Bell", "STATEZIP": "CA 90201-1221", "BN": 3, "DIV": "IX", "REGION": "East" }, "geometry": { "type": "Point", "coordinates": [ -118.188511739037466, 33.979425169888259 ] } },
{ "type": "Feature", "properties": { "OBJECTID": 115, "STANUM": 165.0, "ADDRESS": "3255 Saturn Ave.", "CITY": "Huntington Park", "STATEZIP": "CA 90255-5449", "BN": 13, "DIV": "VI", "REGION": "Central" }, "geometry": { "type": "Point", "coordinates": [ -118.208493974994553, 33.976270732728182 ] } },
{ "type": "Feature", "properties": { "OBJECTID": 116, "STANUM": 119.0, "ADDRESS": "20480 E. Pathfinder Road", "CITY": "Walnut", "STATEZIP": "CA 91789-4620", "BN": 19, "DIV": "VIII", "REGION": "East" }, "geometry": { "type": "Point", "coordinates": [ -117.855437885618599, 33.976347441923885 ] } },
{ "type": "Feature", "properties": { "OBJECTID": 117, "STANUM": 28.0, "ADDRESS": "7733 Greenleaf Avenue", "CITY": "Whittier", "STATEZIP": "CA 90602-2195", "BN": 8, "DIV": "IV", "REGION": "East" }, "geometry": { "type": "Point", "coordinates": [ -118.037670110751293, 33.970895703204981 ] } },
{ "type": "Feature", "properties": { "OBJECTID": 118, "STANUM": 25.0, "ADDRESS": "9209 E. Saluson Avenue", "CITY": "Pico Rivera", "STATEZIP": "CA 90660-4524", "BN": 8, "DIV": "IV", "REGION": "East" }, "geometry": { "type": "Point", "coordinates": [ -118.100404436309788, 33.969865785643641 ] } },
{ "type": "Feature", "properties": { "OBJECTID": 120, "STANUM": 16.0, "ADDRESS": "8010 S. Compton Avenue", "CITY": "Los Angeles", "STATEZIP": "CA 9001-1437", "BN": 13, "DIV": "VI", "REGION": "Central" }, "geometry": { "type": "Point", "coordinates": [ -118.247405780498084, 33.966259253293408 ] } },
{ "type": "Feature", "properties": { "OBJECTID": 121, "STANUM": 171.0, "ADDRESS": "141 W. Regent St.", "CITY": "Inglewood", "STATEZIP": "CA 90301", "BN": 20, "DIV": "VI", "REGION": "Central" }, "geometry": { "type": "Point", "coordinates": [ -118.356809110225072, 33.964716795996829 ] } },
{ "type": "Feature", "properties": { "OBJECTID": 122, "STANUM": 173.0, "ADDRESS": "9001 S. Crenshaw Blvd.", "CITY": "Inglewood", "STATEZIP": "CA 90305", "BN": 20, "DIV": "VI", "REGION": "Central" }, "geometry": { "type": "Point", "coordinates": [ -118.326745394847492, 33.95572270011948 ] } },
{ "type": "Feature", "properties": { "OBJECTID": 123, "STANUM": 54.0, "ADDRESS": "4867 Southern Avenue", "CITY": "South Gate", "STATEZIP": "CA 90280-3466", "BN": 13, "DIV": "VI", "REGION": "Central" }, "geometry": { "type": "Point", "coordinates": [ -118.183859018176662, 33.948493273220578 ] } },
{ "type": "Feature", "properties": { "OBJECTID": 124, "STANUM": 59.0, "ADDRESS": "10021 Scott Avenue", "CITY": "Whittier", "STATEZIP": "CA 90603-2119", "BN": 8, "DIV": "IV", "REGION": "East" }, "geometry": { "type": "Point", "coordinates": [ -118.001053980016081, 33.94644268761423 ] } },
{ "type": "Feature", "properties": { "OBJECTID": 125, "STANUM": 14.0, "ADDRESS": "1401 W. 108th Street", "CITY": "Los Angeles", "STATEZIP": "CA 90047-4905", "BN": 20, "DIV": "VI", "REGION": "Central" }, "geometry": { "type": "Point", "coordinates": [ -118.3005508995182, 33.938494786941412 ] } },
{ "type": "Feature", "properties": { "OBJECTID": 126, "STANUM": 170.0, "ADDRESS": "10701 S. Crenshaw Blvd.", "CITY": "Inglewood", "STATEZIP": "CA 90303", "BN": 20, "DIV": "VI", "REGION": "Central" }, "geometry": { "type": "Point", "coordinates": [ -118.326826230335243, 33.938409954649195 ] } },
{ "type": "Feature", "properties": { "OBJECTID": 127, "STANUM": 18.0, "ADDRESS": "4518 W. Lennox Blvd.", "CITY": "Inglewood", "STATEZIP": "CA 90304-2216", "BN": 20, "DIV": "VI", "REGION": "Central" }, "geometry": { "type": "Point", "coordinates": [ -118.355598892408551, 33.937942129127215 ] } },
{ "type": "Feature", "properties": { "OBJECTID": 128, "STANUM": 96.0, "ADDRESS": "10630 S. Mills Avenue", "CITY": "Whittier", "STATEZIP": "CA 90604-2441", "BN": 8, "DIV": "IV", "REGION": "East" }, "geometry": { "type": "Point", "coordinates": [ -118.03997527912486, 33.93707382914787 ] } },
{ "type": "Feature", "properties": { "OBJECTID": 129, "STANUM": 191.0, "ADDRESS": "850 W. La Habra Blvd.", "CITY": "La Habra", "STATEZIP": "CA 90631", "BN": 21, "DIV": "IV", "REGION": "East" }, "geometry": { "type": "Point", "coordinates": [ -117.955690170081738, 33.931648766314638 ] } },
{ "type": "Feature", "properties": { "OBJECTID": 130, "STANUM": 147.0, "ADDRESS": "3161 E. Imperial Highway", "CITY": "Lynwood", "STATEZIP": "CA 90262", "BN": 13, "DIV": "VI", "REGION": "Central" }, "geometry": { "type": "Point", "coordinates": [ -118.214246250447175, 33.930520638315073 ] } },
{ "type": "Feature", "properties": { "OBJECTID": 131, "STANUM": 15.0, "ADDRESS": "11460 Santa Gertrudes", "CITY": "Whittier", "STATEZIP": "CA 90604-3411", "BN": 21, "DIV": "IV", "REGION": "East" }, "geometry": { "type": "Point", "coordinates": [ -117.99342082027897, 33.929690992161362 ] } },
{ "type": "Feature", "properties": { "OBJECTID": 132, "STANUM": 192.0, "ADDRESS": "520 S. Harbor Blvd.", "CITY": "La Habra", "STATEZIP": "CA 90631", "BN": 21, "DIV": "IV", "REGION": "East" }, "geometry": { "type": "Point", "coordinates": [ -117.932544006648072, 33.926979078922564 ] } },
{ "type": "Feature", "properties": { "OBJECTID": 133, "STANUM": 41.0, "ADDRESS": "1815 E. 120th Street", "CITY": "Los Angeles", "STATEZIP": "CA 90059-3005", "BN": 13, "DIV": "VI", "REGION": "Central" }, "geometry": { "type": "Point", "coordinates": [ -118.240201539666472, 33.924876429254994 ] } },
{ "type": "Feature", "properties": { "OBJECTID": 134, "STANUM": 57.0, "ADDRESS": "5720 Gardendale Street", "CITY": "South Gate", "STATEZIP": "CA 90280-7806", "BN": 13, "DIV": "VI", "REGION": "Central" }, "geometry": { "type": "Point", "coordinates": [ -118.168248709501725, 33.922376512969919 ] } },
{ "type": "Feature", "properties": { "OBJECTID": 135, "STANUM": 148.0, "ADDRESS": "4264 Martin Luther King Jr Bl", "CITY": "Lynwood", "STATEZIP": "CA 90602", "BN": 13, "DIV": "VI", "REGION": "Central" }, "geometry": { "type": "Point", "coordinates": [ -118.190363941592693, 33.922174290143964 ] } },
{ "type": "Feature", "properties": { "OBJECTID": 136, "STANUM": 162.0, "ADDRESS": "12151 Crenshaw Blvd.", "CITY": "Hawthorne", "STATEZIP": "CA 90250-3301", "BN": 18, "DIV": "I", "REGION": "Central" }, "geometry": { "type": "Point", "coordinates": [ -118.326819441426551, 33.921879921133076 ] } },
{ "type": "Feature", "properties": { "OBJECTID": 137, "STANUM": 161.0, "ADDRESS": "4475 West El Segundo Blvd.", "CITY": "Hawthorne", "STATEZIP": "CA 90250-4411", "BN": 18, "DIV": "I", "REGION": "Central" }, "geometry": { "type": "Point", "coordinates": [ -118.354412706114601, 33.916667265406744 ] } },
{ "type": "Feature", "properties": { "OBJECTID": 138, "STANUM": 20.0, "ADDRESS": "12110 E. Adoree Street", "CITY": "Norwalk", "STATEZIP": "CA 90650-3002", "BN": 21, "DIV": "IV", "REGION": "East" }, "geometry": { "type": "Point", "coordinates": [ -118.074151267782739, 33.91313017368828 ] } },
{ "type": "Feature", "properties": { "OBJECTID": 139, "STANUM": 159.0, "ADDRESS": "2030 W. 135th Street", "CITY": "Gardena", "STATEZIP": "CA 90249", "BN": 18, "DIV": "I", "REGION": "Central" }, "geometry": { "type": "Point", "coordinates": [ -118.314655891798935, 33.908967851329635 ] } },
{ "type": "Feature", "properties": { "OBJECTID": 141, "STANUM": 193.0, "ADDRESS": "1000 Risner Way", "CITY": "La Habra", "STATEZIP": "CA 90631", "BN": 21, "DIV": "IV", "REGION": "East" }, "geometry": { "type": "Point", "coordinates": [ -117.957373843949611, 33.907412086269069 ] } },
{ "type": "Feature", "properties": { "OBJECTID": 142, "STANUM": 49.0, "ADDRESS": "13820 S. La Mirada Blvd.", "CITY": "La Mirada", "STATEZIP": "CA 90638-3029", "BN": 21, "DIV": "IV", "REGION": "East" }, "geometry": { "type": "Point", "coordinates": [ -118.011402945498787, 33.90506899951091 ] } },
{ "type": "Feature", "properties": { "OBJECTID": 143, "STANUM": 160.0, "ADDRESS": "5323 West Rosecrans Avenue", "CITY": "Hawthorne", "STATEZIP": "CA 90250-6622", "BN": 18, "DIV": "I", "REGION": "Central" }, "geometry": { "type": "Point", "coordinates": [ -118.372914205188181, 33.902130966012223 ] } },
{ "type": "Feature", "properties": { "OBJECTID": 144, "STANUM": 98.0, "ADDRESS": "9814 Maplewood Street", "CITY": "Bellflower", "STATEZIP": "CA 9070-3103", "BN": 9, "DIV": "IV", "REGION": "East" }, "geometry": { "type": "Point", "coordinates": [ -118.124921563600779, 33.899873233429673 ] } },
{ "type": "Feature", "properties": { "OBJECTID": 145, "STANUM": 21.0, "ADDRESS": "4312 W. 147th Street", "CITY": "Lawndale", "STATEZIP": "CA 90260-1509", "BN": 18, "DIV": "I", "REGION": "Central" }, "geometry": { "type": "Point", "coordinates": [ -118.35111756586015, 33.897985003924724 ] } },
{ "type": "Feature", "properties": { "OBJECTID": 146, "STANUM": 31.0, "ADDRESS": "7521 E. Somerset Blvd.", "CITY": "Paramount", "STATEZIP": "CA 90723-4003", "BN": 9, "DIV": "IV", "REGION": "East" }, "geometry": { "type": "Point", "coordinates": [ -118.168042303537732, 33.896702728793286 ] } },
{ "type": "Feature", "properties": { "OBJECTID": 147, "STANUM": 95.0, "ADDRESS": "137 W. Redondo Beach Blvd.", "CITY": "Gardena", "STATEZIP": "CA 90248-2220", "BN": 7, "DIV": "I", "REGION": "Central" }, "geometry": { "type": "Point", "coordinates": [ -118.277599894639749, 33.893161924021051 ] } },
{ "type": "Feature", "properties": { "OBJECTID": 148, "STANUM": 115.0, "ADDRESS": "11317 Alondra Blvd.", "CITY": "Norwalk", "STATEZIP": "CA 90650-6225", "BN": 21, "DIV": "IV", "REGION": "East" }, "geometry": { "type": "Point", "coordinates": [ -118.092127818127992, 33.887814646074581 ] } },
{ "type": "Feature", "properties": { "OBJECTID": 149, "STANUM": 158.0, "ADDRESS": "1650 W. 162nd Street", "CITY": "Gardena", "STATEZIP": "CA 90247", "BN": 18, "DIV": "I", "REGION": "Central" }, "geometry": { "type": "Point", "coordinates": [ -118.306053467148658, 33.88349207980562 ] } },
{ "type": "Feature", "properties": { "OBJECTID": 150, "STANUM": 23.0, "ADDRESS": "9548 E. Flower Street", "CITY": "Bellflower", "STATEZIP": "CA 90706-5708", "BN": 9, "DIV": "IV", "REGION": "East" }, "geometry": { "type": "Point", "coordinates": [ -118.130134748924192, 33.881798445212723 ] } },
{ "type": "Feature", "properties": { "OBJECTID": 151, "STANUM": 35.0, "ADDRESS": "13717 Artesia Blvd.", "CITY": "Cerritos", "STATEZIP": "CA 90701-4804", "BN": 21, "DIV": "IV", "REGION": "East" }, "geometry": { "type": "Point", "coordinates": [ -118.039399183779423, 33.873627720519316 ] } },
{ "type": "Feature", "properties": { "OBJECTID": 152, "STANUM": 116.0, "ADDRESS": "755 E. Victoria Street", "CITY": "Carson", "STATEZIP": "CA 90746-1534", "BN": 7, "DIV": "I", "REGION": "Central" }, "geometry": { "type": "Point", "coordinates": [ -118.261859767382575, 33.867399443643755 ] } },
{ "type": "Feature", "properties": { "OBJECTID": 153, "STANUM": 105.0, "ADDRESS": "18915 S. Santa Fe Avenue", "CITY": "Compton", "STATEZIP": "CA 90221-5907", "BN": 7, "DIV": "I", "REGION": "Central" }, "geometry": { "type": "Point", "coordinates": [ -118.21653420347269, 33.859797907393343 ] } },
{ "type": "Feature", "properties": { "OBJECTID": 154, "STANUM": 30.0, "ADDRESS": "19030 Pioneer Blvd.", "CITY": "Cerritos", "STATEZIP": "CA 90701-6602", "BN": 9, "DIV": "IV", "REGION": "East" }, "geometry": { "type": "Point", "coordinates": [ -118.081684048902957, 33.857555641244737 ] } },
{ "type": "Feature", "properties": { "OBJECTID": 155, "STANUM": 45.0, "ADDRESS": "4020 Candlewood Street", "CITY": "Lakewood", "STATEZIP": "CA 90712-1620", "BN": 9, "DIV": "IV", "REGION": "East" }, "geometry": { "type": "Point", "coordinates": [ -118.144195116931741, 33.853559073015738 ] } },
{ "type": "Feature", "properties": { "OBJECTID": 156, "STANUM": 10.0, "ADDRESS": "1860 E. Del Amo", "CITY": "Carson", "STATEZIP": "CA 90746-2940", "BN": 7, "DIV": "I", "REGION": "Central" }, "geometry": { "type": "Point", "coordinates": [ -118.235475048944323, 33.846420312474805 ] } },
{ "type": "Feature", "properties": { "OBJECTID": 157, "STANUM": 94.0, "ADDRESS": "6421 E. Turnergrove Drive", "CITY": "Lakewood", "STATEZIP": "CA 90713-2706", "BN": 9, "DIV": "IV", "REGION": "East" }, "geometry": { "type": "Point", "coordinates": [ -118.106847948421205, 33.846403165012234 ] } },
{ "type": "Feature", "properties": { "OBJECTID": 158, "STANUM": 34.0, "ADDRESS": "21207 S. Norwalk Blvd.", "CITY": "Hawaiian Gardens", "STATEZIP": "CA 90716-1020", "BN": 9, "DIV": "IV", "REGION": "East" }, "geometry": { "type": "Point", "coordinates": [ -118.072263025159742, 33.836983261436082 ] } },
{ "type": "Feature", "properties": { "OBJECTID": 159, "STANUM": 122.0, "ADDRESS": "2600 Greenmeadow Road", "CITY": "Lakewood", "STATEZIP": "CA 90712-3906", "BN": 9, "DIV": "IV", "REGION": "East" }, "geometry": { "type": "Point", "coordinates": [ -118.160826866217306, 33.833667857290095 ] } },
{ "type": "Feature", "properties": { "OBJECTID": 160, "STANUM": 36.0, "ADDRESS": "127 W. 223rd Street", "CITY": "Carson", "STATEZIP": "CA 90745-3702", "BN": 7, "DIV": "I", "REGION": "Central" }, "geometry": { "type": "Point", "coordinates": [ -118.277121453058143, 33.824688824797292 ] } },
{ "type": "Feature", "properties": { "OBJECTID": 161, "STANUM": 127.0, "ADDRESS": "2049 E. 223rd Street", "CITY": "Carson", "STATEZIP": "CA 90810-1061", "BN": 7, "DIV": "I", "REGION": "Central" }, "geometry": { "type": "Point", "coordinates": [ -118.238350685317059, 33.824641617893342 ] } },
{ "type": "Feature", "properties": { "OBJECTID": 162, "STANUM": 60.0, "ADDRESS": "2300 East 27th Street", "CITY": "Signal Hill", "STATEZIP": "CA 90705", "BN": 9, "DIV": "IV", "REGION": "East" }, "geometry": { "type": "Point", "coordinates": [ -118.164088467340974, 33.805992313607845 ] } },
{ "type": "Feature", "properties": { "OBJECTID": 163, "STANUM": 2.0, "ADDRESS": "340 Palos Verdes Drive W.", "CITY": "Palos Verdes Estates", "STATEZIP": "CA 90274-1299", "BN": 14, "DIV": "I", "REGION": "Central" }, "geometry": { "type": "Point", "coordinates": [ -118.39163526097802, 33.79992226544487 ] } },
{ "type": "Feature", "properties": { "OBJECTID": 164, "STANUM": 6.0, "ADDRESS": "25517 S. Narbonne Avenue", "CITY": "Lomita", "STATEZIP": "CA 90717-2511", "BN": 14, "DIV": "I", "REGION": "Central" }, "geometry": { "type": "Point", "coordinates": [ -118.320227888103972, 33.791844426015437 ] } },
{ "type": "Feature", "properties": { "OBJECTID": 165, "STANUM": 106.0, "ADDRESS": "27413 Indian Peak Road", "CITY": "Rolling Hills Estate", "STATEZIP": "CA 90274-3503", "BN": 14, "DIV": "I", "REGION": "Central" }, "geometry": { "type": "Point", "coordinates": [ -118.376307882341578, 33.772087190833489 ] } },
{ "type": "Feature", "properties": { "OBJECTID": 166, "STANUM": 56.0, "ADDRESS": "12 Crest Road West", "CITY": "Rolling Hills", "STATEZIP": "CA 90274-5058", "BN": 14, "DIV": "I", "REGION": "Central" }, "geometry": { "type": "Point", "coordinates": [ -118.354049863955623, 33.756674619145961 ] } },
{ "type": "Feature", "properties": { "OBJECTID": 167, "STANUM": 83.0, "ADDRESS": "83 Miraleste Plaza", "CITY": "Rancho Palos Verdes", "STATEZIP": "CA 90274-6525", "BN": 14, "DIV": "I", "REGION": "Central" }, "geometry": { "type": "Point", "coordinates": [ -118.325091363658515, 33.74918031064599 ] } },
{ "type": "Feature", "properties": { "OBJECTID": 25, "STANUM": 156.0, "ADDRESS": "24525 Copper Hill Drive", "CITY": "Valencia", "STATEZIP": "CA 91354", "BN": 6, "DIV": "III", "REGION": "North" }, "geometry": { "type": "Point", "coordinates": [ -118.566532832704482, 34.453994642963238 ] } },
{ "type": "Feature", "properties": { "OBJECTID": 173, "STANUM": 150.0, "ADDRESS": "19190 Golden Valley Rd", "CITY": "Santa Clarita", "STATEZIP": "CA 91387", "BN": 22, "DIV": "III", "REGION": "North" }, "geometry": { "type": "Point", "coordinates": [ -118.464986833044321, 34.392244512859357 ] } },
{ "type": "Feature", "properties": { "OBJECTID": 168, "STANUM": 53.0, "ADDRESS": "6124 W. Palos Verdes Drive S", "CITY": "Rancho Palos Verdes", "STATEZIP": "CA 90274-5935", "BN": 14, "DIV": "I", "REGION": "Central" }, "geometry": { "type": "Point", "coordinates": [ -118.384562596644699, 33.744759951333755 ] } },
{ "type": "Feature", "properties": { "OBJECTID": 105, "STANUM": 38.0, "ADDRESS": "3907 W. 54th Street", "CITY": "Los Angeles", "STATEZIP": "CA 90043-2203", "BN": 1, "DIV": "VII", "REGION": "Central" }, "geometry": { "type": "Point", "coordinates": [ -118.342423295493305, 33.993278918381975 ] } },
{ "type": "Feature", "properties": { "OBJECTID": 119, "STANUM": 39.0, "ADDRESS": "7000 Garfield Avenue", "CITY": "Bell Gardens", "STATEZIP": "CA 90201", "BN": 3, "DIV": "IX", "REGION": "East" }, "geometry": { "type": "Point", "coordinates": [ -118.149241178151911, 33.968937905691099 ] } },
{ "type": "Feature", "properties": { "OBJECTID": 170, "STANUM": 55.0, "ADDRESS": "945 Avalon Canyon Rd.", "CITY": "Avalon", "STATEZIP": "CA 90704-0663", "BN": 14, "DIV": "I", "REGION": "Central" }, "geometry": { "type": "Point", "coordinates": [ -118.335477657992584, 33.333121489059693 ] } },
{ "type": "Feature", "properties": { "OBJECTID": 42, "STANUM": 66.0, "ADDRESS": "2764 E. Eaton Canyon Dr", "CITY": "Pasadena", "STATEZIP": "CA 91107-1005", "BN": 4, "DIV": "III", "REGION": "North" }, "geometry": { "type": "Point", "coordinates": [ -118.093782730183705, 34.174425995090466 ] } },
{ "type": "Feature", "properties": { "OBJECTID": 35, "STANUM": 74.0, "ADDRESS": "12587 N. Dexter Park Road", "CITY": "San Fernando", "STATEZIP": "CA 91342-5613", "BN": 4, "DIV": "III", "REGION": "North" }, "geometry": { "type": "Point", "coordinates": [ -118.375773296957945, 34.295838749179502 ] } },
{ "type": "Feature", "properties": { "OBJECTID": 26, "STANUM": 76.0, "ADDRESS": "27223 Henry Mayo Drive", "CITY": "Valencia", "STATEZIP": "CA 91355-1009", "BN": 6, "DIV": "III", "REGION": "North" }, "geometry": { "type": "Point", "coordinates": [ -118.6104943155174, 34.439050181717285 ] } },
{ "type": "Feature", "properties": { "OBJECTID": 45, "STANUM": 89.0, "ADDRESS": "29575 Canwood St.", "CITY": "Agoura Hills", "STATEZIP": "CA 91301", "BN": 5, "DIV": "VII", "REGION": "Central" }, "geometry": { "type": "Point", "coordinates": [ -118.769244384942823, 34.147873223924634 ] } },
{ "type": "Feature", "properties": { "OBJECTID": 31, "STANUM": 104.0, "ADDRESS": "26201 Golden Valley Rd.", "CITY": "Santa Clarita", "STATEZIP": "CA 91350", "BN": 22, "DIV": "III", "REGION": "North" }, "geometry": { "type": "Point", "coordinates": [ -118.503602502990049, 34.406677428690116 ] } },
{ "type": "Feature", "properties": { "OBJECTID": 32, "STANUM": 124.0, "ADDRESS": "25870 Hemingway Av.", "CITY": "Stevenson Ranch", "STATEZIP": "CA 91381", "BN": 6, "DIV": "III", "REGION": "North" }, "geometry": { "type": "Point", "coordinates": [ -118.582244460768678, 34.387466782721205 ] } },
{ "type": "Feature", "properties": { "OBJECTID": 171, "STANUM": 128.0, "ADDRESS": "28450 Whites Canyon Road", "CITY": "Santa Clarita", "STATEZIP": "CA 91351", "BN": 22, "DIV": "III", "REGION": "North" }, "geometry": { "type": "Point", "coordinates": [ -118.472573791646994, 34.441929416642388 ] } },
{ "type": "Feature", "properties": { "OBJECTID": 27, "STANUM": 132.0, "ADDRESS": "29310 Sand Canyon Road", "CITY": "Santa Clarita", "STATEZIP": "CA 91387", "BN": 22, "DIV": "III", "REGION": "North" }, "geometry": { "type": "Point", "coordinates": [ -118.417645319690266, 34.439257642920005 ] } },
{ "type": "Feature", "properties": { "OBJECTID": 169, "STANUM": 155.0, "ADDRESS": "Two Harbors", "CITY": "Two Harbors", "STATEZIP": "CA 90704", "BN": 14, "DIV": "I", "REGION": "Central" }, "geometry": { "type": "Point", "coordinates": [ -118.500381677954195, 33.441160484923351 ] } },
{ "type": "Feature", "properties": { "OBJECTID": 11, "STANUM": 157.0, "ADDRESS": "15921 Spunky Canyon Road", "CITY": "Green Valley", "STATEZIP": "CA 91350-1030", "BN": 11, "DIV": "V", "REGION": "North" }, "geometry": { "type": "Point", "coordinates": [ -118.410133387792669, 34.617940435034768 ] } },
{ "type": "Feature", "properties": { "OBJECTID": 140, "STANUM": 194.0, "ADDRESS": "13540 S. Beach Blvd.", "CITY": "La Mirada", "STATEZIP": "CA 90638", "BN": 21, "DIV": "IV", "REGION": "East" }, "geometry": { "type": "Point", "coordinates": [ -117.976785268399581, 33.90913786335858 ] } },
{ "type": "Feature", "properties": { "OBJECTID": 174, "STANUM": 172.0, "ADDRESS": "810 Centinela Avenue", "CITY": "Inglewood", "STATEZIP": "CA 90302", "BN": 20, "DIV": "VI", "REGION": "Central" }, "geometry": { "type": "Point", "coordinates": [ -118.353364606070429, 33.976151241930182 ] } },
{ "type": "Feature", "properties": { "OBJECTID": 975, "STANUM": 143.0, "ADDRESS": "28580 Hasley Canyon Road", "CITY": "Castaic", "STATEZIP": "CA 91355", "BN": 6, "DIV": "III", "REGION": "North" }, "geometry": { "type": "Point", "coordinates": [ -118.633705925415612, 34.454359031295986 ] } },
{ "type": "Feature", "properties": { "OBJECTID": 46, "STANUM": 97.0, "ADDRESS": "18543 E. Sierra Madre Avenue", "CITY": "Azusa", "STATEZIP": "CA 91702-1552", "BN": 16, "DIV": "II", "REGION": "East" }, "geometry": { "type": "Point", "coordinates": [ -117.890992144770038, 34.146752440513822 ] } },
{ "type": "Feature", "properties": { "OBJECTID": 977, "STANUM": 100.0, "ADDRESS": "540 Pier Avenue", "CITY": "Hermosa Beach", "STATEZIP": "CA 90254", "BN": 18, "DIV": "I", "REGION": "Central" }, "geometry": { "type": "Point", "coordinates": [ -118.396770746220056, 33.864111179281082 ] } }
]
}
