{
"type": "FeatureCollection",
"features": [
{ "type": "Feature", "properties": { "decade": "2010s", "longitude": 127.5369, "latitude": 39.40167, "facility_name": "Hodo Peninsula", "facility_location": "Kangwon Province", "count": 24 }, "geometry": { "type": "Point", "coordinates": [ 127.5369, 39.40167 ] } },
{ "type": "Feature", "properties": { "decade": "2000s", "longitude": 127.6236, "latitude": 38.99083, "facility_name": "Kittaeryong Missile Base", "facility_location": "Kittae Pass, Kangwon Province", "count": 13 }, "geometry": { "type": "Point", "coordinates": [ 127.6236, 38.99083 ] } },
{ "type": "Feature", "properties": { "decade": "2010s", "longitude": 125.702005, "latitude": 38.686834, "facility_name": "Hwangju", "facility_location": "Hwangju,  North Hwanghae Province", "count": 11 }, "geometry": { "type": "Point", "coordinates": [ 125.702005, 38.686834 ] } },
{ "type": "Feature", "properties": { "decade": "2010s", "longitude": 127.6236, "latitude": 38.99083, "facility_name": "Kittaeryong Missile Base", "facility_location": "Kittae Pass, Kangwon Province", "count": 6 }, "geometry": { "type": "Point", "coordinates": [ 127.6236, 38.99083 ] } },
{ "type": "Feature", "properties": { "decade": "1990s", "longitude": 129.666664, "latitude": 40.8499966, "facility_name": "Tonghae Satellite Launching Ground", "facility_location": "Hwadae County, North Hamgyong Province", "count": 5 }, "geometry": { "type": "Point", "coordinates": [ 129.666664, 40.8499966 ] } },
{ "type": "Feature", "properties": { "decade": "2010s", "longitude": 125.89031, "latitude": 39.412594, "facility_name": "Sunchon Airbase", "facility_location": "South Pyongan Province", "count": 5 }, "geometry": { "type": "Point", "coordinates": [ 125.89031, 39.412594 ] } },
{ "type": "Feature", "properties": { "decade": "2020s", "longitude": 125.8907, "latitude": 39.4163, "facility_name": "Sunchon", "facility_location": "North Pyongan Province", "count": 4 }, "geometry": { "type": "Point", "coordinates": [ 125.8907, 39.4163 ] } },
{ "type": "Feature", "properties": { "decade": "2010s", "longitude": 124.7057, "latitude": 39.6596, "facility_name": "Sohae Satellite Launching Station", "facility_location": "Cholsan County, North Pyongan Province", "count": 4 }, "geometry": { "type": "Point", "coordinates": [ 124.7057, 39.6596 ] } },
{ "type": "Feature", "properties": { "decade": "2020s", "longitude": 127.66375, "latitude": 39.811611, "facility_name": "Hungnam", "facility_location": "Hamhung, South Hamgyong", "count": 4 }, "geometry": { "type": "Point", "coordinates": [ 127.66375, 39.811611 ] } },
{ "type": "Feature", "properties": { "decade": "2010s", "longitude": 127.4817, "latitude": 39.1677, "facility_name": "Wonsan Kalma International Airport", "facility_location": "Kangwon Province", "count": 4 }, "geometry": { "type": "Point", "coordinates": [ 127.4817, 39.1677 ] } },
{ "type": "Feature", "properties": { "decade": "2020s", "longitude": 126.425743, "latitude": 40.611208, "facility_name": "Mupyong-ni Arms Plant", "facility_location": "Mup'Yong-Ni, Chagang Province", "count": 4 }, "geometry": { "type": "Point", "coordinates": [ 126.425743, 40.611208 ] } },
{ "type": "Feature", "properties": { "decade": "2010s", "longitude": 128.1839, "latitude": 40.0368, "facility_name": "Sinpo Shipyard", "facility_location": "South Hamgyong Province", "count": 3 }, "geometry": { "type": "Point", "coordinates": [ 128.1839, 40.0368 ] } },
{ "type": "Feature", "properties": { "decade": "2020s", "longitude": 125.673256, "latitude": 39.200159, "facility_name": "Pyongyang International Airport", "facility_location": "Pyongyang, North Korea", "count": 3 }, "geometry": { "type": "Point", "coordinates": [ 125.673256, 39.200159 ] } },
{ "type": "Feature", "properties": { "decade": "1980s", "longitude": 129.666664, "latitude": 40.8499966, "facility_name": "Tonghae Satellite Launching Ground", "facility_location": "Hwadae County, North Hamgyong Province", "count": 3 }, "geometry": { "type": "Point", "coordinates": [ 129.666664, 40.8499966 ] } },
{ "type": "Feature", "properties": { "decade": "2020s", "longitude": 127.499, "latitude": 39.743, "facility_name": "Sondok", "facility_location": "Sondok, South Hamgyong Province", "count": 3 }, "geometry": { "type": "Point", "coordinates": [ 127.499, 39.743 ] } },
{ "type": "Feature", "properties": { "decade": "2020s", "longitude": 125.9579, "latitude": 39.1268, "facility_name": "Samsok", "facility_location": "Samsok District, Pyongyang", "count": 2 }, "geometry": { "type": "Point", "coordinates": [ 125.9579, 39.1268 ] } },
{ "type": "Feature", "properties": { "decade": "2020s", "longitude": 126.804867, "latitude": 39.275721, "facility_name": "Yangdok", "facility_location": "Yangdok, South Pyongan Province", "count": 2 }, "geometry": { "type": "Point", "coordinates": [ 126.804867, 39.275721 ] } },
{ "type": "Feature", "properties": { "decade": "2020s", "longitude": 125.70926, "latitude": 39.20299, "facility_name": "Sunan", "facility_location": "Sunan District, Pyongyang", "count": 2 }, "geometry": { "type": "Point", "coordinates": [ 125.70926, 39.20299 ] } },
{ "type": "Feature", "properties": { "decade": "2020s", "longitude": 125.6773, "latitude": 39.3942, "facility_name": "West Sunan", "facility_location": "Sunan District, Pyongyang", "count": 2 }, "geometry": { "type": "Point", "coordinates": [ 125.6773, 39.3942 ] } },
{ "type": "Feature", "properties": { "decade": "2020s", "longitude": 127.377, "latitude": 39.2815, "facility_name": "Munchon", "facility_location": "Munchon, Kangwong Province", "count": 2 }, "geometry": { "type": "Point", "coordinates": [ 127.377, 39.2815 ] } },
{ "type": "Feature", "properties": { "decade": "2020s", "longitude": 124.577936, "latitude": 40.025847, "facility_name": "Uiju", "facility_location": "Uiju County, North Pyongan Province", "count": 2 }, "geometry": { "type": "Point", "coordinates": [ 124.577936, 40.025847 ] } },
{ "type": "Feature", "properties": { "decade": "2020s", "longitude": 127.5369, "latitude": 39.40167, "facility_name": "Hodo Peninsula", "facility_location": "Kangwon Province", "count": 2 }, "geometry": { "type": "Point", "coordinates": [ 127.5369, 39.40167 ] } },
{ "type": "Feature", "properties": { "decade": "2020s", "longitude": 127.616, "latitude": 39.141, "facility_name": "Sangum-ri", "facility_location": "Anbyon County, Kangwon Province (North Korea)", "count": 2 }, "geometry": { "type": "Point", "coordinates": [ 127.616, 39.141 ] } },
{ "type": "Feature", "properties": { "decade": "2010s", "longitude": 127.891882, "latitude": 38.953797, "facility_name": "Tongchan", "facility_location": "Kangwon Province", "count": 2 }, "geometry": { "type": "Point", "coordinates": [ 127.891882, 38.953797 ] } },
{ "type": "Feature", "properties": { "decade": "2010s", "longitude": 127.66375, "latitude": 39.811611, "facility_name": "Hungnam", "facility_location": "Hamhung, South Hamgyong", "count": 2 }, "geometry": { "type": "Point", "coordinates": [ 127.66375, 39.811611 ] } },
{ "type": "Feature", "properties": { "decade": "2010s", "longitude": 127.53993, "latitude": 39.78938, "facility_name": "Yonpo Airport", "facility_location": "Hamhung, South Hamgyong Province", "count": 2 }, "geometry": { "type": "Point", "coordinates": [ 127.53993, 39.78938 ] } },
{ "type": "Feature", "properties": { "decade": "2010s", "longitude": 125.673256, "latitude": 39.200159, "facility_name": "Pyongyang International Airport", "facility_location": "Pyongyang, North Korea", "count": 2 }, "geometry": { "type": "Point", "coordinates": [ 125.673256, 39.200159 ] } },
{ "type": "Feature", "properties": { "decade": "2010s", "longitude": 127.4732, "latitude": 39.7437, "facility_name": "Sondok Airbase", "facility_location": "Sondok, South Hamgyong Province", "count": 2 }, "geometry": { "type": "Point", "coordinates": [ 127.4732, 39.7437 ] } },
{ "type": "Feature", "properties": { "decade": "2010s", "longitude": 127.250257, "latitude": 39.065962, "facility_name": "Masikryong", "facility_location": "Kangwon Province", "count": 2 }, "geometry": { "type": "Point", "coordinates": [ 127.250257, 39.065962 ] } },
{ "type": "Feature", "properties": { "decade": "2010s", "longitude": 125.024421, "latitude": 38.421522, "facility_name": "Kwail Airbase", "facility_location": "Kwail, Kwail-Gun, South Hwanghae", "count": 2 }, "geometry": { "type": "Point", "coordinates": [ 125.024421, 38.421522 ] } },
{ "type": "Feature", "properties": { "decade": "2010s", "longitude": 126.5878, "latitude": 37.9382, "facility_name": "Kaesong", "facility_location": "North Hwanghae Province", "count": 2 }, "geometry": { "type": "Point", "coordinates": [ 126.5878, 37.9382 ] } },
{ "type": "Feature", "properties": { "decade": "2010s", "longitude": 125.899905, "latitude": 39.752321, "facility_name": "Kaechon Air Base", "facility_location": "Kaechon, South Pyongan Province", "count": 2 }, "geometry": { "type": "Point", "coordinates": [ 125.899905, 39.752321 ] } },
{ "type": "Feature", "properties": { "decade": "2010s", "longitude": 125.227326, "latitude": 40.029678, "facility_name": "Baegun", "facility_location": "North Pyongan, North Korea", "count": 2 }, "geometry": { "type": "Point", "coordinates": [ 125.227326, 40.029678 ] } },
{ "type": "Feature", "properties": { "decade": "2010s", "longitude": 125.3247, "latitude": 38.7523, "facility_name": "Nampo", "facility_location": "South Pyongan Province", "count": 2 }, "geometry": { "type": "Point", "coordinates": [ 125.3247, 38.7523 ] } },
{ "type": "Feature", "properties": { "decade": "2020s", "longitude": 127.4732, "latitude": 39.7437, "facility_name": "Sondok Airbase", "facility_location": "Sondok, South Hamgyong Province", "count": 1 }, "geometry": { "type": "Point", "coordinates": [ 127.4732, 39.7437 ] } },
{ "type": "Feature", "properties": { "decade": "2010s", "longitude": 125.2099, "latitude": 40.0659, "facility_name": "North Kusong Testing Ground", "facility_location": "Kusong, North Pyongan", "count": 1 }, "geometry": { "type": "Point", "coordinates": [ 125.2099, 40.0659 ] } },
{ "type": "Feature", "properties": { "decade": "2020s", "longitude": 127.53993, "latitude": 39.78938, "facility_name": "Yonpo Airport", "facility_location": "Hamhung, South Hamgyong Province", "count": 1 }, "geometry": { "type": "Point", "coordinates": [ 127.53993, 39.78938 ] } },
{ "type": "Feature", "properties": { "decade": "2010s", "longitude": 125.22302, "latitude": 40.01325, "facility_name": "Kusong Testing Ground", "facility_location": "Kusong, North Pyongan", "count": 1 }, "geometry": { "type": "Point", "coordinates": [ 125.22302, 40.01325 ] } },
{ "type": "Feature", "properties": { "decade": "2010s", "longitude": 127.58, "latitude": 39.26, "facility_name": "Yonghung Bay", "facility_location": "Kangwon Province", "count": 1 }, "geometry": { "type": "Point", "coordinates": [ 127.58, 39.26 ] } },
{ "type": "Feature", "properties": { "decade": "2010s", "longitude": 125.269192, "latitude": 39.872153, "facility_name": "Panghyon", "facility_location": "Kusong, North Pyongan", "count": 1 }, "geometry": { "type": "Point", "coordinates": [ 125.269192, 39.872153 ] } },
{ "type": "Feature", "properties": { "decade": "1990s", "longitude": 126.6847, "latitude": 38.62333, "facility_name": "Chihari Missile Base", "facility_location": "Chiha-RiÂ , Kangwon Province", "count": 1 }, "geometry": { "type": "Point", "coordinates": [ 126.6847, 38.62333 ] } },
{ "type": "Feature", "properties": { "decade": "2010s", "longitude": 125.8035851, "latitude": 39.618283, "facility_name": "Lake Yonpung", "facility_location": "South Pyongan Province", "count": 1 }, "geometry": { "type": "Point", "coordinates": [ 125.8035851, 39.618283 ] } },
{ "type": "Feature", "properties": { "decade": "2010s", "longitude": 125.869, "latitude": 39.282, "facility_name": "Pyongsong Field", "facility_location": "Pyongsong, South Pyongan Province", "count": 1 }, "geometry": { "type": "Point", "coordinates": [ 125.869, 39.282 ] } },
{ "type": "Feature", "properties": { "decade": "2010s", "longitude": 126.425743, "latitude": 40.611208, "facility_name": "Mupyong-ni Arms Plant", "facility_location": "Mup'Yong-Ni, Chagang Province", "count": 1 }, "geometry": { "type": "Point", "coordinates": [ 126.425743, 40.611208 ] } },
{ "type": "Feature", "properties": { "decade": "2020s", "longitude": 125.5186, "latitude": 39.9857, "facility_name": "Taechon Reservoir", "facility_location": "Taechon, North Pyongan Province", "count": 1 }, "geometry": { "type": "Point", "coordinates": [ 125.5186, 39.9857 ] } },
{ "type": "Feature", "properties": { "decade": "2020s", "longitude": 128.1839, "latitude": 40.0368, "facility_name": "Sinpo Shipyard", "facility_location": "South Hamgyong Province", "count": 1 }, "geometry": { "type": "Point", "coordinates": [ 128.1839, 40.0368 ] } }
]
}
