,formatted_address,latitude,longitude,accuracy,google_place_id,type,postcode,input_string,number_of_results,status,response
0,"2450 Ashby Ave, Berkeley, CA 94705, USA",37.8556279,-122.2575014,ROOFTOP,ChIJeaLX1dN9hYAR5jsZsLlQPcA,premise,94705,"2450 Ashby Avenue, Berkeley, CA 94705",1,OK,"{'results': [{'access_points': [], 'address_components': [{'long_name': '2450', 'short_name': '2450', 'types': ['street_number']}, {'long_name': 'Ashby Avenue', 'short_name': 'Ashby Ave', 'types': ['route']}, {'long_name': 'Elmwood', 'short_name': 'Elmwood', 'types': ['neighborhood', 'political']}, {'long_name': 'Berkeley', 'short_name': 'Berkeley', 'types': ['locality', 'political']}, {'long_name': 'Alameda County', 'short_name': 'Alameda County', 'types': ['administrative_area_level_2', 'political']}, {'long_name': 'California', 'short_name': 'CA', 'types': ['administrative_area_level_1', 'political']}, {'long_name': 'United States', 'short_name': 'US', 'types': ['country', 'political']}, {'long_name': '94705', 'short_name': '94705', 'types': ['postal_code']}, {'long_name': '2067', 'short_name': '2067', 'types': ['postal_code_suffix']}], 'formatted_address': '2450 Ashby Ave, Berkeley, CA 94705, USA', 'geometry': {'bounds': {'northeast': {'lat': 37.8562787, 'lng': -122.2565364}, 'southwest': {'lat': 37.8545911, 'lng': -122.2577688}}, 'location': {'lat': 37.8556279, 'lng': -122.2575014}, 'location_type': 'ROOFTOP', 'viewport': {'northeast': {'lat': 37.8567838802915, 'lng': -122.2558036197085}, 'southwest': {'lat': 37.8540859197085, 'lng': -122.2585015802915}}}, 'place_id': 'ChIJeaLX1dN9hYAR5jsZsLlQPcA', 'types': ['premise']}], 'status': 'OK'}"
1,"2001 Dwight Way, Berkeley, CA 94704, USA",37.8640724,-122.2687119,ROOFTOP,ChIJGxtiEIN-hYARKL64AtGUd60,premise,94704,"2001 Dwight Way, Berkeley, CA 94704",1,OK,"{'results': [{'access_points': [], 'address_components': [{'long_name': '2001', 'short_name': '2001', 'types': ['street_number']}, {'long_name': 'Dwight Way', 'short_name': 'Dwight Way', 'types': ['route']}, {'long_name': 'Downtown Berkeley', 'short_name': 'Downtown Berkeley', 'types': ['neighborhood', 'political']}, {'long_name': 'Berkeley', 'short_name': 'Berkeley', 'types': ['locality', 'political']}, {'long_name': 'Alameda County', 'short_name': 'Alameda County', 'types': ['administrative_area_level_2', 'political']}, {'long_name': 'California', 'short_name': 'CA', 'types': ['administrative_area_level_1', 'political']}, {'long_name': 'United States', 'short_name': 'US', 'types': ['country', 'political']}, {'long_name': '94704', 'short_name': '94704', 'types': ['postal_code']}, {'long_name': '2608', 'short_name': '2608', 'types': ['postal_code_suffix']}], 'formatted_address': '2001 Dwight Way, Berkeley, CA 94704, USA', 'geometry': {'bounds': {'northeast': {'lat': 37.8646739, 'lng': -122.2682275}, 'southwest': {'lat': 37.8638286, 'lng': -122.2697684}}, 'location': {'lat': 37.8640724, 'lng': -122.2687119}, 'location_type': 'ROOFTOP', 'viewport': {'northeast': {'lat': 37.8656002302915, 'lng': -122.2676489697085}, 'southwest': {'lat': 37.86290226970851, 'lng': -122.2703469302915}}}, 'place_id': 'ChIJGxtiEIN-hYARKL64AtGUd60', 'types': ['premise']}], 'status': 'OK'}"
2,"2920 Telegraph Ave, Berkeley, CA 94705, USA",37.8569028,-122.2600272,ROOFTOP,ChIJwbcjgdR9hYARP4RBOb4_IA0,premise,94705,"2920 Telegraph Ave, Berkeley CA 94705",1,OK,"{'results': [{'access_points': [], 'address_components': [{'long_name': '2920', 'short_name': '2920', 'types': ['street_number']}, {'long_name': 'Telegraph Avenue', 'short_name': 'Telegraph Ave', 'types': ['route']}, {'long_name': 'South Berkeley', 'short_name': 'South Berkeley', 'types': ['neighborhood', 'political']}, {'long_name': 'Berkeley', 'short_name': 'Berkeley', 'types': ['locality', 'political']}, {'long_name': 'Alameda County', 'short_name': 'Alameda County', 'types': ['administrative_area_level_2', 'political']}, {'long_name': 'California', 'short_name': 'CA', 'types': ['administrative_area_level_1', 'political']}, {'long_name': 'United States', 'short_name': 'US', 'types': ['country', 'political']}, {'long_name': '94705', 'short_name': '94705', 'types': ['postal_code']}, {'long_name': '2031', 'short_name': '2031', 'types': ['postal_code_suffix']}], 'formatted_address': '2920 Telegraph Ave, Berkeley, CA 94705, USA', 'geometry': {'bounds': {'northeast': {'lat': 37.8570154, 'lng': -122.2597534}, 'southwest': {'lat': 37.856781, 'lng': -122.2602291}}, 'location': {'lat': 37.8569028, 'lng': -122.2600272}, 'location_type': 'ROOFTOP', 'viewport': {'northeast': {'lat': 37.8582471802915, 'lng': -122.2586422697085}, 'southwest': {'lat': 37.8555492197085, 'lng': -122.2613402302915}}}, 'place_id': 'ChIJwbcjgdR9hYARP4RBOb4_IA0', 'types': ['premise']}], 'status': 'OK'}"
3,"411 Grand Ave, Oakland, CA 94610, USA",37.8085267,-122.2535429,ROOFTOP,ChIJs2kEB0aHj4ARe1-NZbMk8xA,street_address,94610,"411 Grand Ave, Oakland, CA 94610",1,OK,"{'results': [{'access_points': [], 'address_components': [{'long_name': '411', 'short_name': '411', 'types': ['street_number']}, {'long_name': 'Grand Avenue', 'short_name': 'Grand Ave', 'types': ['route']}, {'long_name': 'Oakland', 'short_name': 'Oakland', 'types': ['locality', 'political']}, {'long_name': 'Alameda County', 'short_name': 'Alameda County', 'types': ['administrative_area_level_2', 'political']}, {'long_name': 'California', 'short_name': 'CA', 'types': ['administrative_area_level_1', 'political']}, {'long_name': 'United States', 'short_name': 'US', 'types': ['country', 'political']}, {'long_name': '94610', 'short_name': '94610', 'types': ['postal_code']}, {'long_name': '5022', 'short_name': '5022', 'types': ['postal_code_suffix']}], 'formatted_address': '411 Grand Ave, Oakland, CA 94610, USA', 'geometry': {'location': {'lat': 37.8085267, 'lng': -122.2535429}, 'location_type': 'ROOFTOP', 'viewport': {'northeast': {'lat': 37.8098756802915, 'lng': -122.2521939197085}, 'southwest': {'lat': 37.80717771970851, 'lng': -122.2548918802915}}}, 'place_id': 'ChIJs2kEB0aHj4ARe1-NZbMk8xA', 'plus_code': {'compound_code': 'RP5W+CH Oakland, California, United States', 'global_code': '849VRP5W+CH'}, 'types': ['street_address']}], 'status': 'OK'}"
4,"3918 Fallon Rd, Dublin, CA 94568, USA",37.7059949,-121.8512351,ROOFTOP,ChIJIwFc_dnoj4ARtsW_zCzEolc,premise,94568,"3918 Fallon Road, Dublin, CA 94568",1,OK,"{'results': [{'access_points': [], 'address_components': [{'long_name': '3918', 'short_name': '3918', 'types': ['street_number']}, {'long_name': 'Fallon Road', 'short_name': 'Fallon Rd', 'types': ['route']}, {'long_name': 'Dublin', 'short_name': 'Dublin', 'types': ['locality', 'political']}, {'long_name': 'Alameda County', 'short_name': 'Alameda County', 'types': ['administrative_area_level_2', 'political']}, {'long_name': 'California', 'short_name': 'CA', 'types': ['administrative_area_level_1', 'political']}, {'long_name': 'United States', 'short_name': 'US', 'types': ['country', 'political']}, {'long_name': '94568', 'short_name': '94568', 'types': ['postal_code']}], 'formatted_address': '3918 Fallon Rd, Dublin, CA 94568, USA', 'geometry': {'bounds': {'northeast': {'lat': 37.706157, 'lng': -121.8511016}, 'southwest': {'lat': 37.7058745, 'lng': -121.8513382}}, 'location': {'lat': 37.7059949, 'lng': -121.8512351}, 'location_type': 'ROOFTOP', 'viewport': {'northeast': {'lat': 37.70736473029149, 'lng': -121.8498709197085}, 'southwest': {'lat': 37.7046667697085, 'lng': -121.8525688802915}}}, 'place_id': 'ChIJIwFc_dnoj4ARtsW_zCzEolc', 'types': ['premise']}], 'status': 'OK'}"
5,"20103 Lake Chabot Rd, Castro Valley, CA 94546, USA",37.6982685,-122.0903131,ROOFTOP,ChIJRUW0fIyRj4AR1CMWJKLuftU,premise,94546,"20103 Lake Chabot Road, Castro Valley, CA 94546",1,OK,"{'results': [{'access_points': [], 'address_components': [{'long_name': '20103', 'short_name': '20103', 'types': ['street_number']}, {'long_name': 'Lake Chabot Road', 'short_name': 'Lake Chabot Rd', 'types': ['route']}, {'long_name': 'Castro Valley', 'short_name': 'Castro Valley', 'types': ['locality', 'political']}, {'long_name': 'Alameda County', 'short_name': 'Alameda County', 'types': ['administrative_area_level_2', 'political']}, {'long_name': 'California', 'short_name': 'CA', 'types': ['administrative_area_level_1', 'political']}, {'long_name': 'United States', 'short_name': 'US', 'types': ['country', 'political']}, {'long_name': '94546', 'short_name': '94546', 'types': ['postal_code']}, {'long_name': '5305', 'short_name': '5305', 'types': ['postal_code_suffix']}], 'formatted_address': '20103 Lake Chabot Rd, Castro Valley, CA 94546, USA', 'geometry': {'bounds': {'northeast': {'lat': 37.6985891, 'lng': -122.0894346}, 'southwest': {'lat': 37.6979268, 'lng': -122.090739}}, 'location': {'lat': 37.6982685, 'lng': -122.0903131}, 'location_type': 'ROOFTOP', 'viewport': {'northeast': {'lat': 37.69960693029149, 'lng': -122.0887378197085}, 'southwest': {'lat': 37.6969089697085, 'lng': -122.0914357802915}}}, 'place_id': 'ChIJRUW0fIyRj4AR1CMWJKLuftU', 'types': ['premise']}], 'status': 'OK'}"
6,"39199 Liberty St Building B, Fremont, CA 94538, USA",37.5503023,-121.9819241,ROOFTOP,EjMzOTE5OSBMaWJlcnR5IFN0IEJ1aWxkaW5nIEIsIEZyZW1vbnQsIENBIDk0NTM4LCBVU0EiJhokChYKFAoSCRm9cpmawI-AEf02ec8LgltoEgpCdWlsZGluZyBC,subpremise,94538,"39199 Liberty Street, Building B, Fremont, CA 94538",1,OK,"{'results': [{'access_points': [], 'address_components': [{'long_name': 'Building B', 'short_name': 'Building B', 'types': ['subpremise']}, {'long_name': '39199', 'short_name': '39199', 'types': ['street_number']}, {'long_name': 'Liberty Street', 'short_name': 'Liberty St', 'types': ['route']}, {'long_name': 'Central District', 'short_name': 'Central District', 'types': ['neighborhood', 'political']}, {'long_name': 'Fremont', 'short_name': 'Fremont', 'types': ['locality', 'political']}, {'long_name': 'Alameda County', 'short_name': 'Alameda County', 'types': ['administrative_area_level_2', 'political']}, {'long_name': 'California', 'short_name': 'CA', 'types': ['administrative_area_level_1', 'political']}, {'long_name': 'United States', 'short_name': 'US', 'types': ['country', 'political']}, {'long_name': '94538', 'short_name': '94538', 'types': ['postal_code']}, {'long_name': '1501', 'short_name': '1501', 'types': ['postal_code_suffix']}], 'formatted_address': '39199 Liberty St Building B, Fremont, CA 94538, USA', 'geometry': {'bounds': {'northeast': {'lat': 37.5504601, 'lng': -121.9817036}, 'southwest': {'lat': 37.55009, 'lng': -121.9822049}}, 'location': {'lat': 37.5503023, 'lng': -121.9819241}, 'location_type': 'ROOFTOP', 'viewport': {'northeast': {'lat': 37.5516240302915, 'lng': -121.9806052697085}, 'southwest': {'lat': 37.5489260697085, 'lng': -121.9833032302915}}}, 'place_id': 'EjMzOTE5OSBMaWJlcnR5IFN0IEJ1aWxkaW5nIEIsIEZyZW1vbnQsIENBIDk0NTM4LCBVU0EiJhokChYKFAoSCRm9cpmawI-AEf02ec8LgltoEgpCdWlsZGluZyBC', 'types': ['subpremise']}], 'status': 'OK'}"
7,"28270 Huntwood Ave, Hayward, CA 94544, USA",37.6328916,-122.0639918,ROOFTOP,ChIJ24_LghWUj4ARFXj0XRbDvWo,premise,94544,"28270 Huntwood Ave, Hayward, CA 94544",1,OK,"{'results': [{'access_points': [], 'address_components': [{'long_name': '28270', 'short_name': '28270', 'types': ['street_number']}, {'long_name': 'Huntwood Avenue', 'short_name': 'Huntwood Ave', 'types': ['route']}, {'long_name': 'Tennyson - Alquire', 'short_name': 'Tennyson - Alquire', 'types': ['neighborhood', 'political']}, {'long_name': 'Hayward', 'short_name': 'Hayward', 'types': ['locality', 'political']}, {'long_name': 'Alameda County', 'short_name': 'Alameda County', 'types': ['administrative_area_level_2', 'political']}, {'long_name': 'California', 'short_name': 'CA', 'types': ['administrative_area_level_1', 'political']}, {'long_name': 'United States', 'short_name': 'US', 'types': ['country', 'political']}, {'long_name': '94544', 'short_name': '94544', 'types': ['postal_code']}, {'long_name': '5470', 'short_name': '5470', 'types': ['postal_code_suffix']}], 'formatted_address': '28270 Huntwood Ave, Hayward, CA 94544, USA', 'geometry': {'bounds': {'northeast': {'lat': 37.6330214, 'lng': -122.0637708}, 'southwest': {'lat': 37.6326823, 'lng': -122.0641828}}, 'location': {'lat': 37.6328916, 'lng': -122.0639918}, 'location_type': 'ROOFTOP', 'viewport': {'northeast': {'lat': 37.6342008302915, 'lng': -122.0626278197085}, 'southwest': {'lat': 37.6315028697085, 'lng': -122.0653257802915}}}, 'place_id': 'ChIJ24_LghWUj4ARFXj0XRbDvWo', 'types': ['premise']}], 'status': 'OK'}"
8,"Marchant Building, 3100 San Pablo Ave, Oakland, CA 94608, USA",37.8502332,-122.287541,ROOFTOP,ChIJebh6A2B-hYARHrR-eZvOb9o,premise,94608,"3100 San Pablo Ave, Berkeley, CA 94702",1,OK,"{'results': [{'access_points': [], 'address_components': [{'long_name': 'Marchant Building', 'short_name': 'Marchant Building', 'types': ['premise']}, {'long_name': '3100', 'short_name': '3100', 'types': ['street_number']}, {'long_name': 'San Pablo Avenue', 'short_name': 'San Pablo Ave', 'types': ['route']}, {'long_name': 'Oakland', 'short_name': 'Oakland', 'types': ['locality', 'political']}, {'long_name': 'Alameda County', 'short_name': 'Alameda County', 'types': ['administrative_area_level_2', 'political']}, {'long_name': 'California', 'short_name': 'CA', 'types': ['administrative_area_level_1', 'political']}, {'long_name': 'United States', 'short_name': 'US', 'types': ['country', 'political']}, {'long_name': '94608', 'short_name': '94608', 'types': ['postal_code']}], 'formatted_address': 'Marchant Building, 3100 San Pablo Ave, Oakland, CA 94608, USA', 'geometry': {'bounds': {'northeast': {'lat': 37.8508193, 'lng': -122.2862913}, 'southwest': {'lat': 37.8496606, 'lng': -122.2888175}}, 'location': {'lat': 37.8502332, 'lng': -122.287541}, 'location_type': 'ROOFTOP', 'viewport': {'northeast': {'lat': 37.8515889302915, 'lng': -122.2862054197085}, 'southwest': {'lat': 37.8488909697085, 'lng': -122.2889033802915}}}, 'place_id': 'ChIJebh6A2B-hYARHrR-eZvOb9o', 'types': ['premise']}], 'status': 'OK'}"
9,"5860 Owens Dr, Pleasanton, CA 94588, USA",37.6993,-121.8992168,ROOFTOP,ChIJNb5WAlXpj4AR4hXQ64DfArk,premise,94588,"5860 Owens Dr, Pleasanton, CA 94588",1,OK,"{'results': [{'access_points': [], 'address_components': [{'long_name': '5860', 'short_name': '5860', 'types': ['street_number']}, {'long_name': 'Owens Drive', 'short_name': 'Owens Dr', 'types': ['route']}, {'long_name': 'Pleasanton', 'short_name': 'Pleasanton', 'types': ['locality', 'political']}, {'long_name': 'Alameda County', 'short_name': 'Alameda County', 'types': ['administrative_area_level_2', 'political']}, {'long_name': 'California', 'short_name': 'CA', 'types': ['administrative_area_level_1', 'political']}, {'long_name': 'United States', 'short_name': 'US', 'types': ['country', 'political']}, {'long_name': '94588', 'short_name': '94588', 'types': ['postal_code']}, {'long_name': '3900', 'short_name': '3900', 'types': ['postal_code_suffix']}], 'formatted_address': '5860 Owens Dr, Pleasanton, CA 94588, USA', 'geometry': {'bounds': {'northeast': {'lat': 37.6994864, 'lng': -121.8987175}, 'southwest': {'lat': 37.6990285, 'lng': -121.8995193}}, 'location': {'lat': 37.6993, 'lng': -121.8992168}, 'location_type': 'ROOFTOP', 'viewport': {'northeast': {'lat': 37.7006064302915, 'lng': -121.8977694197085}, 'southwest': {'lat': 37.6979084697085, 'lng': -121.9004673802915}}}, 'place_id': 'ChIJNb5WAlXpj4AR4hXQ64DfArk', 'types': ['premise']}], 'status': 'OK'}"
10,"2001 Dwight Way #1388, Berkeley, CA 94704, USA",37.8640724,-122.2687119,ROOFTOP,Ei4yMDAxIER3aWdodCBXYXkgIzEzODgsIEJlcmtlbGV5LCBDQSA5NDcwNCwgVVNBIiAaHgoWChQKEgkbG2IQg36FgBEovrgC0ZR3rRIEMTM4OA,subpremise,94704,"2001 Dwight Way Ste. 1388, Berkeley, CA 94704",1,OK,"{'results': [{'access_points': [], 'address_components': [{'long_name': '1388', 'short_name': '1388', 'types': ['subpremise']}, {'long_name': '2001', 'short_name': '2001', 'types': ['street_number']}, {'long_name': 'Dwight Way', 'short_name': 'Dwight Way', 'types': ['route']}, {'long_name': 'Downtown Berkeley', 'short_name': 'Downtown Berkeley', 'types': ['neighborhood', 'political']}, {'long_name': 'Berkeley', 'short_name': 'Berkeley', 'types': ['locality', 'political']}, {'long_name': 'Alameda County', 'short_name': 'Alameda County', 'types': ['administrative_area_level_2', 'political']}, {'long_name': 'California', 'short_name': 'CA', 'types': ['administrative_area_level_1', 'political']}, {'long_name': 'United States', 'short_name': 'US', 'types': ['country', 'political']}, {'long_name': '94704', 'short_name': '94704', 'types': ['postal_code']}, {'long_name': '2608', 'short_name': '2608', 'types': ['postal_code_suffix']}], 'formatted_address': '2001 Dwight Way #1388, Berkeley, CA 94704, USA', 'geometry': {'bounds': {'northeast': {'lat': 37.8646739, 'lng': -122.2682275}, 'southwest': {'lat': 37.8638286, 'lng': -122.2697684}}, 'location': {'lat': 37.8640724, 'lng': -122.2687119}, 'location_type': 'ROOFTOP', 'viewport': {'northeast': {'lat': 37.8656002302915, 'lng': -122.2676489697085}, 'southwest': {'lat': 37.86290226970851, 'lng': -122.2703469302915}}}, 'place_id': 'Ei4yMDAxIER3aWdodCBXYXkgIzEzODgsIEJlcmtlbGV5LCBDQSA5NDcwNCwgVVNBIiAaHgoWChQKEgkbG2IQg36FgBEovrgC0ZR3rRIEMTM4OA', 'types': ['subpremise']}], 'status': 'OK'}"
11,"4951 Arroyo Rd, Livermore, CA 94550, USA",37.6255203,-121.7631187,ROOFTOP,ChIJsWRy-VHcj4ARC2twbVl39QU,street_address,94550,"4951 Arroyo Road, Livermore, CA 94550",1,OK,"{'results': [{'access_points': [], 'address_components': [{'long_name': '4951', 'short_name': '4951', 'types': ['street_number']}, {'long_name': 'Arroyo Road', 'short_name': 'Arroyo Rd', 'types': ['route']}, {'long_name': 'Livermore', 'short_name': 'Livermore', 'types': ['locality', 'political']}, {'long_name': 'Alameda County', 'short_name': 'Alameda County', 'types': ['administrative_area_level_2', 'political']}, {'long_name': 'California', 'short_name': 'CA', 'types': ['administrative_area_level_1', 'political']}, {'long_name': 'United States', 'short_name': 'US', 'types': ['country', 'political']}, {'long_name': '94550', 'short_name': '94550', 'types': ['postal_code']}, {'long_name': '9650', 'short_name': '9650', 'types': ['postal_code_suffix']}], 'formatted_address': '4951 Arroyo Rd, Livermore, CA 94550, USA', 'geometry': {'location': {'lat': 37.6255203, 'lng': -121.7631187}, 'location_type': 'ROOFTOP', 'viewport': {'northeast': {'lat': 37.62686928029149, 'lng': -121.7617697197085}, 'southwest': {'lat': 37.62417131970849, 'lng': -121.7644676802915}}}, 'place_id': 'ChIJsWRy-VHcj4ARC2twbVl39QU', 'plus_code': {'compound_code': 'J6GP+6Q Livermore, California, United States', 'global_code': '849WJ6GP+6Q'}, 'types': ['street_address']}], 'status': 'OK'}"
12,"2221 Martin Luther King Jr Way, Oakland, CA 94612, USA",37.8119312,-122.2732755,ROOFTOP,ChIJK4nq0q6Aj4ARiicsHqwEO-M,premise,94612,"2221 Martin Luther King Jr. Way, Oakland, CA 94612",1,OK,"{'results': [{'access_points': [], 'address_components': [{'long_name': '2221', 'short_name': '2221', 'types': ['street_number']}, {'long_name': 'Martin Luther King Junior Way', 'short_name': 'Martin Luther King Jr Way', 'types': ['route']}, {'long_name': 'Downtown Oakland', 'short_name': 'Downtown Oakland', 'types': ['neighborhood', 'political']}, {'long_name': 'Oakland', 'short_name': 'Oakland', 'types': ['locality', 'political']}, {'long_name': 'Alameda County', 'short_name': 'Alameda County', 'types': ['administrative_area_level_2', 'political']}, {'long_name': 'California', 'short_name': 'CA', 'types': ['administrative_area_level_1', 'political']}, {'long_name': 'United States', 'short_name': 'US', 'types': ['country', 'political']}, {'long_name': '94612', 'short_name': '94612', 'types': ['postal_code']}], 'formatted_address': '2221 Martin Luther King Jr Way, Oakland, CA 94612, USA', 'geometry': {'bounds': {'northeast': {'lat': 37.8124084, 'lng': -122.2730014}, 'southwest': {'lat': 37.8117364, 'lng': -122.273568}}, 'location': {'lat': 37.8119312, 'lng': -122.2732755}, 'location_type': 'ROOFTOP', 'viewport': {'northeast': {'lat': 37.8134213802915, 'lng': -122.2719357197085}, 'southwest': {'lat': 37.8107234197085, 'lng': -122.2746336802915}}}, 'place_id': 'ChIJK4nq0q6Aj4ARiicsHqwEO-M', 'types': ['premise']}], 'status': 'OK'}"
13,"5095 Telegraph Ave, Oakland, CA 94609, USA",37.8368796,-122.2636607,ROOFTOP,ChIJ9_dTUuB9hYARZxwmRtZ6KTQ,premise,94609,"5095 Telegraph Avenue, Oakland, CA 94609",1,OK,"{'results': [{'access_points': [], 'address_components': [{'long_name': '5095', 'short_name': '5095', 'types': ['street_number']}, {'long_name': 'Telegraph Avenue', 'short_name': 'Telegraph Ave', 'types': ['route']}, {'long_name': 'Temescal', 'short_name': 'Temescal', 'types': ['neighborhood', 'political']}, {'long_name': 'Oakland', 'short_name': 'Oakland', 'types': ['locality', 'political']}, {'long_name': 'Alameda County', 'short_name': 'Alameda County', 'types': ['administrative_area_level_2', 'political']}, {'long_name': 'California', 'short_name': 'CA', 'types': ['administrative_area_level_1', 'political']}, {'long_name': 'United States', 'short_name': 'US', 'types': ['country', 'political']}, {'long_name': '94609', 'short_name': '94609', 'types': ['postal_code']}, {'long_name': '2067', 'short_name': '2067', 'types': ['postal_code_suffix']}], 'formatted_address': '5095 Telegraph Ave, Oakland, CA 94609, USA', 'geometry': {'bounds': {'northeast': {'lat': 37.8370429, 'lng': -122.2631174}, 'southwest': {'lat': 37.8367765, 'lng': -122.2637947}}, 'location': {'lat': 37.8368796, 'lng': -122.2636607}, 'location_type': 'ROOFTOP', 'viewport': {'northeast': {'lat': 37.8382586802915, 'lng': -122.2621070697085}, 'southwest': {'lat': 37.8355607197085, 'lng': -122.2648050302915}}}, 'place_id': 'ChIJ9_dTUuB9hYARZxwmRtZ6KTQ', 'types': ['premise']}], 'status': 'OK'}"
14,"350 Hawthorne Ave, Oakland, CA 94609, USA",37.821677,-122.2630846,ROOFTOP,ChIJzcR-pP99hYARM_Dfa7GmOkM,premise,94609,"350 Hawthorne Avenue, Oakland, CA 94609",1,OK,"{'results': [{'access_points': [], 'address_components': [{'long_name': '350', 'short_name': '350', 'types': ['street_number']}, {'long_name': 'Hawthorne Avenue', 'short_name': 'Hawthorne Ave', 'types': ['route']}, {'long_name': 'Pill Hill', 'short_name': 'Pill Hill', 'types': ['neighborhood', 'political']}, {'long_name': 'Oakland', 'short_name': 'Oakland', 'types': ['locality', 'political']}, {'long_name': 'Alameda County', 'short_name': 'Alameda County', 'types': ['administrative_area_level_2', 'political']}, {'long_name': 'California', 'short_name': 'CA', 'types': ['administrative_area_level_1', 'political']}, {'long_name': 'United States', 'short_name': 'US', 'types': ['country', 'political']}, {'long_name': '94609', 'short_name': '94609', 'types': ['postal_code']}], 'formatted_address': '350 Hawthorne Ave, Oakland, CA 94609, USA', 'geometry': {'bounds': {'northeast': {'lat': 37.8221875, 'lng': -122.2623283}, 'southwest': {'lat': 37.8209031, 'lng': -122.2638039}}, 'location': {'lat': 37.821677, 'lng': -122.2630846}, 'location_type': 'ROOFTOP', 'viewport': {'northeast': {'lat': 37.82289428029149, 'lng': -122.2617171197085}, 'southwest': {'lat': 37.8201963197085, 'lng': -122.2644150802915}}}, 'place_id': 'ChIJzcR-pP99hYARM_Dfa7GmOkM', 'types': ['premise']}], 'status': 'OK'}"
15,"Tang Center, 2222 Bancroft Way, Berkeley, CA 94720, USA",37.8676679,-122.2642858,ROOFTOP,ChIJNUoJ5Cd8hYARHP1Us116_Zw,premise,94720,"2222 Bancroft Way, Berkeley, CA 94720",1,OK,"{'results': [{'access_points': [], 'address_components': [{'long_name': 'Tang Center', 'short_name': 'Tang Center', 'types': ['premise']}, {'long_name': '2222', 'short_name': '2222', 'types': ['street_number']}, {'long_name': 'Bancroft Way', 'short_name': 'Bancroft Way', 'types': ['route']}, {'long_name': 'Southside', 'short_name': 'Southside', 'types': ['neighborhood', 'political']}, {'long_name': 'Berkeley', 'short_name': 'Berkeley', 'types': ['locality', 'political']}, {'long_name': 'Alameda County', 'short_name': 'Alameda County', 'types': ['administrative_area_level_2', 'political']}, {'long_name': 'California', 'short_name': 'CA', 'types': ['administrative_area_level_1', 'political']}, {'long_name': 'United States', 'short_name': 'US', 'types': ['country', 'political']}, {'long_name': '94720', 'short_name': '94720', 'types': ['postal_code']}], 'formatted_address': 'Tang Center, 2222 Bancroft Way, Berkeley, CA 94720, USA', 'geometry': {'bounds': {'northeast': {'lat': 37.8679904, 'lng': -122.2640199}, 'southwest': {'lat': 37.8672273, 'lng': -122.2647571}}, 'location': {'lat': 37.8676679, 'lng': -122.2642858}, 'location_type': 'ROOFTOP', 'viewport': {'northeast': {'lat': 37.8689578302915, 'lng': -122.2630395197085}, 'southwest': {'lat': 37.8662598697085, 'lng': -122.2657374802915}}}, 'place_id': 'ChIJNUoJ5Cd8hYARHP1Us116_Zw', 'types': ['premise']}], 'status': 'OK'}"
16,"75 Diamond Valley Rd, Markleeville, CA 96120, USA",38.7692681,-119.816918,ROOFTOP,ChIJVWBCRCHqmYARQPrsltdYWVw,premise,96120,"75B Diamond Valley Road, Markleeville, CA 96120",1,OK,"{'results': [{'access_points': [], 'address_components': [{'long_name': '75', 'short_name': '75', 'types': ['street_number']}, {'long_name': 'Diamond Valley Road', 'short_name': 'Diamond Valley Rd', 'types': ['route']}, {'long_name': 'Markleeville', 'short_name': 'Markleeville', 'types': ['locality', 'political']}, {'long_name': 'Alpine County', 'short_name': 'Alpine County', 'types': ['administrative_area_level_2', 'political']}, {'long_name': 'California', 'short_name': 'CA', 'types': ['administrative_area_level_1', 'political']}, {'long_name': 'United States', 'short_name': 'US', 'types': ['country', 'political']}, {'long_name': '96120', 'short_name': '96120', 'types': ['postal_code']}, {'long_name': '9579', 'short_name': '9579', 'types': ['postal_code_suffix']}], 'formatted_address': '75 Diamond Valley Rd, Markleeville, CA 96120, USA', 'geometry': {'bounds': {'northeast': {'lat': 38.769445, 'lng': -119.8166362}, 'southwest': {'lat': 38.7690859, 'lng': -119.8171069}}, 'location': {'lat': 38.7692681, 'lng': -119.816918}, 'location_type': 'ROOFTOP', 'viewport': {'northeast': {'lat': 38.7706144302915, 'lng': -119.8155225697085}, 'southwest': {'lat': 38.7679164697085, 'lng': -119.8182205302915}}}, 'place_id': 'ChIJVWBCRCHqmYARQPrsltdYWVw', 'types': ['premise']}], 'status': 'OK'}"
17,"280 Cohasset Rd, Chico, CA 95926, USA",39.7519564,-121.8515909,ROOFTOP,ChIJW-0ywYAng4ARIKSf1bepMDM,premise,95926,"280 Cohasset Road, Chico, CA 95926",1,OK,"{'results': [{'access_points': [], 'address_components': [{'long_name': '280', 'short_name': '280', 'types': ['street_number']}, {'long_name': 'Cohasset Road', 'short_name': 'Cohasset Rd', 'types': ['route']}, {'long_name': 'Chico', 'short_name': 'Chico', 'types': ['locality', 'political']}, {'long_name': 'Butte County', 'short_name': 'Butte County', 'types': ['administrative_area_level_2', 'political']}, {'long_name': 'California', 'short_name': 'CA', 'types': ['administrative_area_level_1', 'political']}, {'long_name': 'United States', 'short_name': 'US', 'types': ['country', 'political']}, {'long_name': '95926', 'short_name': '95926', 'types': ['postal_code']}, {'long_name': '2210', 'short_name': '2210', 'types': ['postal_code_suffix']}], 'formatted_address': '280 Cohasset Rd, Chico, CA 95926, USA', 'geometry': {'bounds': {'northeast': {'lat': 39.7521996, 'lng': -121.8512765}, 'southwest': {'lat': 39.7518157, 'lng': -121.8520287}}, 'location': {'lat': 39.7519564, 'lng': -121.8515909}, 'location_type': 'ROOFTOP', 'viewport': {'northeast': {'lat': 39.75335663029151, 'lng': -121.8503036197085}, 'southwest': {'lat': 39.75065866970851, 'lng': -121.8530015802915}}}, 'place_id': 'ChIJW-0ywYAng4ARIKSf1bepMDM', 'types': ['premise']}], 'status': 'OK'}"
18,"2095 Diamond Blvd, Concord, CA 94520, USA",37.9730802,-122.0579441,ROOFTOP,ChIJ5_i-1MZmhYARimT3JACelYE,premise,94520,"2095 Diamond Blvd., Concord, CA 94520",1,OK,"{'results': [{'access_points': [], 'address_components': [{'long_name': '2095', 'short_name': '2095', 'types': ['street_number']}, {'long_name': 'Diamond Boulevard', 'short_name': 'Diamond Blvd', 'types': ['route']}, {'long_name': 'Concord', 'short_name': 'Concord', 'types': ['locality', 'political']}, {'long_name': 'Contra Costa County', 'short_name': 'Contra Costa County', 'types': ['administrative_area_level_2', 'political']}, {'long_name': 'California', 'short_name': 'CA', 'types': ['administrative_area_level_1', 'political']}, {'long_name': 'United States', 'short_name': 'US', 'types': ['country', 'political']}, {'long_name': '94520', 'short_name': '94520', 'types': ['postal_code']}], 'formatted_address': '2095 Diamond Blvd, Concord, CA 94520, USA', 'geometry': {'bounds': {'northeast': {'lat': 37.97330669999999, 'lng': -122.0574894}, 'southwest': {'lat': 37.9727865, 'lng': -122.0583135}}, 'location': {'lat': 37.9730802, 'lng': -122.0579441}, 'location_type': 'ROOFTOP', 'viewport': {'northeast': {'lat': 37.9743955802915, 'lng': -122.0565524697085}, 'southwest': {'lat': 37.9716976197085, 'lng': -122.0592504302915}}}, 'place_id': 'ChIJ5_i-1MZmhYARimT3JACelYE', 'types': ['premise']}], 'status': 'OK'}"
19,"1601 Ygnacio Valley Rd, Walnut Creek, CA 94598, USA",37.9128769,-122.0409498,ROOFTOP,ChIJq44Ip7NhhYARYZOaGc-Hvjw,premise,94598,"1601 Ygnacio Valley Rd, Walnut Creek, CA 94598",1,OK,"{'results': [{'access_points': [], 'address_components': [{'long_name': '1601', 'short_name': '1601', 'types': ['street_number']}, {'long_name': 'Ygnacio Valley Road', 'short_name': 'Ygnacio Valley Rd', 'types': ['route']}, {'long_name': 'San Miguel', 'short_name': 'San Miguel', 'types': ['neighborhood', 'political']}, {'long_name': 'Walnut Creek', 'short_name': 'Walnut Creek', 'types': ['locality', 'political']}, {'long_name': 'Contra Costa County', 'short_name': 'Contra Costa County', 'types': ['administrative_area_level_2', 'political']}, {'long_name': 'California', 'short_name': 'CA', 'types': ['administrative_area_level_1', 'political']}, {'long_name': 'United States', 'short_name': 'US', 'types': ['country', 'political']}, {'long_name': '94598', 'short_name': '94598', 'types': ['postal_code']}, {'long_name': '3122', 'short_name': '3122', 'types': ['postal_code_suffix']}], 'formatted_address': '1601 Ygnacio Valley Rd, Walnut Creek, CA 94598, USA', 'geometry': {'bounds': {'northeast': {'lat': 37.9137701, 'lng': -122.0397248}, 'southwest': {'lat': 37.9124042, 'lng': -122.0419836}}, 'location': {'lat': 37.9128769, 'lng': -122.0409498}, 'location_type': 'ROOFTOP', 'viewport': {'northeast': {'lat': 37.9144361302915, 'lng': -122.0395052197085}, 'southwest': {'lat': 37.9117381697085, 'lng': -122.0422031802915}}}, 'place_id': 'ChIJq44Ip7NhhYARYZOaGc-Hvjw', 'types': ['premise']}], 'status': 'OK'}"
20,"2400 Balfour Rd #120, Brentwood, CA 94513, USA",37.924259,-121.7349525,ROOFTOP,Ei4yNDAwIEJhbGZvdXIgUmQgIzEyMCwgQnJlbnR3b29kLCBDQSA5NDUxMywgVVNBIh8aHQoWChQKEgn3WlfoOPmPgBGPmelWG-MlzBIDMTIw,subpremise,94513,"2400 Balfour Rd Suite 120, Brentwood, CA 94513",1,OK,"{'results': [{'access_points': [], 'address_components': [{'long_name': '120', 'short_name': '120', 'types': ['subpremise']}, {'long_name': '2400', 'short_name': '2400', 'types': ['street_number']}, {'long_name': 'Balfour Road', 'short_name': 'Balfour Rd', 'types': ['route']}, {'long_name': 'John Muir Medical Center', 'short_name': 'John Muir Medical Center', 'types': ['neighborhood', 'political']}, {'long_name': 'Brentwood', 'short_name': 'Brentwood', 'types': ['locality', 'political']}, {'long_name': 'Contra Costa County', 'short_name': 'Contra Costa County', 'types': ['administrative_area_level_2', 'political']}, {'long_name': 'California', 'short_name': 'CA', 'types': ['administrative_area_level_1', 'political']}, {'long_name': 'United States', 'short_name': 'US', 'types': ['country', 'political']}, {'long_name': '94513', 'short_name': '94513', 'types': ['postal_code']}], 'formatted_address': '2400 Balfour Rd #120, Brentwood, CA 94513, USA', 'geometry': {'bounds': {'northeast': {'lat': 37.924688, 'lng': -121.7344197}, 'southwest': {'lat': 37.923979, 'lng': -121.7355285}}, 'location': {'lat': 37.924259, 'lng': -121.7349525}, 'location_type': 'ROOFTOP', 'viewport': {'northeast': {'lat': 37.92568248029149, 'lng': -121.7336251197085}, 'southwest': {'lat': 37.92298451970849, 'lng': -121.7363230802915}}}, 'place_id': 'Ei4yNDAwIEJhbGZvdXIgUmQgIzEyMCwgQnJlbnR3b29kLCBDQSA5NDUxMywgVVNBIh8aHQoWChQKEgn3WlfoOPmPgBGPmelWG-MlzBIDMTIw', 'types': ['subpremise']}], 'status': 'OK'}"
21,"1425 S Main St, Walnut Creek, CA 94596, USA",37.8924348,-122.058953,ROOFTOP,ChIJsXALS91hhYARJOE9AsDEhMU,street_address,94596,"1425 S Main St, Walnut Creek, CA 94596",1,OK,"{'results': [{'access_points': [], 'address_components': [{'long_name': '1425', 'short_name': '1425', 'types': ['street_number']}, {'long_name': 'South Main Street', 'short_name': 'S Main St', 'types': ['route']}, {'long_name': 'Walnut Creek', 'short_name': 'Walnut Creek', 'types': ['locality', 'political']}, {'long_name': 'Contra Costa County', 'short_name': 'Contra Costa County', 'types': ['administrative_area_level_2', 'political']}, {'long_name': 'California', 'short_name': 'CA', 'types': ['administrative_area_level_1', 'political']}, {'long_name': 'United States', 'short_name': 'US', 'types': ['country', 'political']}, {'long_name': '94596', 'short_name': '94596', 'types': ['postal_code']}, {'long_name': '5318', 'short_name': '5318', 'types': ['postal_code_suffix']}], 'formatted_address': '1425 S Main St, Walnut Creek, CA 94596, USA', 'geometry': {'location': {'lat': 37.8924348, 'lng': -122.058953}, 'location_type': 'ROOFTOP', 'viewport': {'northeast': {'lat': 37.8937837802915, 'lng': -122.0576040197085}, 'southwest': {'lat': 37.8910858197085, 'lng': -122.0603019802915}}}, 'place_id': 'ChIJsXALS91hhYARJOE9AsDEhMU', 'plus_code': {'compound_code': 'VWRR+XC Walnut Creek, California, United States', 'global_code': '849VVWRR+XC'}, 'types': ['street_address']}], 'status': 'OK'}"
22,"150 Muir Rd, Martinez, CA 94553, USA",37.9942101,-122.1153518,ROOFTOP,ChIJmSSjfrtlhYARGYw785OsXys,street_address,94553,"150 Muir Road, Martinez, CA 94553",1,OK,"{'results': [{'access_points': [], 'address_components': [{'long_name': '150', 'short_name': '150', 'types': ['street_number']}, {'long_name': 'Muir Road', 'short_name': 'Muir Rd', 'types': ['route']}, {'long_name': 'Martinez', 'short_name': 'Martinez', 'types': ['locality', 'political']}, {'long_name': 'Contra Costa County', 'short_name': 'Contra Costa County', 'types': ['administrative_area_level_2', 'political']}, {'long_name': 'California', 'short_name': 'CA', 'types': ['administrative_area_level_1', 'political']}, {'long_name': 'United States', 'short_name': 'US', 'types': ['country', 'political']}, {'long_name': '94553', 'short_name': '94553', 'types': ['postal_code']}, {'long_name': '4668', 'short_name': '4668', 'types': ['postal_code_suffix']}], 'formatted_address': '150 Muir Rd, Martinez, CA 94553, USA', 'geometry': {'location': {'lat': 37.9942101, 'lng': -122.1153518}, 'location_type': 'ROOFTOP', 'viewport': {'northeast': {'lat': 37.99555908029149, 'lng': -122.1140028197085}, 'southwest': {'lat': 37.99286111970849, 'lng': -122.1167007802915}}}, 'place_id': 'ChIJmSSjfrtlhYARGYw785OsXys', 'plus_code': {'compound_code': 'XVVM+MV Martinez, California, United States', 'global_code': '849VXVVM+MV'}, 'types': ['street_address']}], 'status': 'OK'}"
23,"460 Market Pl, San Ramon, CA 94583, USA",37.76399019999999,-121.9510753,ROOFTOP,ChIJDxU6yoHyj4ARRk8foY6zxNA,street_address,94583,"460 Market Place, San Ramon, CA 94583",1,OK,"{'results': [{'access_points': [], 'address_components': [{'long_name': '460', 'short_name': '460', 'types': ['street_number']}, {'long_name': 'Market Place', 'short_name': 'Market Pl', 'types': ['route']}, {'long_name': 'San Ramon', 'short_name': 'San Ramon', 'types': ['locality', 'political']}, {'long_name': 'Contra Costa County', 'short_name': 'Contra Costa County', 'types': ['administrative_area_level_2', 'political']}, {'long_name': 'California', 'short_name': 'CA', 'types': ['administrative_area_level_1', 'political']}, {'long_name': 'United States', 'short_name': 'US', 'types': ['country', 'political']}, {'long_name': '94583', 'short_name': '94583', 'types': ['postal_code']}], 'formatted_address': '460 Market Pl, San Ramon, CA 94583, USA', 'geometry': {'location': {'lat': 37.76399019999999, 'lng': -121.9510753}, 'location_type': 'ROOFTOP', 'viewport': {'northeast': {'lat': 37.76533918029149, 'lng': -121.9497263197085}, 'southwest': {'lat': 37.7626412197085, 'lng': -121.9524242802915}}}, 'place_id': 'ChIJDxU6yoHyj4ARRk8foY6zxNA', 'plus_code': {'compound_code': 'Q27X+HH San Ramon, California, United States', 'global_code': '849WQ27X+HH'}, 'types': ['street_address']}], 'status': 'OK'}"
24,"3901 Lone Tree Way, Antioch, CA 94509, USA",37.9825348,-121.8029078,ROOFTOP,ChIJxXmcyI1XhYARomiULZ5vWGU,street_address,94509,"3901 Lone Tree Way, Antioch, CA 94509",1,OK,"{'results': [{'access_points': [], 'address_components': [{'long_name': '3901', 'short_name': '3901', 'types': ['street_number']}, {'long_name': 'Lone Tree Way', 'short_name': 'Lone Tree Way', 'types': ['route']}, {'long_name': 'Antioch', 'short_name': 'Antioch', 'types': ['locality', 'political']}, {'long_name': 'Contra Costa County', 'short_name': 'Contra Costa County', 'types': ['administrative_area_level_2', 'political']}, {'long_name': 'California', 'short_name': 'CA', 'types': ['administrative_area_level_1', 'political']}, {'long_name': 'United States', 'short_name': 'US', 'types': ['country', 'political']}, {'long_name': '94509', 'short_name': '94509', 'types': ['postal_code']}], 'formatted_address': '3901 Lone Tree Way, Antioch, CA 94509, USA', 'geometry': {'location': {'lat': 37.9825348, 'lng': -121.8029078}, 'location_type': 'ROOFTOP', 'viewport': {'northeast': {'lat': 37.98388378029149, 'lng': -121.8015588197085}, 'southwest': {'lat': 37.98118581970849, 'lng': -121.8042567802915}}}, 'place_id': 'ChIJxXmcyI1XhYARomiULZ5vWGU', 'plus_code': {'compound_code': 'X5MW+2R Antioch, California, United States', 'global_code': '849WX5MW+2R'}, 'types': ['street_address']}], 'status': 'OK'}"
25,"2878 Ygnacio Valley Rd, Walnut Creek, CA 94598, USA",37.9285193,-122.0172638,ROOFTOP,ChIJ_aUokF1ghYARHMq0jSeoX7g,street_address,94598,"2878 Ygnacio Valley Road, Walnut Creek, CA 94598",1,OK,"{'results': [{'access_points': [], 'address_components': [{'long_name': '2878', 'short_name': '2878', 'types': ['street_number']}, {'long_name': 'Ygnacio Valley Road', 'short_name': 'Ygnacio Valley Rd', 'types': ['route']}, {'long_name': 'Ygnacio Valley', 'short_name': 'Ygnacio Valley', 'types': ['neighborhood', 'political']}, {'long_name': 'Walnut Creek', 'short_name': 'Walnut Creek', 'types': ['locality', 'political']}, {'long_name': 'Contra Costa County', 'short_name': 'Contra Costa County', 'types': ['administrative_area_level_2', 'political']}, {'long_name': 'California', 'short_name': 'CA', 'types': ['administrative_area_level_1', 'political']}, {'long_name': 'United States', 'short_name': 'US', 'types': ['country', 'political']}, {'long_name': '94598', 'short_name': '94598', 'types': ['postal_code']}], 'formatted_address': '2878 Ygnacio Valley Rd, Walnut Creek, CA 94598, USA', 'geometry': {'location': {'lat': 37.9285193, 'lng': -122.0172638}, 'location_type': 'ROOFTOP', 'viewport': {'northeast': {'lat': 37.92986828029149, 'lng': -122.0159148197085}, 'southwest': {'lat': 37.92717031970849, 'lng': -122.0186127802915}}}, 'place_id': 'ChIJ_aUokF1ghYARHMq0jSeoX7g', 'plus_code': {'compound_code': 'WXHM+C3 Walnut Creek, California, United States', 'global_code': '849VWXHM+C3'}, 'types': ['street_address']}], 'status': 'OK'}"
26,"2170 South Ave, South Lake Tahoe, CA 96150, USA",38.9122482,-119.9965847,ROOFTOP,ChIJ8Yxw0MmPmYARI__wfmDvZAA,street_address,96150,"2170 South Avenue, South Lake Tahoe, CA 96150",1,OK,"{'results': [{'access_points': [], 'address_components': [{'long_name': '2170', 'short_name': '2170', 'types': ['street_number']}, {'long_name': 'South Avenue', 'short_name': 'South Ave', 'types': ['route']}, {'long_name': 'South Lake Tahoe', 'short_name': 'South Lake Tahoe', 'types': ['locality', 'political']}, {'long_name': 'El Dorado County', 'short_name': 'El Dorado County', 'types': ['administrative_area_level_2', 'political']}, {'long_name': 'California', 'short_name': 'CA', 'types': ['administrative_area_level_1', 'political']}, {'long_name': 'United States', 'short_name': 'US', 'types': ['country', 'political']}, {'long_name': '96150', 'short_name': '96150', 'types': ['postal_code']}, {'long_name': '7026', 'short_name': '7026', 'types': ['postal_code_suffix']}], 'formatted_address': '2170 South Ave, South Lake Tahoe, CA 96150, USA', 'geometry': {'location': {'lat': 38.9122482, 'lng': -119.9965847}, 'location_type': 'ROOFTOP', 'viewport': {'northeast': {'lat': 38.9135971802915, 'lng': -119.9952357197085}, 'southwest': {'lat': 38.9108992197085, 'lng': -119.9979336802915}}}, 'place_id': 'ChIJ8Yxw0MmPmYARI__wfmDvZAA', 'plus_code': {'compound_code': 'W263+V9 South Lake Tahoe, California, United States', 'global_code': '85C2W263+V9'}, 'types': ['street_address']}], 'status': 'OK'}"
27,"2615 E Clinton Ave, Fresno, CA 93703, USA",36.7733235,-119.7797421,ROOFTOP,ChIJa_WOnPFdlIARRvCEKh1Ke64,street_address,93703,"2615 E. Clinton Avenue, Fresno, CA 93703",1,OK,"{'results': [{'access_points': [], 'address_components': [{'long_name': '2615', 'short_name': '2615', 'types': ['street_number']}, {'long_name': 'East Clinton Avenue', 'short_name': 'E Clinton Ave', 'types': ['route']}, {'long_name': 'McLane', 'short_name': 'McLane', 'types': ['neighborhood', 'political']}, {'long_name': 'Fresno', 'short_name': 'Fresno', 'types': ['locality', 'political']}, {'long_name': 'Fresno County', 'short_name': 'Fresno County', 'types': ['administrative_area_level_2', 'political']}, {'long_name': 'California', 'short_name': 'CA', 'types': ['administrative_area_level_1', 'political']}, {'long_name': 'United States', 'short_name': 'US', 'types': ['country', 'political']}, {'long_name': '93703', 'short_name': '93703', 'types': ['postal_code']}], 'formatted_address': '2615 E Clinton Ave, Fresno, CA 93703, USA', 'geometry': {'location': {'lat': 36.7733235, 'lng': -119.7797421}, 'location_type': 'ROOFTOP', 'viewport': {'northeast': {'lat': 36.77467248029149, 'lng': -119.7783931197085}, 'southwest': {'lat': 36.77197451970849, 'lng': -119.7810910802915}}}, 'place_id': 'ChIJa_WOnPFdlIARRvCEKh1Ke64', 'plus_code': {'compound_code': 'Q6FC+84 Fresno, California, United States', 'global_code': '8582Q6FC+84'}, 'types': ['street_address']}], 'status': 'OK'}"
28,"930 W Harris St, Eureka, CA 95503, USA",40.7812224,-124.1813806,ROOFTOP,ChIJid3Qp_f_01QRF9z_6Gfvng0,street_address,95503,"930 W. Harris, Eureka, CA 95503",1,OK,"{'results': [{'access_points': [], 'address_components': [{'long_name': '930', 'short_name': '930', 'types': ['street_number']}, {'long_name': 'West Harris Street', 'short_name': 'W Harris St', 'types': ['route']}, {'long_name': 'Eureka', 'short_name': 'Eureka', 'types': ['locality', 'political']}, {'long_name': 'Humboldt County', 'short_name': 'Humboldt County', 'types': ['administrative_area_level_2', 'political']}, {'long_name': 'California', 'short_name': 'CA', 'types': ['administrative_area_level_1', 'political']}, {'long_name': 'United States', 'short_name': 'US', 'types': ['country', 'political']}, {'long_name': '95503', 'short_name': '95503', 'types': ['postal_code']}, {'long_name': '3927', 'short_name': '3927', 'types': ['postal_code_suffix']}], 'formatted_address': '930 W Harris St, Eureka, CA 95503, USA', 'geometry': {'location': {'lat': 40.7812224, 'lng': -124.1813806}, 'location_type': 'ROOFTOP', 'viewport': {'northeast': {'lat': 40.78257138029149, 'lng': -124.1800316197085}, 'southwest': {'lat': 40.77987341970849, 'lng': -124.1827295802915}}}, 'place_id': 'ChIJid3Qp_f_01QRF9z_6Gfvng0', 'plus_code': {'compound_code': 'QRJ9+FC Eureka, California, United States', 'global_code': '84GQQRJ9+FC'}, 'types': ['street_address']}], 'status': 'OK'}"
29,"3300 Renner Dr, Fortuna, CA 95540, USA",40.5823366,-124.1363749,ROOFTOP,ChIJDVV4cHYO1FQRNOR84hKY-pM,street_address,95540,"3300 Renner Drive, Fortuna, CA 95540",1,OK,"{'results': [{'access_points': [], 'address_components': [{'long_name': '3300', 'short_name': '3300', 'types': ['street_number']}, {'long_name': 'Renner Drive', 'short_name': 'Renner Dr', 'types': ['route']}, {'long_name': 'Rohnerville', 'short_name': 'Rohnerville', 'types': ['neighborhood', 'political']}, {'long_name': 'Fortuna', 'short_name': 'Fortuna', 'types': ['locality', 'political']}, {'long_name': 'Humboldt County', 'short_name': 'Humboldt County', 'types': ['administrative_area_level_2', 'political']}, {'long_name': 'California', 'short_name': 'CA', 'types': ['administrative_area_level_1', 'political']}, {'long_name': 'United States', 'short_name': 'US', 'types': ['country', 'political']}, {'long_name': '95540', 'short_name': '95540', 'types': ['postal_code']}, {'long_name': '3120', 'short_name': '3120', 'types': ['postal_code_suffix']}], 'formatted_address': '3300 Renner Dr, Fortuna, CA 95540, USA', 'geometry': {'location': {'lat': 40.5823366, 'lng': -124.1363749}, 'location_type': 'ROOFTOP', 'viewport': {'northeast': {'lat': 40.5836855802915, 'lng': -124.1350259197085}, 'southwest': {'lat': 40.5809876197085, 'lng': -124.1377238802915}}}, 'place_id': 'ChIJDVV4cHYO1FQRNOR84hKY-pM', 'plus_code': {'compound_code': 'HVJ7+WF Fortuna, California, United States', 'global_code': '84GQHVJ7+WF'}, 'types': ['street_address']}], 'status': 'OK'}"
30,"2700 Dolbeer St, Eureka, CA 95501, USA",40.7840947,-124.1421682,ROOFTOP,ChIJQar9TLj_01QREME3oip0WNg,street_address,95501,"2700 Dolbeer Street, Eureka, CA 95501",1,OK,"{'results': [{'access_points': [], 'address_components': [{'long_name': '2700', 'short_name': '2700', 'types': ['street_number']}, {'long_name': 'Dolbeer Street', 'short_name': 'Dolbeer St', 'types': ['route']}, {'long_name': 'Eureka', 'short_name': 'Eureka', 'types': ['locality', 'political']}, {'long_name': 'Humboldt County', 'short_name': 'Humboldt County', 'types': ['administrative_area_level_2', 'political']}, {'long_name': 'California', 'short_name': 'CA', 'types': ['administrative_area_level_1', 'political']}, {'long_name': 'United States', 'short_name': 'US', 'types': ['country', 'political']}, {'long_name': '95501', 'short_name': '95501', 'types': ['postal_code']}], 'formatted_address': '2700 Dolbeer St, Eureka, CA 95501, USA', 'geometry': {'location': {'lat': 40.7840947, 'lng': -124.1421682}, 'location_type': 'ROOFTOP', 'viewport': {'northeast': {'lat': 40.7854436802915, 'lng': -124.1408192197085}, 'southwest': {'lat': 40.7827457197085, 'lng': -124.1435171802915}}}, 'place_id': 'ChIJQar9TLj_01QREME3oip0WNg', 'plus_code': {'compound_code': 'QVM5+J4 Eureka, California, United States', 'global_code': '84GQQVM5+J4'}, 'types': ['street_address']}], 'status': 'OK'}"
31,"1415 Ross Ave, El Centro, CA 92243, USA",32.7804333,-115.568571,ROOFTOP,ChIJhT71U9Vg14ARiqdjfRm3J3Y,premise,92243,"1415 Ross Ave, El Centro, CA 92243",1,OK,"{'results': [{'access_points': [], 'address_components': [{'long_name': '1415', 'short_name': '1415', 'types': ['street_number']}, {'long_name': 'Ross Avenue', 'short_name': 'Ross Ave', 'types': ['route']}, {'long_name': 'El Centro', 'short_name': 'El Centro', 'types': ['locality', 'political']}, {'long_name': 'Imperial County', 'short_name': 'Imperial County', 'types': ['administrative_area_level_2', 'political']}, {'long_name': 'California', 'short_name': 'CA', 'types': ['administrative_area_level_1', 'political']}, {'long_name': 'United States', 'short_name': 'US', 'types': ['country', 'political']}, {'long_name': '92243', 'short_name': '92243', 'types': ['postal_code']}, {'long_name': '4306', 'short_name': '4306', 'types': ['postal_code_suffix']}], 'formatted_address': '1415 Ross Ave, El Centro, CA 92243, USA', 'geometry': {'bounds': {'northeast': {'lat': 32.7810831, 'lng': -115.5676258}, 'southwest': {'lat': 32.7797091, 'lng': -115.5691553}}, 'location': {'lat': 32.7804333, 'lng': -115.568571}, 'location_type': 'ROOFTOP', 'viewport': {'northeast': {'lat': 32.78174508029149, 'lng': -115.5670415697085}, 'southwest': {'lat': 32.77904711970849, 'lng': -115.5697395302915}}}, 'place_id': 'ChIJhT71U9Vg14ARiqdjfRm3J3Y', 'types': ['premise']}], 'status': 'OK'}"
32,"1115 S 4th St, El Centro, CA 92243, USA",32.7825011,-115.5520135,ROOFTOP,ChIJVzpTlNhm14ARIAUkOM6xjYw,street_address,92243,"1115 South 4th Street, El Centro, CA 92243",1,OK,"{'results': [{'access_points': [], 'address_components': [{'long_name': '1115', 'short_name': '1115', 'types': ['street_number']}, {'long_name': 'South 4th Street', 'short_name': 'S 4th St', 'types': ['route']}, {'long_name': 'El Centro', 'short_name': 'El Centro', 'types': ['locality', 'political']}, {'long_name': 'Imperial County', 'short_name': 'Imperial County', 'types': ['administrative_area_level_2', 'political']}, {'long_name': 'California', 'short_name': 'CA', 'types': ['administrative_area_level_1', 'political']}, {'long_name': 'United States', 'short_name': 'US', 'types': ['country', 'political']}, {'long_name': '92243', 'short_name': '92243', 'types': ['postal_code']}, {'long_name': '4741', 'short_name': '4741', 'types': ['postal_code_suffix']}], 'formatted_address': '1115 S 4th St, El Centro, CA 92243, USA', 'geometry': {'location': {'lat': 32.7825011, 'lng': -115.5520135}, 'location_type': 'ROOFTOP', 'viewport': {'northeast': {'lat': 32.7838500802915, 'lng': -115.5506645197085}, 'southwest': {'lat': 32.7811521197085, 'lng': -115.5533624802915}}}, 'place_id': 'ChIJVzpTlNhm14ARIAUkOM6xjYw', 'plus_code': {'compound_code': 'QCMX+25 El Centro, California, United States', 'global_code': '8546QCMX+25'}, 'types': ['street_address']}], 'status': 'OK'}"
33,"150 Pioneer Ln, Bishop, CA 93514, USA",37.3619709,-118.4061853,ROOFTOP,ChIJOwEs4Pc9voARP4-zvD74oQg,street_address,93514,"150 Pioneer Ln, Bishop, CA 93514",1,OK,"{'results': [{'access_points': [], 'address_components': [{'long_name': '150', 'short_name': '150', 'types': ['street_number']}, {'long_name': 'Pioneer Lane', 'short_name': 'Pioneer Ln', 'types': ['route']}, {'long_name': 'Bishop', 'short_name': 'Bishop', 'types': ['locality', 'political']}, {'long_name': 'Inyo County', 'short_name': 'Inyo County', 'types': ['administrative_area_level_2', 'political']}, {'long_name': 'California', 'short_name': 'CA', 'types': ['administrative_area_level_1', 'political']}, {'long_name': 'United States', 'short_name': 'US', 'types': ['country', 'political']}, {'long_name': '93514', 'short_name': '93514', 'types': ['postal_code']}, {'long_name': '2556', 'short_name': '2556', 'types': ['postal_code_suffix']}], 'formatted_address': '150 Pioneer Ln, Bishop, CA 93514, USA', 'geometry': {'location': {'lat': 37.3619709, 'lng': -118.4061853}, 'location_type': 'ROOFTOP', 'viewport': {'northeast': {'lat': 37.36331988029149, 'lng': -118.4048363197085}, 'southwest': {'lat': 37.36062191970849, 'lng': -118.4075342802915}}}, 'place_id': 'ChIJOwEs4Pc9voARP4-zvD74oQg', 'plus_code': {'compound_code': '9H6V+QG Bishop, California, United States', 'global_code': '85939H6V+QG'}, 'types': ['street_address']}], 'status': 'OK'}"
34,"1801 Westwind Dr, Bakersfield, CA 93301, USA",35.3758005,-119.0433849,ROOFTOP,ChIJDdVN0eJp6oARQSXUxOMIGuo,premise,93301,"1801 Westwind Drive, Bakersfield, CA 93301",1,OK,"{'results': [{'access_points': [], 'address_components': [{'long_name': '1801', 'short_name': '1801', 'types': ['street_number']}, {'long_name': 'Westwind Drive', 'short_name': 'Westwind Dr', 'types': ['route']}, {'long_name': 'Riviera/Westchester', 'short_name': 'Riviera/Westchester', 'types': ['neighborhood', 'political']}, {'long_name': 'Bakersfield', 'short_name': 'Bakersfield', 'types': ['locality', 'political']}, {'long_name': 'Kern County', 'short_name': 'Kern County', 'types': ['administrative_area_level_2', 'political']}, {'long_name': 'California', 'short_name': 'CA', 'types': ['administrative_area_level_1', 'political']}, {'long_name': 'United States', 'short_name': 'US', 'types': ['country', 'political']}, {'long_name': '93301', 'short_name': '93301', 'types': ['postal_code']}, {'long_name': '3028', 'short_name': '3028', 'types': ['postal_code_suffix']}], 'formatted_address': '1801 Westwind Dr, Bakersfield, CA 93301, USA', 'geometry': {'bounds': {'northeast': {'lat': 35.37599830000001, 'lng': -119.0431606}, 'southwest': {'lat': 35.3754739, 'lng': -119.0438015}}, 'location': {'lat': 35.3758005, 'lng': -119.0433849}, 'location_type': 'ROOFTOP', 'viewport': {'northeast': {'lat': 35.3770850802915, 'lng': -119.0421320697085}, 'southwest': {'lat': 35.3743871197085, 'lng': -119.0448300302915}}}, 'place_id': 'ChIJDdVN0eJp6oARQSXUxOMIGuo', 'types': ['premise']}], 'status': 'OK'}"
35,"1801 N China Lake Blvd, Ridgecrest, CA 93555, USA",35.6516296,-117.6698473,RANGE_INTERPOLATED,EjExODAxIE4gQ2hpbmEgTGFrZSBCbHZkLCBSaWRnZWNyZXN0LCBDQSA5MzU1NSwgVVNBIhsSGQoUChIJ_ZytID8TwYARIwTMbn-_fZUQiQ4,street_address,93555,"1801 North China Lake Blvd, Ridgecrest, CA 93555",1,OK,"{'results': [{'access_points': [], 'address_components': [{'long_name': '1801', 'short_name': '1801', 'types': ['street_number']}, {'long_name': 'North China Lake Boulevard', 'short_name': 'N China Lake Blvd', 'types': ['route']}, {'long_name': 'Ridgecrest', 'short_name': 'Ridgecrest', 'types': ['locality', 'political']}, {'long_name': 'Kern County', 'short_name': 'Kern County', 'types': ['administrative_area_level_2', 'political']}, {'long_name': 'California', 'short_name': 'CA', 'types': ['administrative_area_level_1', 'political']}, {'long_name': 'United States', 'short_name': 'US', 'types': ['country', 'political']}, {'long_name': '93555', 'short_name': '93555', 'types': ['postal_code']}], 'formatted_address': '1801 N China Lake Blvd, Ridgecrest, CA 93555, USA', 'geometry': {'location': {'lat': 35.6516296, 'lng': -117.6698473}, 'location_type': 'RANGE_INTERPOLATED', 'viewport': {'northeast': {'lat': 35.6529785802915, 'lng': -117.6684983197085}, 'southwest': {'lat': 35.6502806197085, 'lng': -117.6711962802915}}}, 'place_id': 'EjExODAxIE4gQ2hpbmEgTGFrZSBCbHZkLCBSaWRnZWNyZXN0LCBDQSA5MzU1NSwgVVNBIhsSGQoUChIJ_ZytID8TwYARIwTMbn-_fZUQiQ4', 'types': ['street_address']}], 'status': 'OK'}"
36,"15145 Lakeshore Dr, Clearlake, CA 95422, USA",38.9493835,-122.6285403,ROOFTOP,ChIJg2sUGyqKg4ARs--vRDVgo18,premise,95422,"15145 Lakeshore Drive, Clearlake, CA 95422",1,OK,"{'results': [{'access_points': [], 'address_components': [{'long_name': '15145', 'short_name': '15145', 'types': ['street_number']}, {'long_name': 'Lakeshore Drive', 'short_name': 'Lakeshore Dr', 'types': ['route']}, {'long_name': 'Clearlake', 'short_name': 'Clearlake', 'types': ['locality', 'political']}, {'long_name': 'Lake County', 'short_name': 'Lake County', 'types': ['administrative_area_level_2', 'political']}, {'long_name': 'California', 'short_name': 'CA', 'types': ['administrative_area_level_1', 'political']}, {'long_name': 'United States', 'short_name': 'US', 'types': ['country', 'political']}, {'long_name': '95422', 'short_name': '95422', 'types': ['postal_code']}, {'long_name': '8106', 'short_name': '8106', 'types': ['postal_code_suffix']}], 'formatted_address': '15145 Lakeshore Dr, Clearlake, CA 95422, USA', 'geometry': {'bounds': {'northeast': {'lat': 38.949632, 'lng': -122.6284262}, 'southwest': {'lat': 38.94915, 'lng': -122.6286899}}, 'location': {'lat': 38.9493835, 'lng': -122.6285403}, 'location_type': 'ROOFTOP', 'viewport': {'northeast': {'lat': 38.9507399802915, 'lng': -122.6272090697085}, 'southwest': {'lat': 38.9480420197085, 'lng': -122.6299070302915}}}, 'place_id': 'ChIJg2sUGyqKg4ARs--vRDVgo18', 'types': ['premise']}], 'status': 'OK'}"
37,"5176 Hill Rd E, Lakeport, CA 95453, USA",39.1047076,-122.9069825,ROOFTOP,ChIJMV_nYdzng4ARzfOUfljQzE4,street_address,95453,"5176 Hill Road, Lakeport, CA 95453",1,OK,"{'results': [{'access_points': [], 'address_components': [{'long_name': '5176', 'short_name': '5176', 'types': ['street_number']}, {'long_name': 'Hill Road East', 'short_name': 'Hill Rd E', 'types': ['route']}, {'long_name': 'Lakeport', 'short_name': 'Lakeport', 'types': ['locality', 'political']}, {'long_name': 'Lake County', 'short_name': 'Lake County', 'types': ['administrative_area_level_2', 'political']}, {'long_name': 'California', 'short_name': 'CA', 'types': ['administrative_area_level_1', 'political']}, {'long_name': 'United States', 'short_name': 'US', 'types': ['country', 'political']}, {'long_name': '95453', 'short_name': '95453', 'types': ['postal_code']}, {'long_name': '6300', 'short_name': '6300', 'types': ['postal_code_suffix']}], 'formatted_address': '5176 Hill Rd E, Lakeport, CA 95453, USA', 'geometry': {'location': {'lat': 39.1047076, 'lng': -122.9069825}, 'location_type': 'ROOFTOP', 'viewport': {'northeast': {'lat': 39.10605658029149, 'lng': -122.9056335197085}, 'southwest': {'lat': 39.10335861970849, 'lng': -122.9083314802915}}}, 'place_id': 'ChIJMV_nYdzng4ARzfOUfljQzE4', 'plus_code': {'compound_code': '433V+V6 Lakeport, California, United States', 'global_code': '84FV433V+V6'}, 'types': ['street_address']}], 'status': 'OK'}"
38,"110 Bella Way, Susanville, CA 96130, USA",40.40589569999999,-120.625158,ROOFTOP,ChIJ3Y0WZeO9nYARQEV-6X6dh6A,premise,96130,"110 Bella Way, Susanville, CA 96130",1,OK,"{'results': [{'access_points': [], 'address_components': [{'long_name': '110', 'short_name': '110', 'types': ['street_number']}, {'long_name': 'Bella Way', 'short_name': 'Bella Way', 'types': ['route']}, {'long_name': 'Susanville', 'short_name': 'Susanville', 'types': ['locality', 'political']}, {'long_name': 'Lassen County', 'short_name': 'Lassen County', 'types': ['administrative_area_level_2', 'political']}, {'long_name': 'California', 'short_name': 'CA', 'types': ['administrative_area_level_1', 'political']}, {'long_name': 'United States', 'short_name': 'US', 'types': ['country', 'political']}, {'long_name': '96130', 'short_name': '96130', 'types': ['postal_code']}], 'formatted_address': '110 Bella Way, Susanville, CA 96130, USA', 'geometry': {'bounds': {'northeast': {'lat': 40.40604039999999, 'lng': -120.6248651}, 'southwest': {'lat': 40.405733, 'lng': -120.6254051}}, 'location': {'lat': 40.40589569999999, 'lng': -120.625158}, 'location_type': 'ROOFTOP', 'viewport': {'northeast': {'lat': 40.40723568029149, 'lng': -120.6237861197085}, 'southwest': {'lat': 40.40453771970849, 'lng': -120.6264840802915}}}, 'place_id': 'ChIJ3Y0WZeO9nYARQEV-6X6dh6A', 'types': ['premise']}], 'status': 'OK'}"
39,"1509 Wilson Terrace, Glendale, CA 91206, USA",34.1502139,-118.2304591,ROOFTOP,ChIJsTOjKAvBwoARONi1d3UuPVI,premise,91206,"1509 Wilson Ter, Glendale, CA 91206",1,OK,"{'results': [{'access_points': [], 'address_components': [{'long_name': '1509', 'short_name': '1509', 'types': ['street_number']}, {'long_name': 'Wilson Terrace', 'short_name': 'Wilson Terrace', 'types': ['route']}, {'long_name': 'Woodbury', 'short_name': 'Woodbury', 'types': ['neighborhood', 'political']}, {'long_name': 'Glendale', 'short_name': 'Glendale', 'types': ['locality', 'political']}, {'long_name': 'Los Angeles County', 'short_name': 'Los Angeles County', 'types': ['administrative_area_level_2', 'political']}, {'long_name': 'California', 'short_name': 'CA', 'types': ['administrative_area_level_1', 'political']}, {'long_name': 'United States', 'short_name': 'US', 'types': ['country', 'political']}, {'long_name': '91206', 'short_name': '91206', 'types': ['postal_code']}, {'long_name': '4007', 'short_name': '4007', 'types': ['postal_code_suffix']}], 'formatted_address': '1509 Wilson Terrace, Glendale, CA 91206, USA', 'geometry': {'bounds': {'northeast': {'lat': 34.1509648, 'lng': -118.2293319}, 'southwest': {'lat': 34.1496788, 'lng': -118.23084}}, 'location': {'lat': 34.1502139, 'lng': -118.2304591}, 'location_type': 'ROOFTOP', 'viewport': {'northeast': {'lat': 34.15167078029149, 'lng': -118.2287369697085}, 'southwest': {'lat': 34.1489728197085, 'lng': -118.2314349302915}}}, 'place_id': 'ChIJsTOjKAvBwoARONi1d3UuPVI', 'types': ['premise']}], 'status': 'OK'}"
40,"1720 East Cesar E Chavez Avenue, Los Angeles, CA 90033, USA",34.0492967,-118.2171632,ROOFTOP,ChIJ49mC-w3GwoARDd70Gw4tZ4Y,premise,90033,"1720 E Cesar E Chavez Ave, Los Angeles, CA 90033",1,OK,"{'results': [{'access_points': [], 'address_components': [{'long_name': '1720', 'short_name': '1720', 'types': ['street_number']}, {'long_name': 'East Cesar E Chavez Avenue', 'short_name': 'East Cesar E Chavez Avenue', 'types': ['route']}, {'long_name': 'Central LA', 'short_name': 'Central LA', 'types': ['neighborhood', 'political']}, {'long_name': 'Los Angeles', 'short_name': 'Los Angeles', 'types': ['locality', 'political']}, {'long_name': 'Los Angeles County', 'short_name': 'Los Angeles County', 'types': ['administrative_area_level_2', 'political']}, {'long_name': 'California', 'short_name': 'CA', 'types': ['administrative_area_level_1', 'political']}, {'long_name': 'United States', 'short_name': 'US', 'types': ['country', 'political']}, {'long_name': '90033', 'short_name': '90033', 'types': ['postal_code']}, {'long_name': '2414', 'short_name': '2414', 'types': ['postal_code_suffix']}], 'formatted_address': '1720 East Cesar E Chavez Avenue, Los Angeles, CA 90033, USA', 'geometry': {'bounds': {'northeast': {'lat': 34.0496725, 'lng': -118.2166183}, 'southwest': {'lat': 34.0489863, 'lng': -118.2174612}}, 'location': {'lat': 34.0492967, 'lng': -118.2171632}, 'location_type': 'ROOFTOP', 'viewport': {'northeast': {'lat': 34.0506783802915, 'lng': -118.2156907697085}, 'southwest': {'lat': 34.0479804197085, 'lng': -118.2183887302915}}}, 'place_id': 'ChIJ49mC-w3GwoARDd70Gw4tZ4Y', 'types': ['premise']}], 'status': 'OK'}"
41,"335 E Ave K 6, Lancaster, CA 93535, USA",34.6698499,-118.1246467,ROOFTOP,ChIJyaM-AohawoAR222yFiNF_5w,premise,93535,"335-B East Avenue K6, Lancaster, CA 93535",1,OK,"{'results': [{'access_points': [], 'address_components': [{'long_name': '335', 'short_name': '335', 'types': ['street_number']}, {'long_name': 'East Avenue K 6', 'short_name': 'E Ave K 6', 'types': ['route']}, {'long_name': 'Lancaster', 'short_name': 'Lancaster', 'types': ['locality', 'political']}, {'long_name': 'Los Angeles County', 'short_name': 'Los Angeles County', 'types': ['administrative_area_level_2', 'political']}, {'long_name': 'California', 'short_name': 'CA', 'types': ['administrative_area_level_1', 'political']}, {'long_name': 'United States', 'short_name': 'US', 'types': ['country', 'political']}, {'long_name': '93535', 'short_name': '93535', 'types': ['postal_code']}, {'long_name': '4645', 'short_name': '4645', 'types': ['postal_code_suffix']}], 'formatted_address': '335 E Ave K 6, Lancaster, CA 93535, USA', 'geometry': {'bounds': {'northeast': {'lat': 34.6700765, 'lng': -118.1241168}, 'southwest': {'lat': 34.6696837, 'lng': -118.1255071}}, 'location': {'lat': 34.6698499, 'lng': -118.1246467}, 'location_type': 'ROOFTOP', 'viewport': {'northeast': {'lat': 34.6712290802915, 'lng': -118.1234629697085}, 'southwest': {'lat': 34.6685311197085, 'lng': -118.1261609302915}}}, 'place_id': 'ChIJyaM-AohawoAR222yFiNF_5w', 'types': ['premise']}], 'status': 'OK'}"
42,"309 W Beverly Blvd, Montebello, CA 90640, USA",34.015015,-118.100636,ROOFTOP,ChIJX7vo39HRwoARP53n_LjdNpo,street_address,90640,"309 W Beverly Blvd, Montebello, CA 90640",1,OK,"{'results': [{'access_points': [], 'address_components': [{'long_name': '309', 'short_name': '309', 'types': ['street_number']}, {'long_name': 'West Beverly Boulevard', 'short_name': 'W Beverly Blvd', 'types': ['route']}, {'long_name': 'South Montebello', 'short_name': 'South Montebello', 'types': ['neighborhood', 'political']}, {'long_name': 'Montebello', 'short_name': 'Montebello', 'types': ['locality', 'political']}, {'long_name': 'Los Angeles County', 'short_name': 'Los Angeles County', 'types': ['administrative_area_level_2', 'political']}, {'long_name': 'California', 'short_name': 'CA', 'types': ['administrative_area_level_1', 'political']}, {'long_name': 'United States', 'short_name': 'US', 'types': ['country', 'political']}, {'long_name': '90640', 'short_name': '90640', 'types': ['postal_code']}, {'long_name': '4308', 'short_name': '4308', 'types': ['postal_code_suffix']}], 'formatted_address': '309 W Beverly Blvd, Montebello, CA 90640, USA', 'geometry': {'location': {'lat': 34.015015, 'lng': -118.100636}, 'location_type': 'ROOFTOP', 'viewport': {'northeast': {'lat': 34.01636398029149, 'lng': -118.0992870197085}, 'southwest': {'lat': 34.0136660197085, 'lng': -118.1019849802915}}}, 'place_id': 'ChIJX7vo39HRwoARP53n_LjdNpo', 'plus_code': {'compound_code': '2V8X+2P Montebello, California, United States', 'global_code': '85632V8X+2P'}, 'types': ['street_address']}], 'status': 'OK'}"
43,"1401 S Grand Ave, Los Angeles, CA 90015, USA",34.0374888,-118.2661449,ROOFTOP,ChIJgfs7C8bHwoARNb2w62dSzdw,street_address,90015,"1401 S Grand Ave, Los Angeles, CA 90015",1,OK,"{'results': [{'access_points': [], 'address_components': [{'long_name': '1401', 'short_name': '1401', 'types': ['street_number']}, {'long_name': 'South Grand Avenue', 'short_name': 'S Grand Ave', 'types': ['route']}, {'long_name': 'Downtown Los Angeles', 'short_name': 'Downtown Los Angeles', 'types': ['neighborhood', 'political']}, {'long_name': 'Los Angeles', 'short_name': 'Los Angeles', 'types': ['locality', 'political']}, {'long_name': 'Los Angeles County', 'short_name': 'Los Angeles County', 'types': ['administrative_area_level_2', 'political']}, {'long_name': 'California', 'short_name': 'CA', 'types': ['administrative_area_level_1', 'political']}, {'long_name': 'United States', 'short_name': 'US', 'types': ['country', 'political']}, {'long_name': '90015', 'short_name': '90015', 'types': ['postal_code']}, {'long_name': '3010', 'short_name': '3010', 'types': ['postal_code_suffix']}], 'formatted_address': '1401 S Grand Ave, Los Angeles, CA 90015, USA', 'geometry': {'location': {'lat': 34.0374888, 'lng': -118.2661449}, 'location_type': 'ROOFTOP', 'viewport': {'northeast': {'lat': 34.0388377802915, 'lng': -118.2647959197085}, 'southwest': {'lat': 34.0361398197085, 'lng': -118.2674938802915}}}, 'place_id': 'ChIJgfs7C8bHwoARNb2w62dSzdw', 'plus_code': {'compound_code': '2PPM+XG Los Angeles, California, United States', 'global_code': '85632PPM+XG'}, 'types': ['street_address']}], 'status': 'OK'}"
44,"2110 Sunset Blvd Ste M, Los Angeles, CA 90026, USA",34.077189,-118.2641266,ROOFTOP,EjIyMTEwIFN1bnNldCBCbHZkIFN0ZSBNLCBMb3MgQW5nZWxlcywgQ0EgOTAwMjYsIFVTQSIhGh8KFgoUChIJn3uTCxrHwoAREO94gN_zYS0SBVN0ZSBN,subpremise,90026,"2110 W Sunset Blvd Ste M, Los Angeles, CA 90026",1,OK,"{'results': [{'access_points': [], 'address_components': [{'long_name': 'Ste M', 'short_name': 'Ste M', 'types': ['subpremise']}, {'long_name': '2110', 'short_name': '2110', 'types': ['street_number']}, {'long_name': 'Sunset Boulevard', 'short_name': 'Sunset Blvd', 'types': ['route']}, {'long_name': 'Los Angeles', 'short_name': 'Los Angeles', 'types': ['locality', 'political']}, {'long_name': 'Los Angeles County', 'short_name': 'Los Angeles County', 'types': ['administrative_area_level_2', 'political']}, {'long_name': 'California', 'short_name': 'CA', 'types': ['administrative_area_level_1', 'political']}, {'long_name': 'United States', 'short_name': 'US', 'types': ['country', 'political']}, {'long_name': '90026', 'short_name': '90026', 'types': ['postal_code']}, {'long_name': '3125', 'short_name': '3125', 'types': ['postal_code_suffix']}], 'formatted_address': '2110 Sunset Blvd Ste M, Los Angeles, CA 90026, USA', 'geometry': {'location': {'lat': 34.077189, 'lng': -118.2641266}, 'location_type': 'ROOFTOP', 'viewport': {'northeast': {'lat': 34.07853798029149, 'lng': -118.2627776197085}, 'southwest': {'lat': 34.0758400197085, 'lng': -118.2654755802915}}}, 'place_id': 'EjIyMTEwIFN1bnNldCBCbHZkIFN0ZSBNLCBMb3MgQW5nZWxlcywgQ0EgOTAwMjYsIFVTQSIhGh8KFgoUChIJn3uTCxrHwoAREO94gN_zYS0SBVN0ZSBN', 'types': ['subpremise']}], 'status': 'OK'}"
45,"600 E Colorado Blvd #120, Pasadena, CA 91101, USA",34.1455348,-118.1379256,ROOFTOP,EjE2MDAgRSBDb2xvcmFkbyBCbHZkICMxMjAsIFBhc2FkZW5hLCBDQSA5MTEwMSwgVVNBIh8aHQoWChQKEgkl7g14aMPCgBH6d5mvmW6ZlBIDMTIw,subpremise,91101,"600 E Colorado Blvd Ste 120, Pasadena, CA 91101",1,OK,"{'results': [{'access_points': [], 'address_components': [{'long_name': '120', 'short_name': '120', 'types': ['subpremise']}, {'long_name': '600', 'short_name': '600', 'types': ['street_number']}, {'long_name': 'East Colorado Boulevard', 'short_name': 'E Colorado Blvd', 'types': ['route']}, {'long_name': 'Pasadena', 'short_name': 'Pasadena', 'types': ['locality', 'political']}, {'long_name': 'Los Angeles County', 'short_name': 'Los Angeles County', 'types': ['administrative_area_level_2', 'political']}, {'long_name': 'California', 'short_name': 'CA', 'types': ['administrative_area_level_1', 'political']}, {'long_name': 'United States', 'short_name': 'US', 'types': ['country', 'political']}, {'long_name': '91101', 'short_name': '91101', 'types': ['postal_code']}, {'long_name': '2006', 'short_name': '2006', 'types': ['postal_code_suffix']}], 'formatted_address': '600 E Colorado Blvd #120, Pasadena, CA 91101, USA', 'geometry': {'bounds': {'northeast': {'lat': 34.1457355, 'lng': -118.1378495}, 'southwest': {'lat': 34.1453032, 'lng': -118.1380752}}, 'location': {'lat': 34.1455348, 'lng': -118.1379256}, 'location_type': 'ROOFTOP', 'viewport': {'northeast': {'lat': 34.1468683302915, 'lng': -118.1366133697085}, 'southwest': {'lat': 34.1441703697085, 'lng': -118.1393113302915}}}, 'place_id': 'EjE2MDAgRSBDb2xvcmFkbyBCbHZkICMxMjAsIFBhc2FkZW5hLCBDQSA5MTEwMSwgVVNBIh8aHQoWChQKEgkl7g14aMPCgBH6d5mvmW6ZlBIDMTIw', 'types': ['subpremise']}], 'status': 'OK'}"
46,"8700 Beverly Blvd, West Hollywood, CA 90048, USA",34.075232,-118.3801756,ROOFTOP,ChIJP8Olk7K-woARrdfZO381BVQ,street_address,90048,"8700 Beverly Blvd, West Hollywood, CA 90048",1,OK,"{'results': [{'access_points': [], 'address_components': [{'long_name': '8700', 'short_name': '8700', 'types': ['street_number']}, {'long_name': 'Beverly Boulevard', 'short_name': 'Beverly Blvd', 'types': ['route']}, {'long_name': 'Central LA', 'short_name': 'Central LA', 'types': ['neighborhood', 'political']}, {'long_name': 'West Hollywood', 'short_name': 'West Hollywood', 'types': ['locality', 'political']}, {'long_name': 'Los Angeles County', 'short_name': 'Los Angeles County', 'types': ['administrative_area_level_2', 'political']}, {'long_name': 'California', 'short_name': 'CA', 'types': ['administrative_area_level_1', 'political']}, {'long_name': 'United States', 'short_name': 'US', 'types': ['country', 'political']}, {'long_name': '90048', 'short_name': '90048', 'types': ['postal_code']}, {'long_name': '1804', 'short_name': '1804', 'types': ['postal_code_suffix']}], 'formatted_address': '8700 Beverly Blvd, West Hollywood, CA 90048, USA', 'geometry': {'location': {'lat': 34.075232, 'lng': -118.3801756}, 'location_type': 'ROOFTOP', 'viewport': {'northeast': {'lat': 34.0765809802915, 'lng': -118.3788266197085}, 'southwest': {'lat': 34.0738830197085, 'lng': -118.3815245802915}}}, 'place_id': 'ChIJP8Olk7K-woARrdfZO381BVQ', 'plus_code': {'compound_code': '3JG9+3W West Hollywood, California, United States', 'global_code': '85633JG9+3W'}, 'types': ['street_address']}], 'status': 'OK'}"
47,"555 E Hardy St, Inglewood, CA 90301, USA",33.9504805,-118.3482959,ROOFTOP,ChIJ5wVsjve2woAR1_SU70gU-rk,street_address,90301,"555 E Hardy St, Inglewood, CA 90301",1,OK,"{'results': [{'access_points': [], 'address_components': [{'long_name': '555', 'short_name': '555', 'types': ['street_number']}, {'long_name': 'East Hardy Street', 'short_name': 'E Hardy St', 'types': ['route']}, {'long_name': 'Inglewood', 'short_name': 'Inglewood', 'types': ['locality', 'political']}, {'long_name': 'Los Angeles County', 'short_name': 'Los Angeles County', 'types': ['administrative_area_level_2', 'political']}, {'long_name': 'California', 'short_name': 'CA', 'types': ['administrative_area_level_1', 'political']}, {'long_name': 'United States', 'short_name': 'US', 'types': ['country', 'political']}, {'long_name': '90301', 'short_name': '90301', 'types': ['postal_code']}], 'formatted_address': '555 E Hardy St, Inglewood, CA 90301, USA', 'geometry': {'location': {'lat': 33.9504805, 'lng': -118.3482959}, 'location_type': 'ROOFTOP', 'viewport': {'northeast': {'lat': 33.95182948029149, 'lng': -118.3469469197085}, 'southwest': {'lat': 33.9491315197085, 'lng': -118.3496448802915}}}, 'place_id': 'ChIJ5wVsjve2woAR1_SU70gU-rk', 'plus_code': {'compound_code': 'XM22+5M Inglewood, California, United States', 'global_code': '8553XM22+5M'}, 'types': ['street_address']}], 'status': 'OK'}"
48,"241 N Figueroa St, Los Angeles, CA 90012, USA",34.0593152,-118.2503782,ROOFTOP,ChIJDfzqD1PGwoAR5xDD_I-Jxc0,premise,90012,"241 N. Figueroa Street, Los Angeles, CA 90012",1,OK,"{'results': [{'access_points': [], 'address_components': [{'long_name': '241', 'short_name': '241', 'types': ['street_number']}, {'long_name': 'North Figueroa Street', 'short_name': 'N Figueroa St', 'types': ['route']}, {'long_name': 'Downtown Los Angeles', 'short_name': 'Downtown Los Angeles', 'types': ['neighborhood', 'political']}, {'long_name': 'Los Angeles', 'short_name': 'Los Angeles', 'types': ['locality', 'political']}, {'long_name': 'Los Angeles County', 'short_name': 'Los Angeles County', 'types': ['administrative_area_level_2', 'political']}, {'long_name': 'California', 'short_name': 'CA', 'types': ['administrative_area_level_1', 'political']}, {'long_name': 'United States', 'short_name': 'US', 'types': ['country', 'political']}, {'long_name': '90012', 'short_name': '90012', 'types': ['postal_code']}, {'long_name': '2601', 'short_name': '2601', 'types': ['postal_code_suffix']}], 'formatted_address': '241 N Figueroa St, Los Angeles, CA 90012, USA', 'geometry': {'bounds': {'northeast': {'lat': 34.05956880000001, 'lng': -118.2501281}, 'southwest': {'lat': 34.0590769, 'lng': -118.2506916}}, 'location': {'lat': 34.0593152, 'lng': -118.2503782}, 'location_type': 'ROOFTOP', 'viewport': {'northeast': {'lat': 34.0606718302915, 'lng': -118.2490608697085}, 'southwest': {'lat': 34.0579738697085, 'lng': -118.2517588302915}}}, 'place_id': 'ChIJDfzqD1PGwoAR5xDD_I-Jxc0', 'types': ['premise']}], 'status': 'OK'}"
49,"1500 E Duarte Rd, Duarte, CA 91010, USA",34.1308315,-117.9722589,ROOFTOP,ChIJr5fKyFTYwoAR-Y4-_Klv7xo,street_address,91010,"1500 Duarte Rd, Duarte, CA 91010",1,OK,"{'results': [{'access_points': [], 'address_components': [{'long_name': '1500', 'short_name': '1500', 'types': ['street_number']}, {'long_name': 'East Duarte Road', 'short_name': 'E Duarte Rd', 'types': ['route']}, {'long_name': 'Duarte', 'short_name': 'Duarte', 'types': ['locality', 'political']}, {'long_name': 'Los Angeles County', 'short_name': 'Los Angeles County', 'types': ['administrative_area_level_2', 'political']}, {'long_name': 'California', 'short_name': 'CA', 'types': ['administrative_area_level_1', 'political']}, {'long_name': 'United States', 'short_name': 'US', 'types': ['country', 'political']}, {'long_name': '91010', 'short_name': '91010', 'types': ['postal_code']}], 'formatted_address': '1500 E Duarte Rd, Duarte, CA 91010, USA', 'geometry': {'location': {'lat': 34.1308315, 'lng': -117.9722589}, 'location_type': 'ROOFTOP', 'viewport': {'northeast': {'lat': 34.1321804802915, 'lng': -117.9709099197085}, 'southwest': {'lat': 34.1294825197085, 'lng': -117.9736078802915}}}, 'place_id': 'ChIJr5fKyFTYwoAR-Y4-_Klv7xo', 'plus_code': {'compound_code': '42JH+83 Duarte, California, United States', 'global_code': '856442JH+83'}, 'types': ['street_address']}], 'status': 'OK'}"
50,"800 W Laurel St, Independence, KS 67301, USA",37.2256055,-95.7162018,ROOFTOP,ChIJJ7DaD0cruIcRILKt06GMNBE,"doctor,establishment,health,point_of_interest",67301,,1,OK,"{'results': [{'access_points': [], 'address_components': [{'long_name': '800', 'short_name': '800', 'types': ['street_number']}, {'long_name': 'West Laurel Street', 'short_name': 'W Laurel St', 'types': ['route']}, {'long_name': 'Independence', 'short_name': 'Independence', 'types': ['locality', 'political']}, {'long_name': 'Montgomery County', 'short_name': 'Montgomery County', 'types': ['administrative_area_level_2', 'political']}, {'long_name': 'Kansas', 'short_name': 'KS', 'types': ['administrative_area_level_1', 'political']}, {'long_name': 'United States', 'short_name': 'US', 'types': ['country', 'political']}, {'long_name': '67301', 'short_name': '67301', 'types': ['postal_code']}], 'formatted_address': '800 W Laurel St, Independence, KS 67301, USA', 'geometry': {'location': {'lat': 37.2256055, 'lng': -95.7162018}, 'location_type': 'ROOFTOP', 'viewport': {'northeast': {'lat': 37.2269544802915, 'lng': -95.7148528197085}, 'southwest': {'lat': 37.2242565197085, 'lng': -95.7175507802915}}}, 'place_id': 'ChIJJ7DaD0cruIcRILKt06GMNBE', 'plus_code': {'compound_code': '67GM+6G Independence, KS, United States', 'global_code': '869667GM+6G'}, 'types': ['doctor', 'establishment', 'health', 'point_of_interest']}], 'status': 'OK'}"
51,"2776 Pacific Ave, Long Beach, CA 90806, USA",33.8069502,-118.1928532,ROOFTOP,ChIJsxdwPu4z3YAR0uiwm46wboI,premise,90806,"2776 Pacific Ave, Long Beach, CA 90806",1,OK,"{'results': [{'access_points': [], 'address_components': [{'long_name': '2776', 'short_name': '2776', 'types': ['street_number']}, {'long_name': 'Pacific Avenue', 'short_name': 'Pacific Ave', 'types': ['route']}, {'long_name': 'Long Beach', 'short_name': 'Long Beach', 'types': ['locality', 'political']}, {'long_name': 'Los Angeles County', 'short_name': 'Los Angeles County', 'types': ['administrative_area_level_2', 'political']}, {'long_name': 'California', 'short_name': 'CA', 'types': ['administrative_area_level_1', 'political']}, {'long_name': 'United States', 'short_name': 'US', 'types': ['country', 'political']}, {'long_name': '90806', 'short_name': '90806', 'types': ['postal_code']}, {'long_name': '2613', 'short_name': '2613', 'types': ['postal_code_suffix']}], 'formatted_address': '2776 Pacific Ave, Long Beach, CA 90806, USA', 'geometry': {'bounds': {'northeast': {'lat': 33.8074745, 'lng': -118.1925782}, 'southwest': {'lat': 33.8063065, 'lng': -118.1935472}}, 'location': {'lat': 33.8069502, 'lng': -118.1928532}, 'location_type': 'ROOFTOP', 'viewport': {'northeast': {'lat': 33.8082394802915, 'lng': -118.1917137197085}, 'southwest': {'lat': 33.8055415197085, 'lng': -118.1944116802915}}}, 'place_id': 'ChIJsxdwPu4z3YAR0uiwm46wboI', 'types': ['premise']}], 'status': 'OK'}"
52,"5426 E Olympic Blvd, Commerce, CA 90022, USA",34.0145179,-118.1554564,ROOFTOP,ChIJybSNDanPwoARb0LQcUAohPU,street_address,90022,"5426 E. Olympic Boulevard, City of Commerce, CA 90040",1,OK,"{'results': [{'access_points': [], 'address_components': [{'long_name': '5426', 'short_name': '5426', 'types': ['street_number']}, {'long_name': 'East Olympic Boulevard', 'short_name': 'E Olympic Blvd', 'types': ['route']}, {'long_name': 'South Montebello', 'short_name': 'South Montebello', 'types': ['neighborhood', 'political']}, {'long_name': 'Commerce', 'short_name': 'Commerce', 'types': ['locality', 'political']}, {'long_name': 'Los Angeles County', 'short_name': 'Los Angeles County', 'types': ['administrative_area_level_2', 'political']}, {'long_name': 'California', 'short_name': 'CA', 'types': ['administrative_area_level_1', 'political']}, {'long_name': 'United States', 'short_name': 'US', 'types': ['country', 'political']}, {'long_name': '90022', 'short_name': '90022', 'types': ['postal_code']}], 'formatted_address': '5426 E Olympic Blvd, Commerce, CA 90022, USA', 'geometry': {'location': {'lat': 34.0145179, 'lng': -118.1554564}, 'location_type': 'ROOFTOP', 'viewport': {'northeast': {'lat': 34.0158668802915, 'lng': -118.1541074197085}, 'southwest': {'lat': 34.01316891970851, 'lng': -118.1568053802915}}}, 'place_id': 'ChIJybSNDanPwoARb0LQcUAohPU', 'plus_code': {'compound_code': '2R7V+RR Commerce, California, United States', 'global_code': '85632R7V+RR'}, 'types': ['street_address']}], 'status': 'OK'}"
53,"250 S Grand Ave, Glendora, CA 91741, USA",34.1327654,-117.8713435,ROOFTOP,ChIJexwJbzEmw4ARp4KoszRWKA8,premise,91741,"250 S Grand Ave, Glendora, CA 91741",1,OK,"{'results': [{'access_points': [], 'address_components': [{'long_name': '250', 'short_name': '250', 'types': ['street_number']}, {'long_name': 'South Grand Avenue', 'short_name': 'S Grand Ave', 'types': ['route']}, {'long_name': 'Glendora', 'short_name': 'Glendora', 'types': ['locality', 'political']}, {'long_name': 'Los Angeles County', 'short_name': 'Los Angeles County', 'types': ['administrative_area_level_2', 'political']}, {'long_name': 'California', 'short_name': 'CA', 'types': ['administrative_area_level_1', 'political']}, {'long_name': 'United States', 'short_name': 'US', 'types': ['country', 'political']}, {'long_name': '91741', 'short_name': '91741', 'types': ['postal_code']}, {'long_name': '4218', 'short_name': '4218', 'types': ['postal_code_suffix']}], 'formatted_address': '250 S Grand Ave, Glendora, CA 91741, USA', 'geometry': {'bounds': {'northeast': {'lat': 34.1332344, 'lng': -117.8707225}, 'southwest': {'lat': 34.1325349, 'lng': -117.8719163}}, 'location': {'lat': 34.1327654, 'lng': -117.8713435}, 'location_type': 'ROOFTOP', 'viewport': {'northeast': {'lat': 34.1342336302915, 'lng': -117.8699704197085}, 'southwest': {'lat': 34.1315356697085, 'lng': -117.8726683802915}}}, 'place_id': 'ChIJexwJbzEmw4ARp4KoszRWKA8', 'types': ['premise']}], 'status': 'OK'}"
54,"210 W San Bernardino Rd, Covina, CA 91723, USA",34.0878738,-117.8935005,ROOFTOP,ChIJpySHgEMow4ARw7Cr-EP0SrM,premise,91723,"210 W San Berrdino Rd, Covina, CA 91723",1,OK,"{'results': [{'access_points': [], 'address_components': [{'long_name': '210', 'short_name': '210', 'types': ['street_number']}, {'long_name': 'West San Bernardino Road', 'short_name': 'W San Bernardino Rd', 'types': ['route']}, {'long_name': 'Covina', 'short_name': 'Covina', 'types': ['locality', 'political']}, {'long_name': 'Los Angeles County', 'short_name': 'Los Angeles County', 'types': ['administrative_area_level_2', 'political']}, {'long_name': 'California', 'short_name': 'CA', 'types': ['administrative_area_level_1', 'political']}, {'long_name': 'United States', 'short_name': 'US', 'types': ['country', 'political']}, {'long_name': '91723', 'short_name': '91723', 'types': ['postal_code']}, {'long_name': '1515', 'short_name': '1515', 'types': ['postal_code_suffix']}], 'formatted_address': '210 W San Bernardino Rd, Covina, CA 91723, USA', 'geometry': {'bounds': {'northeast': {'lat': 34.088573, 'lng': -117.8924887}, 'southwest': {'lat': 34.0875884, 'lng': -117.8943609}}, 'location': {'lat': 34.0878738, 'lng': -117.8935005}, 'location_type': 'ROOFTOP', 'viewport': {'northeast': {'lat': 34.0894296802915, 'lng': -117.8920758197085}, 'southwest': {'lat': 34.0867317197085, 'lng': -117.8947737802915}}}, 'place_id': 'ChIJpySHgEMow4ARw7Cr-EP0SrM', 'types': ['premise']}], 'status': 'OK'}"
55,"10250 Santa Monica Blvd, Los Angeles, CA 90067, USA",34.0590031,-118.418866,ROOFTOP,ChIJPe5-V4y7woARiKJkRsYE_Dg,premise,90067,"10250 Santa Monica Blvd, Century City, CA 90067",1,OK,"{'results': [{'access_points': [], 'address_components': [{'long_name': '10250', 'short_name': '10250', 'types': ['street_number']}, {'long_name': 'Santa Monica Boulevard', 'short_name': 'Santa Monica Blvd', 'types': ['route']}, {'long_name': 'Century City', 'short_name': 'Century City', 'types': ['neighborhood', 'political']}, {'long_name': 'Los Angeles', 'short_name': 'Los Angeles', 'types': ['locality', 'political']}, {'long_name': 'Los Angeles County', 'short_name': 'Los Angeles County', 'types': ['administrative_area_level_2', 'political']}, {'long_name': 'California', 'short_name': 'CA', 'types': ['administrative_area_level_1', 'political']}, {'long_name': 'United States', 'short_name': 'US', 'types': ['country', 'political']}, {'long_name': '90067', 'short_name': '90067', 'types': ['postal_code']}], 'formatted_address': '10250 Santa Monica Blvd, Los Angeles, CA 90067, USA', 'geometry': {'bounds': {'northeast': {'lat': 34.0607976, 'lng': -118.4170434}, 'southwest': {'lat': 34.0567157, 'lng': -118.4209866}}, 'location': {'lat': 34.0590031, 'lng': -118.418866}, 'location_type': 'ROOFTOP', 'viewport': {'northeast': {'lat': 34.0607976, 'lng': -118.4170434}, 'southwest': {'lat': 34.0567157, 'lng': -118.4209866}}}, 'place_id': 'ChIJPe5-V4y7woARiKJkRsYE_Dg', 'types': ['premise']}], 'status': 'OK'}"
56,"759 Americana Way, Glendale, CA 91210, USA",34.1440337,-118.2554551,ROOFTOP,ChIJx8dwVv7AwoAR4QMwpckV9gs,street_address,91210,"759 America Way, Glendale, CA 91210",1,OK,"{'results': [{'access_points': [], 'address_components': [{'long_name': '759', 'short_name': '759', 'types': ['street_number']}, {'long_name': 'Americana Way', 'short_name': 'Americana Way', 'types': ['route']}, {'long_name': 'Downtown', 'short_name': 'Downtown', 'types': ['neighborhood', 'political']}, {'long_name': 'Glendale', 'short_name': 'Glendale', 'types': ['locality', 'political']}, {'long_name': 'Los Angeles County', 'short_name': 'Los Angeles County', 'types': ['administrative_area_level_2', 'political']}, {'long_name': 'California', 'short_name': 'CA', 'types': ['administrative_area_level_1', 'political']}, {'long_name': 'United States', 'short_name': 'US', 'types': ['country', 'political']}, {'long_name': '91210', 'short_name': '91210', 'types': ['postal_code']}, {'long_name': '1507', 'short_name': '1507', 'types': ['postal_code_suffix']}], 'formatted_address': '759 Americana Way, Glendale, CA 91210, USA', 'geometry': {'location': {'lat': 34.1440337, 'lng': -118.2554551}, 'location_type': 'ROOFTOP', 'viewport': {'northeast': {'lat': 34.1453826802915, 'lng': -118.2541061197085}, 'southwest': {'lat': 34.14268471970851, 'lng': -118.2568040802915}}}, 'partial_match': True, 'place_id': 'ChIJx8dwVv7AwoAR4QMwpckV9gs', 'plus_code': {'compound_code': '4PVV+JR Glendale, California, United States', 'global_code': '85634PVV+JR'}, 'types': ['street_address']}], 'status': 'OK'}"
57,"1149 W 190th St, Gardena, CA 90248, USA",33.8588812,-118.2966034,ROOFTOP,ChIJH0Nf9ajKwoAREkEpwVSSHws,premise,90248,"1149 West 190th Street, Gardena, CA 90248",1,OK,"{'results': [{'access_points': [], 'address_components': [{'long_name': '1149', 'short_name': '1149', 'types': ['street_number']}, {'long_name': 'West 190th Street', 'short_name': 'W 190th St', 'types': ['route']}, {'long_name': 'Harbor', 'short_name': 'Harbor', 'types': ['neighborhood', 'political']}, {'long_name': 'Gardena', 'short_name': 'Gardena', 'types': ['locality', 'political']}, {'long_name': 'Los Angeles County', 'short_name': 'Los Angeles County', 'types': ['administrative_area_level_2', 'political']}, {'long_name': 'California', 'short_name': 'CA', 'types': ['administrative_area_level_1', 'political']}, {'long_name': 'United States', 'short_name': 'US', 'types': ['country', 'political']}, {'long_name': '90248', 'short_name': '90248', 'types': ['postal_code']}], 'formatted_address': '1149 W 190th St, Gardena, CA 90248, USA', 'geometry': {'bounds': {'northeast': {'lat': 33.8590828, 'lng': -118.2961909}, 'southwest': {'lat': 33.858639, 'lng': -118.2968643}}, 'location': {'lat': 33.8588812, 'lng': -118.2966034}, 'location_type': 'ROOFTOP', 'viewport': {'northeast': {'lat': 33.86020988029149, 'lng': -118.2951786197085}, 'southwest': {'lat': 33.85751191970849, 'lng': -118.2978765802915}}}, 'place_id': 'ChIJH0Nf9ajKwoAREkEpwVSSHws', 'types': ['premise']}], 'status': 'OK'}"
58,"525 N Garfield Ave, Monterey Park, CA 91754, USA",34.0678947,-118.1238043,ROOFTOP,ChIJ-Xx580_FwoARA5k8By3gtAY,street_address,91754,"525 N Garfield Ave, Monterey Park, CA 91754",1,OK,"{'results': [{'access_points': [], 'address_components': [{'long_name': '525', 'short_name': '525', 'types': ['street_number']}, {'long_name': 'North Garfield Avenue', 'short_name': 'N Garfield Ave', 'types': ['route']}, {'long_name': 'Monterey Park', 'short_name': 'Monterey Park', 'types': ['locality', 'political']}, {'long_name': 'Los Angeles County', 'short_name': 'Los Angeles County', 'types': ['administrative_area_level_2', 'political']}, {'long_name': 'California', 'short_name': 'CA', 'types': ['administrative_area_level_1', 'political']}, {'long_name': 'United States', 'short_name': 'US', 'types': ['country', 'political']}, {'long_name': '91754', 'short_name': '91754', 'types': ['postal_code']}, {'long_name': '1202', 'short_name': '1202', 'types': ['postal_code_suffix']}], 'formatted_address': '525 N Garfield Ave, Monterey Park, CA 91754, USA', 'geometry': {'location': {'lat': 34.0678947, 'lng': -118.1238043}, 'location_type': 'ROOFTOP', 'viewport': {'northeast': {'lat': 34.06924368029149, 'lng': -118.1224553197085}, 'southwest': {'lat': 34.0665457197085, 'lng': -118.1251532802915}}}, 'place_id': 'ChIJ-Xx580_FwoARA5k8By3gtAY', 'plus_code': {'compound_code': '3V9G+5F Monterey Park, California, United States', 'global_code': '85633V9G+5F'}, 'types': ['street_address']}], 'status': 'OK'}"
59,"1701 Santa Anita Ave, South El Monte, CA 91733, USA",34.0480516,-118.0434003,ROOFTOP,ChIJSQzhSejQwoAR3pZlHBipYF0,premise,91733,"1701 Santa Anita Ave, South El Monte, CA 91733",1,OK,"{'results': [{'access_points': [], 'address_components': [{'long_name': '1701', 'short_name': '1701', 'types': ['street_number']}, {'long_name': 'Santa Anita Avenue', 'short_name': 'Santa Anita Ave', 'types': ['route']}, {'long_name': 'South El Monte', 'short_name': 'South El Monte', 'types': ['locality', 'political']}, {'long_name': 'Los Angeles County', 'short_name': 'Los Angeles County', 'types': ['administrative_area_level_2', 'political']}, {'long_name': 'California', 'short_name': 'CA', 'types': ['administrative_area_level_1', 'political']}, {'long_name': 'United States', 'short_name': 'US', 'types': ['country', 'political']}, {'long_name': '91733', 'short_name': '91733', 'types': ['postal_code']}, {'long_name': '3411', 'short_name': '3411', 'types': ['postal_code_suffix']}], 'formatted_address': '1701 Santa Anita Ave, South El Monte, CA 91733, USA', 'geometry': {'bounds': {'northeast': {'lat': 34.0485626, 'lng': -118.0428119}, 'southwest': {'lat': 34.0477417, 'lng': -118.0439321}}, 'location': {'lat': 34.0480516, 'lng': -118.0434003}, 'location_type': 'ROOFTOP', 'viewport': {'northeast': {'lat': 34.0495011302915, 'lng': -118.0420230197085}, 'southwest': {'lat': 34.0468031697085, 'lng': -118.0447209802915}}}, 'place_id': 'ChIJSQzhSejQwoAR3pZlHBipYF0', 'types': ['premise']}], 'status': 'OK'}"
60,"1000 W Carson St, Torrance, CA 90502, USA",33.8308433,-118.2924099,ROOFTOP,ChIJt72aHl413YAR_m046fd73xQ,street_address,90502,"1000 W Carson St, Torrance, CA 90502",1,OK,"{'results': [{'access_points': [], 'address_components': [{'long_name': '1000', 'short_name': '1000', 'types': ['street_number']}, {'long_name': 'West Carson Street', 'short_name': 'W Carson St', 'types': ['route']}, {'long_name': 'Torrance', 'short_name': 'Torrance', 'types': ['locality', 'political']}, {'long_name': 'Los Angeles County', 'short_name': 'Los Angeles County', 'types': ['administrative_area_level_2', 'political']}, {'long_name': 'California', 'short_name': 'CA', 'types': ['administrative_area_level_1', 'political']}, {'long_name': 'United States', 'short_name': 'US', 'types': ['country', 'political']}, {'long_name': '90502', 'short_name': '90502', 'types': ['postal_code']}, {'long_name': '2004', 'short_name': '2004', 'types': ['postal_code_suffix']}], 'formatted_address': '1000 W Carson St, Torrance, CA 90502, USA', 'geometry': {'location': {'lat': 33.8308433, 'lng': -118.2924099}, 'location_type': 'ROOFTOP', 'viewport': {'northeast': {'lat': 33.8321922802915, 'lng': -118.2910609197085}, 'southwest': {'lat': 33.8294943197085, 'lng': -118.2937588802915}}}, 'place_id': 'ChIJt72aHl413YAR_m046fd73xQ', 'plus_code': {'compound_code': 'RPJ5+82 Torrance, California, United States', 'global_code': '8553RPJ5+82'}, 'types': ['street_address']}], 'status': 'OK'}"
61,"23845 McBean Pkwy, Santa Clarita, CA 91355, USA",34.39787,-118.5539446,ROOFTOP,ChIJeThXNuCGwoARy2J--nVtd9s,premise,91355,"23845 McBean Pkwy, Valencia, CA 91355",1,OK,"{'results': [{'access_points': [], 'address_components': [{'long_name': '23845', 'short_name': '23845', 'types': ['street_number']}, {'long_name': 'McBean Parkway', 'short_name': 'McBean Pkwy', 'types': ['route']}, {'long_name': 'Santa Clarita', 'short_name': 'Santa Clarita', 'types': ['locality', 'political']}, {'long_name': 'Los Angeles County', 'short_name': 'Los Angeles County', 'types': ['administrative_area_level_2', 'political']}, {'long_name': 'California', 'short_name': 'CA', 'types': ['administrative_area_level_1', 'political']}, {'long_name': 'United States', 'short_name': 'US', 'types': ['country', 'political']}, {'long_name': '91355', 'short_name': '91355', 'types': ['postal_code']}, {'long_name': '2001', 'short_name': '2001', 'types': ['postal_code_suffix']}], 'formatted_address': '23845 McBean Pkwy, Santa Clarita, CA 91355, USA', 'geometry': {'bounds': {'northeast': {'lat': 34.3984339, 'lng': -118.552998}, 'southwest': {'lat': 34.3972137, 'lng': -118.5543638}}, 'location': {'lat': 34.39787, 'lng': -118.5539446}, 'location_type': 'ROOFTOP', 'viewport': {'northeast': {'lat': 34.39917278029149, 'lng': -118.5523319197085}, 'southwest': {'lat': 34.3964748197085, 'lng': -118.5550298802915}}}, 'place_id': 'ChIJeThXNuCGwoARy2J--nVtd9s', 'types': ['premise']}], 'status': 'OK'}"
62,"5205 Melrose Ave, Los Angeles, CA 90038, USA",34.0837698,-118.3139575,ROOFTOP,ChIJMdmVqrG4woAR9VuJHNLQpWg,premise,90038,"5205 Melrose Avenue, Los Angeles, CA 90038",1,OK,"{'results': [{'access_points': [], 'address_components': [{'long_name': '5205', 'short_name': '5205', 'types': ['street_number']}, {'long_name': 'Melrose Avenue', 'short_name': 'Melrose Ave', 'types': ['route']}, {'long_name': 'Central LA', 'short_name': 'Central LA', 'types': ['neighborhood', 'political']}, {'long_name': 'Los Angeles', 'short_name': 'Los Angeles', 'types': ['locality', 'political']}, {'long_name': 'Los Angeles County', 'short_name': 'Los Angeles County', 'types': ['administrative_area_level_2', 'political']}, {'long_name': 'California', 'short_name': 'CA', 'types': ['administrative_area_level_1', 'political']}, {'long_name': 'United States', 'short_name': 'US', 'types': ['country', 'political']}, {'long_name': '90038', 'short_name': '90038', 'types': ['postal_code']}, {'long_name': '3144', 'short_name': '3144', 'types': ['postal_code_suffix']}], 'formatted_address': '5205 Melrose Ave, Los Angeles, CA 90038, USA', 'geometry': {'bounds': {'northeast': {'lat': 34.0839213, 'lng': -118.3137772}, 'southwest': {'lat': 34.0836402, 'lng': -118.3143049}}, 'location': {'lat': 34.0837698, 'lng': -118.3139575}, 'location_type': 'ROOFTOP', 'viewport': {'northeast': {'lat': 34.0851297302915, 'lng': -118.3126920697085}, 'southwest': {'lat': 34.0824317697085, 'lng': -118.3153900302915}}}, 'place_id': 'ChIJMdmVqrG4woAR9VuJHNLQpWg', 'types': ['premise']}], 'status': 'OK'}"
63,"1500 San Pablo St, Los Angeles, CA 90033, USA",34.06199429999999,-118.2012607,ROOFTOP,ChIJJz9hwN7FwoARtpOR9LA59rs,street_address,90033,"1500 San Pablo St, Los Angeles, CA 90033",1,OK,"{'results': [{'access_points': [], 'address_components': [{'long_name': '1500', 'short_name': '1500', 'types': ['street_number']}, {'long_name': 'San Pablo Street', 'short_name': 'San Pablo St', 'types': ['route']}, {'long_name': 'Lincoln Heights', 'short_name': 'Lincoln Heights', 'types': ['neighborhood', 'political']}, {'long_name': 'Los Angeles', 'short_name': 'Los Angeles', 'types': ['locality', 'political']}, {'long_name': 'Los Angeles County', 'short_name': 'Los Angeles County', 'types': ['administrative_area_level_2', 'political']}, {'long_name': 'California', 'short_name': 'CA', 'types': ['administrative_area_level_1', 'political']}, {'long_name': 'United States', 'short_name': 'US', 'types': ['country', 'political']}, {'long_name': '90033', 'short_name': '90033', 'types': ['postal_code']}, {'long_name': '5313', 'short_name': '5313', 'types': ['postal_code_suffix']}], 'formatted_address': '1500 San Pablo St, Los Angeles, CA 90033, USA', 'geometry': {'location': {'lat': 34.06199429999999, 'lng': -118.2012607}, 'location_type': 'ROOFTOP', 'viewport': {'northeast': {'lat': 34.0633432802915, 'lng': -118.1999117197085}, 'southwest': {'lat': 34.0606453197085, 'lng': -118.2026096802915}}}, 'place_id': 'ChIJJz9hwN7FwoARtpOR9LA59rs', 'plus_code': {'compound_code': '3Q6X+QF Los Angeles, California, United States', 'global_code': '85633Q6X+QF'}, 'types': ['street_address']}], 'status': 'OK'}"
64,"1711 W Temple St, Los Angeles, CA 90026, USA",34.0695317,-118.2634888,ROOFTOP,ChIJwQoXkgXHwoARlGrNywMWBQs,premise,90026,"1711 W Temple St, Los Angeles, CA 90026",1,OK,"{'results': [{'access_points': [], 'address_components': [{'long_name': '1711', 'short_name': '1711', 'types': ['street_number']}, {'long_name': 'West Temple Street', 'short_name': 'W Temple St', 'types': ['route']}, {'long_name': 'Westlake', 'short_name': 'Westlake', 'types': ['neighborhood', 'political']}, {'long_name': 'Los Angeles', 'short_name': 'Los Angeles', 'types': ['locality', 'political']}, {'long_name': 'Los Angeles County', 'short_name': 'Los Angeles County', 'types': ['administrative_area_level_2', 'political']}, {'long_name': 'California', 'short_name': 'CA', 'types': ['administrative_area_level_1', 'political']}, {'long_name': 'United States', 'short_name': 'US', 'types': ['country', 'political']}, {'long_name': '90026', 'short_name': '90026', 'types': ['postal_code']}, {'long_name': '5421', 'short_name': '5421', 'types': ['postal_code_suffix']}], 'formatted_address': '1711 W Temple St, Los Angeles, CA 90026, USA', 'geometry': {'bounds': {'northeast': {'lat': 34.0700541, 'lng': -118.2630318}, 'southwest': {'lat': 34.0693392, 'lng': -118.2639712}}, 'location': {'lat': 34.0695317, 'lng': -118.2634888}, 'location_type': 'ROOFTOP', 'viewport': {'northeast': {'lat': 34.0710456302915, 'lng': -118.2621525197085}, 'southwest': {'lat': 34.0683476697085, 'lng': -118.2648504802915}}}, 'place_id': 'ChIJwQoXkgXHwoARlGrNywMWBQs', 'types': ['premise']}], 'status': 'OK'}"
65,"340 E Avenue I #108, Lancaster, CA 93535, USA",34.7033603,-118.124246,ROOFTOP,Ei0zNDAgRSBBdmVudWUgSSAjMTA4LCBMYW5jYXN0ZXIsIENBIDkzNTM1LCBVU0EiHxodChYKFAoSCWHDxtaxWsKAEUcxFBxtHN9YEgMxMDg,subpremise,93535,"340 E Avenue I Suite 108, Lancaster, CA 93535",1,OK,"{'results': [{'access_points': [], 'address_components': [{'long_name': '108', 'short_name': '108', 'types': ['subpremise']}, {'long_name': '340', 'short_name': '340', 'types': ['street_number']}, {'long_name': 'East Avenue I', 'short_name': 'E Avenue I', 'types': ['route']}, {'long_name': 'Lancaster', 'short_name': 'Lancaster', 'types': ['locality', 'political']}, {'long_name': 'Los Angeles County', 'short_name': 'Los Angeles County', 'types': ['administrative_area_level_2', 'political']}, {'long_name': 'California', 'short_name': 'CA', 'types': ['administrative_area_level_1', 'political']}, {'long_name': 'United States', 'short_name': 'US', 'types': ['country', 'political']}, {'long_name': '93535', 'short_name': '93535', 'types': ['postal_code']}], 'formatted_address': '340 E Avenue I #108, Lancaster, CA 93535, USA', 'geometry': {'bounds': {'northeast': {'lat': 34.7037399, 'lng': -118.1241018}, 'southwest': {'lat': 34.7029927, 'lng': -118.1244445}}, 'location': {'lat': 34.7033603, 'lng': -118.124246}, 'location_type': 'ROOFTOP', 'viewport': {'northeast': {'lat': 34.7047152802915, 'lng': -118.1229241697085}, 'southwest': {'lat': 34.7020173197085, 'lng': -118.1256221302915}}},