{
"type": "FeatureCollection",
"features": [
{ "type": "Feature", "properties": { "sitename": "OPTUMServe 1", "fulladdr": "2357 Fair St, Chico, CA 95928", "agency": "OPTUMServe", "phone": "(888) 634-1123", "globalid": "0a3c99f8-4e79-41ee-a307-94d2b22ca10f", "site_type": "state", "alert": "accessible" }, "geometry": { "type": "Point", "coordinates": [ -121.813060499728493, 39.718295999819979 ] } },
{ "type": "Feature", "properties": { "sitename": "OPTUMServe 1", "fulladdr": "1 College Drive, South Lake Tahoe, CA 96150", "agency": "OPTUMServe", "phone": "(888) 634-1123", "globalid": "fd62baf9-d122-43e2-8208-5512d7ee0a11", "site_type": "state", "alert": "accessible" }, "geometry": { "type": "Point", "coordinates": [ -119.971253229151287, 38.926729710808026 ] } },
{ "type": "Feature", "properties": { "sitename": "OPTUMServe 1", "fulladdr": "1101 E. University Ave, Fresno, CA 93741", "agency": "OPTUMServe", "phone": "(888) 634-1123", "globalid": "5cc25784-f3b2-4cf6-b65b-e89bae3382a0", "site_type": "state", "alert": "accessible" }, "geometry": { "type": "Point", "coordinates": [ -119.797101471342771, 36.76583881058891 ] } },
{ "type": "Feature", "properties": { "sitename": "OPTUMServe 1", "fulladdr": "3750 Harris St, Eureka, CA 95503", "agency": "OPTUMServe", "phone": "(888) 634-1123", "globalid": "a2c39f85-732b-4ff8-ae21-7414cf4dff97", "site_type": "state", "alert": "accessible" }, "geometry": { "type": "Point", "coordinates": [ -124.126937953393238, 40.780545550345927 ] } },
{ "type": "Feature", "properties": { "sitename": "OPTUMServe 1", "fulladdr": "1142 South P Street, Bakersfield, CA 93307", "agency": "OPTUMServe", "phone": "(888) 634-1123", "globalid": "cd146afc-20d7-41a9-80cc-1c40080274f5", "site_type": "state", "alert": "accessible" }, "geometry": { "type": "Point", "coordinates": [ -119.011829860081662, 35.344359838437967 ] } },
{ "type": "Feature", "properties": { "sitename": "OPTUMServe 2", "fulladdr": "15580 O Street, Mojave, CA 93501", "agency": "OPTUMServe", "phone": "(888) 634-1123", "globalid": "19f29ad0-ec6c-42be-bb6f-9e3ef22dfda2", "site_type": "state", "alert": "accessible" }, "geometry": { "type": "Point", "coordinates": [ -118.167213195650419, 35.049205660942953 ] } },
{ "type": "Feature", "properties": { "sitename": "OPTUMServe 1", "fulladdr": "1520 Kings County Dr., Hanford, CA 93230", "agency": "OPTUMServe", "phone": "(888) 634-1123", "globalid": "e60d0af1-4305-4e47-a814-101241c921ec", "site_type": "state", "alert": "accessible" }, "geometry": { "type": "Point", "coordinates": [ -119.668673083841867, 36.331287052679777 ] } },
{ "type": "Feature", "properties": { "sitename": "OPTUMServe 1", "fulladdr": "11555 Old Oregon Trail, Redding, CA 96003", "agency": "OPTUMServe", "phone": "(888) 634-1123", "globalid": "151d4f28-4774-4c90-a6c9-acd82921a5d3", "site_type": "state", "alert": "accessible" }, "geometry": { "type": "Point", "coordinates": [ -122.324223673351597, 40.62963598144907 ] } },
{ "type": "Feature", "properties": { "sitename": "OPTUMServe 1", "fulladdr": "249 S. Alta Ave, Dinuba, CA 93618", "agency": "OPTUMServe", "phone": "(888) 634-1123", "globalid": "305819e9-2eb6-4cb9-b704-0a940690320d", "site_type": "state", "alert": "accessible" }, "geometry": { "type": "Point", "coordinates": [ -119.395095671809372, 36.544653000282509 ] } },
{ "type": "Feature", "properties": { "sitename": "San Mateo Event Center", "fulladdr": "1346 Saratoga Dr, San Mateo, CA 94403", "agency": "Verily", "phone": null, "globalid": "bc7ba197-e931-41cd-a27b-044b28ef2e8c", "site_type": "state", "alert": "accessible" }, "geometry": { "type": "Point", "coordinates": [ -122.293735490412431, 37.544986559363927 ] } },
{ "type": "Feature", "properties": { "sitename": "Santa Clara County Fairgrounds", "fulladdr": "344 Tully Rd, San Jose, CA 95111", "agency": "Verily", "phone": null, "globalid": "d1b8b719-fe3f-4045-baae-86bfeb6633af", "site_type": "state", "alert": "accessible" }, "geometry": { "type": "Point", "coordinates": [ -121.85356002203018, 37.303886375367853 ] } },
{ "type": "Feature", "properties": { "sitename": "Diamond Stadium", "fulladdr": "500 Diamond Dr, Lake Elsinore, CA 92530", "agency": "Verily", "phone": null, "globalid": "a26e402a-5948-4845-89fe-df22103142f0", "site_type": "state", "alert": "accessible" }, "geometry": { "type": "Point", "coordinates": [ -117.299131397832483, 33.661410700793468 ] } },
{ "type": "Feature", "properties": { "sitename": "Cal Expo", "fulladdr": "1600 Exposition Blvd, Sacramento, CA 92530", "agency": "Verily", "phone": null, "globalid": "103b9923-43b3-4393-a715-47fb01b6b647", "site_type": "state", "alert": "accessible" }, "geometry": { "type": "Point", "coordinates": [ -121.429399873043479, 38.595005542456491 ] } },
{ "type": "Feature", "properties": { "sitename": "San Joaquin General Hospital", "fulladdr": "500 W Hospital Rd, French Camp, CA 95231", "agency": "Verily", "phone": null, "globalid": "70ca5a04-3e71-478a-9815-7f4a969b5123", "site_type": "state", "alert": "accessible" }, "geometry": { "type": "Point", "coordinates": [ -121.284109088970169, 37.886709714595639 ] } },
{ "type": "Feature", "properties": { "sitename": "Napa", "fulladdr": "575 3rd St, Napa, CA 94559", "agency": "Verily", "phone": null, "globalid": "5b446f87-99d5-4c39-bab8-ebead516e11b", "site_type": "state", "alert": "accessible" }, "geometry": { "type": "Point", "coordinates": [ -122.278776477501637, 38.299022757210807 ] } },
{ "type": "Feature", "properties": { "sitename": "Salida Public Library", "fulladdr": "4835 Sisk Rd, Salida, CA 95368", "agency": "Verily", "phone": null, "globalid": "4c69abd3-3e6c-4061-abc8-0d2fc3488bea", "site_type": "state", "alert": "accessible" }, "geometry": { "type": "Point", "coordinates": [ -121.077469135480627, 37.708571388405815 ] } },
{ "type": "Feature", "properties": { "sitename": "OPTUMServe 1", "fulladdr": "5171 Silva Rd, Mariposa, CA 95338", "agency": "OPTUMServe", "phone": "(888) 634-1123", "globalid": "f1272408-75a9-4ba3-8397-d8ccd45f88d9", "site_type": "state", "alert": "accessible" }, "geometry": { "type": "Point", "coordinates": [ -119.902000500405748, 37.472660999945326 ] } },
{ "type": "Feature", "properties": { "sitename": "OPTUMServe 1", "fulladdr": "255 South Auburn Street, Grass Valley, CA 95945", "agency": "OPTUMServe", "phone": "(888) 634-1123", "globalid": "4ff1ec79-bbab-493b-b06d-2089b1c2e1cc", "site_type": "state", "alert": "accessible" }, "geometry": { "type": "Point", "coordinates": [ -121.061573745667118, 39.214311254212632 ] } },
{ "type": "Feature", "properties": { "sitename": "OPTUMServe 1", "fulladdr": "700 Event Center Drive, Roseville, CA 95678", "agency": "OPTUMServe", "phone": "(888) 634-1123", "globalid": "bd804079-da30-4642-8217-3aadfff18598", "site_type": "state", "alert": "accessible" }, "geometry": { "type": "Point", "coordinates": [ -121.295481602363623, 38.756440473246485 ] } },
{ "type": "Feature", "properties": { "sitename": "OPTUMServe 1", "fulladdr": "171 W Bort St, Long Beach, CA 90805", "agency": "OPTUMServe", "phone": "(888) 634-1123", "globalid": "bb00bbc6-4e4c-4e41-ac91-58bf024c1cea", "site_type": "state", "alert": "accessible" }, "geometry": { "type": "Point", "coordinates": [ -118.205891999957885, 33.870788999648944 ] } },
{ "type": "Feature", "properties": { "sitename": "OPTUMServe 2", "fulladdr": "8318 North Lake Blvd, Kings Beach, CA 96143", "agency": "OPTUMServe", "phone": "(888) 634-1123", "globalid": "9e8aabbd-98b2-4ea4-b3c4-fa683464fb9a", "site_type": "state", "alert": "accessible" }, "geometry": { "type": "Point", "coordinates": [ -120.026551500425555, 39.237264000030791 ] } },
{ "type": "Feature", "properties": { "sitename": "OPTUMServe 1", "fulladdr": "937 S Thornburg St, Santa Maria, CA 93458", "agency": "OPTUMServe", "phone": "(888) 634-1123", "globalid": "5678a809-ffd9-4c3e-adde-c9f542fd1394", "site_type": "state", "alert": "accessible" }, "geometry": { "type": "Point", "coordinates": [ -120.442549500146924, 34.940457000361583 ] } },
{ "type": "Feature", "properties": { "sitename": "OPTUMServe 1", "fulladdr": "1425 Veterans Memorial Circle, Yuba City, CA 95993", "agency": "OPTUMServe", "phone": "(888) 634-1123", "globalid": "12900e1e-8e6b-419e-8a92-94a1d6421be5", "site_type": "state", "alert": "accessible" }, "geometry": { "type": "Point", "coordinates": [ -121.637748247031936, 39.144797835090692 ] } },
{ "type": "Feature", "properties": { "sitename": "OPTUMServe 2", "fulladdr": "1900 W Olive Ave, Porterville, CA 93257", "agency": "OPTUMServe", "phone": "(888) 634-1123", "globalid": "8875d069-bab6-43c5-a7cd-b221702ea477", "site_type": "state", "alert": "accessible" }, "geometry": { "type": "Point", "coordinates": [ -119.059541999817043, 36.066185999843739 ] } },
{ "type": "Feature", "properties": { "sitename": "OPTUMServe 1", "fulladdr": "800 Hobson Way, Oxnard, CA 93030", "agency": "OPTUMServe", "phone": "(888) 634-1123", "globalid": "6e3a82aa-8b51-4c9c-a762-f1ef5c7964e8", "site_type": "state", "alert": "accessible" }, "geometry": { "type": "Point", "coordinates": [ -119.189130998088572, 34.193717823215337 ] } },
{ "type": "Feature", "properties": { "sitename": "OPTUMServe 2", "fulladdr": "3661 Ponderosa Rd, Shingle Springs, CA 95682", "agency": "OPTUMServe", "phone": "(888) 634-1123", "globalid": "34bbcf10-0180-4745-95c1-4b76cf5bef71", "site_type": "state", "alert": "accessible" }, "geometry": { "type": "Point", "coordinates": [ -120.943148268636477, 38.67303681858651 ] } },
{ "type": "Feature", "properties": { "sitename": "OPTUMServe 2", "fulladdr": "1595 North Lake Ave, Pasadena, CA 91104", "agency": "OPTUMServe", "phone": "(888) 634-1123", "globalid": "716623e4-ac99-4616-9cf4-910e04b05182", "site_type": "state", "alert": "accessible" }, "geometry": { "type": "Point", "coordinates": [ -118.132461101722981, 34.173342088125899 ] } },
{ "type": "Feature", "properties": { "sitename": "OPTUMServe 1", "fulladdr": "1177 Francisco Blvd E, San Rafael, CA 94901", "agency": "OPTUMServe", "phone": "(888) 634-1123", "globalid": "b9a7efa8-fc5c-49af-97cd-08658a5dec68", "site_type": "state", "alert": "accessible" }, "geometry": { "type": "Point", "coordinates": [ -122.501392721282514, 37.956626090256954 ] } },
{ "type": "Feature", "properties": { "sitename": "OPTUMServe 1", "fulladdr": "201 W Locust St, Lodi, CA 95240", "agency": "OPTUMServe", "phone": "(888) 634-1123", "globalid": "c6435467-8fda-419e-aa73-c265f037a594", "site_type": "state", "alert": "accessible" }, "geometry": { "type": "Point", "coordinates": [ -121.275513675955025, 38.136764588826317 ] } },
{ "type": "Feature", "properties": { "sitename": "OPTUMServe 1", "fulladdr": "240 Scott St, Paso Robles, CA 93446", "agency": "OPTUMServe", "phone": "(888) 634-1123", "globalid": "9a87f630-4edb-40a9-a5d0-fd5ac72e21b0", "site_type": "state", "alert": "accessible" }, "geometry": { "type": "Point", "coordinates": [ -120.655529361364827, 35.608437450919808 ] } },
{ "type": "Feature", "properties": { "sitename": "OPTUMServe 2", "fulladdr": "933 Ramona Ave, Grover Beach, CA 93433", "agency": "OPTUMServe", "phone": "(888) 634-1123", "globalid": "f344e352-b9c1-46df-802a-fe99def05603", "site_type": "state", "alert": "accessible" }, "geometry": { "type": "Point", "coordinates": [ -120.619929750984284, 35.122589769851182 ] } },
{ "type": "Feature", "properties": { "sitename": "OPTUMServe 1", "fulladdr": "777 Williams Rd, Salinas, CA 93905", "agency": "OPTUMServe", "phone": "(888) 634-1123", "globalid": "2b6acfe5-49e5-4cc9-9d35-77e3cd5f0e40", "site_type": "state", "alert": "accessible" }, "geometry": { "type": "Point", "coordinates": [ -121.600486510830677, 36.68343374313698 ] } },
{ "type": "Feature", "properties": { "sitename": "OPTUMServe 1", "fulladdr": "1215 E Chapman Ave, Orange, CA 92866", "agency": "OPTUMServe", "phone": "(888) 634-1123", "globalid": "34e16c38-1fd3-43bd-bcf2-32a20456537e", "site_type": "state", "alert": "accessible" }, "geometry": { "type": "Point", "coordinates": [ -117.840626999999245, 33.78807000021807 ] } },
{ "type": "Feature", "properties": { "sitename": "OPTUMServe 2", "fulladdr": "315 El Camino Real, Greenfield, CA 93927", "agency": "OPTUMServe", "phone": "(888) 634-1123", "globalid": "5a44d182-fa0b-4b63-9e47-166b58b49aca", "site_type": "state", "alert": "accessible" }, "geometry": { "type": "Point", "coordinates": [ -121.245169172661463, 36.322794184458552 ] } },
{ "type": "Feature", "properties": { "sitename": "OPTUMServe 2", "fulladdr": "8325 Commonwealth Ave, Buena Park, CA 90621", "agency": "OPTUMServe", "phone": "(888) 634-1123", "globalid": "d3ba4b19-292e-47c4-bcfa-892ef93b8d08", "site_type": "state", "alert": "accessible" }, "geometry": { "type": "Point", "coordinates": [ -117.987631149797139, 33.870014629945018 ] } },
{ "type": "Feature", "properties": { "sitename": "OPTUMServe 1", "fulladdr": "900 Martin Luther King Jr Drive, Merced, CA 95340", "agency": "OPTUMServe", "phone": "(888) 634-1123", "globalid": "f6316928-f508-4482-948d-de506927aad6", "site_type": "state", "alert": "accessible" }, "geometry": { "type": "Point", "coordinates": [ -120.483427499745829, 37.288980000187216 ] } },
{ "type": "Feature", "properties": { "sitename": "OPTUMServe 3", "fulladdr": "1725 W 17th Street, Santa Ana, CA 92706", "agency": "OPTUMServe", "phone": "(888) 634-1123", "globalid": "ac6bf899-67fc-47c5-a1f0-39388262edb6", "site_type": "state", "alert": "accessible" }, "geometry": { "type": "Point", "coordinates": [ -117.892565999708978, 33.760836000228593 ] } },
{ "type": "Feature", "properties": { "sitename": "OPTUMServe 1", "fulladdr": "649 San Benito St, Hollister, CA 95023", "agency": "OPTUMServe", "phone": "(888) 634-1123", "globalid": "f6148a35-c572-40f2-9efd-4cbfc8b72799", "site_type": "state", "alert": "accessible" }, "geometry": { "type": "Point", "coordinates": [ -121.402096239346093, 36.849671550262357 ] } },
{ "type": "Feature", "properties": { "sitename": "OPTUMServe 4", "fulladdr": "30230 Ransho Viejo Road, San Juan Capistrano, CA 92675", "agency": "OPTUMServe", "phone": "(888) 634-1123", "globalid": "90418992-f1c0-4267-b202-aa165c8326e8", "site_type": "state", "alert": "accessible" }, "geometry": { "type": "Point", "coordinates": [ -117.665315999554224, 33.523821000163487 ] } },
{ "type": "Feature", "properties": { "sitename": "OPTUMServe 1", "fulladdr": "1121 Whitney Ave, Vallejo, CA 94590", "agency": "OPTUMServe", "phone": "(888) 634-1123", "globalid": "8c77da7d-0d29-4de0-9985-54467a084ebf", "site_type": "state", "alert": "accessible" }, "geometry": { "type": "Point", "coordinates": [ -122.23721529026453, 38.146252541348304 ] } },
{ "type": "Feature", "properties": { "sitename": "OPTUMServe 2", "fulladdr": "1681 E Monte Vista, Vacaville, CA 95687", "agency": "OPTUMServe", "phone": "(888) 634-1123", "globalid": "ea5cc55a-136b-47e6-89eb-e815af4c05e3", "site_type": "state", "alert": "accessible" }, "geometry": { "type": "Point", "coordinates": [ -121.959321278357393, 38.370487324217365 ] } },
{ "type": "Feature", "properties": { "sitename": "OPTUMServe 1", "fulladdr": "1500 S Jackson St, Red Bluff, CA 96080", "agency": "OPTUMServe", "phone": "(888) 634-1123", "globalid": "687e5245-d504-4f5f-b428-ed2dd9db7b85", "site_type": "state", "alert": "accessible" }, "geometry": { "type": "Point", "coordinates": [ -122.237935436390117, 40.156767167801988 ] } },
{ "type": "Feature", "properties": { "sitename": "OPTUMServe 1", "fulladdr": "1250 Gum Ave , Woodland, CA 95776", "agency": "OPTUMServe", "phone": "(888) 634-1123", "globalid": "bd9f128b-c709-42e0-bb97-d45c0c243aea", "site_type": "state", "alert": "accessible" }, "geometry": { "type": "Point", "coordinates": [ -121.762767036651113, 38.668248334724289 ] } },
{ "type": "Feature", "properties": { "sitename": "OPTUMServe 1", "fulladdr": "200 East Second Street, Imperial, CA 92251", "agency": "OPTUMServe", "phone": "(888) 634-1123", "globalid": "9d02d18f-e817-4f58-82ca-4d237f638c47", "site_type": "state", "alert": "accessible" }, "geometry": { "type": "Point", "coordinates": [ -115.568751351828539, 32.841201189628926 ] } },
{ "type": "Feature", "properties": { "sitename": "OPTUMServe 2", "fulladdr": "730 Recreation Ave, Sanger, CA 93657", "agency": "OPTUMServe", "phone": "(888) 634-1123", "globalid": "7842b5fa-b766-45d6-8a12-b835209c79ff", "site_type": "state", "alert": "accessible" }, "geometry": { "type": "Point", "coordinates": [ -119.547000000328097, 36.707157000144257 ] } },
{ "type": "Feature", "properties": { "sitename": "OPTUMServe 1", "fulladdr": "15075 Hesperia Road, Victorville, CA 92395", "agency": "OPTUMServe", "phone": "(888) 634-1123", "globalid": "7a37cb0b-c31b-428d-93a7-d28c31d67643", "site_type": "state", "alert": "accessible" }, "geometry": { "type": "Point", "coordinates": [ -117.323661457937334, 34.510609999798938 ] } },
{ "type": "Feature", "properties": { "sitename": "OPTUMServe 1", "fulladdr": "8800 Grossmount College Dr, El Cajon, CA 92020", "agency": "OPTUMServe", "phone": "(888) 634-1123", "globalid": "41c9ce9e-e0b6-43ad-84a8-329763f3e3f8", "site_type": "state", "alert": "accessible" }, "geometry": { "type": "Point", "coordinates": [ -116.959030000222725, 32.794949999753257 ] } },
{ "type": "Feature", "properties": { "sitename": "OPTUMServe 2", "fulladdr": "565 Broadway, Chula Vista, CA 91910", "agency": "OPTUMServe", "phone": "(888) 634-1123", "globalid": "f9010d71-3213-4d99-a728-cd858980be17", "site_type": "state", "alert": "accessible" }, "geometry": { "type": "Point", "coordinates": [ -117.084280000026354, 32.640899999901393 ] } },
{ "type": "Feature", "properties": { "sitename": "OPTUMServe 3", "fulladdr": "649 Mission Ave, Escondido, CA 92145", "agency": "OPTUMServe", "phone": "(888) 634-1123", "globalid": "6f07c50b-edb4-4c1c-a1bc-6694b8a4215b", "site_type": "state", "alert": "accessible" }, "geometry": { "type": "Point", "coordinates": [ -117.082170000256127, 33.123160000087985 ] } },
{ "type": "Feature", "properties": { "sitename": "OPTUMServe 1", "fulladdr": "57 N White Rd, San Jose, CA 95127", "agency": "OPTUMServe", "phone": "(888) 634-1123", "globalid": "72fda14d-af1a-4749-b5ac-b0cb7a5359c0", "site_type": "state", "alert": "accessible" }, "geometry": { "type": "Point", "coordinates": [ -121.885419999781874, 37.338649999853409 ] } },
{ "type": "Feature", "properties": { "sitename": "OPTUMServe 1", "fulladdr": "1301 Main Street, Watsonville, CA 95076", "agency": "OPTUMServe", "phone": "(888) 634-1123", "globalid": "b4db4e0d-8fdf-4138-bcfa-c2f0c6bde401", "site_type": "state", "alert": "accessible" }, "geometry": { "type": "Point", "coordinates": [ -121.771788608640392, 36.916423704713182 ] } },
{ "type": "Feature", "properties": { "sitename": "OPTUMServe 2", "fulladdr": "850 Day Road, Gilroy, CA 95202", "agency": "OPTUMServe", "phone": "(888) 634-1123", "globalid": "f734628a-0b92-4091-8af9-beebd8f869c3", "site_type": "state", "alert": "accessible" }, "geometry": { "type": "Point", "coordinates": [ -121.571749999576397, 37.004409999955065 ] } },
{ "type": "Feature", "properties": { "sitename": "OPTUMServe 1", "fulladdr": "680 Sonoma Mountain Parkway, Petaluma, CA 94954", "agency": "OPTUMServe", "phone": "(888) 634-1123", "globalid": "87fb3ccf-d787-456a-b853-a371cca36b3f", "site_type": "state", "alert": "accessible" }, "geometry": { "type": "Point", "coordinates": [ -122.634575984108736, 38.268027379241182 ] } },
{ "type": "Feature", "properties": { "sitename": "OPTUMServe 2", "fulladdr": "1235 Mendocino Ave, Santa Rosa, CA 95401", "agency": "OPTUMServe", "phone": "(888) 634-1123", "globalid": "ad686b60-f494-499c-a377-4c1560bc4171", "site_type": "state", "alert": "accessible" }, "geometry": { "type": "Point", "coordinates": [ -122.717947506327022, 38.453103000515696 ] } },
{ "type": "Feature", "properties": { "sitename": "OPTUMServe 1", "fulladdr": "5506 Jennie Ave, Keyes, CA 95328", "agency": "OPTUMServe", "phone": "(888) 634-1123", "globalid": "5090b4d2-91bf-4471-b8f3-d387f1e95a0d", "site_type": "state", "alert": "accessible" }, "geometry": { "type": "Point", "coordinates": [ -120.913770000044934, 37.557650000016601 ] } },
{ "type": "Feature", "properties": { "sitename": "OPTUMServe 2", "fulladdr": "1033 Las Palmas Ave, Patterson, CA 95363", "agency": "OPTUMServe", "phone": "(888) 634-1123", "globalid": "bc83510c-b59c-4aff-b46b-fd5c45f5dad6", "site_type": "state", "alert": "accessible" }, "geometry": { "type": "Point", "coordinates": [ -121.129450000275853, 37.472899999919143 ] } },
{ "type": "Feature", "properties": { "sitename": "OPTUMServe 1", "fulladdr": "43935 E Acacia Ave, Hemet, CA 92544", "agency": "OPTUMServe", "phone": "(888) 634-1123", "globalid": "4764b5b5-e86f-4085-900a-a790b403af7a", "site_type": "state", "alert": "accessible" }, "geometry": { "type": "Point", "coordinates": [ -116.894046457372738, 33.744168454105562 ] } },
{ "type": "Feature", "properties": { "sitename": "OPTUMServe 2", "fulladdr": "5293 Mission Blvd, Jurupa Valley, CA 92509", "agency": "OPTUMServe", "phone": "(888) 634-1123", "globalid": "8c5911d8-9ea3-4ad6-81e8-abd1bcda996d", "site_type": "state", "alert": "accessible" }, "geometry": { "type": "Point", "coordinates": [ -117.398844661169392, 33.992971489231934 ] } },
{ "type": "Feature", "properties": { "sitename": "OPTUMServe 3", "fulladdr": "12800 W Arroyo Dr, Desert Hot Springs, CA 92240", "agency": "OPTUMServe", "phone": "(888) 634-1123", "globalid": "28ad4ced-f588-48de-86a9-a4a47c0e317d", "site_type": "state", "alert": "accessible" }, "geometry": { "type": "Point", "coordinates": [ -116.508365339052418, 33.956246741773235 ] } },
{ "type": "Feature", "properties": { "sitename": "OPTUMServe 4", "fulladdr": "21565 Steele Peak, Perris, CA 92570", "agency": "OPTUMServe", "phone": "(888) 634-1123", "globalid": "d051419a-c9c7-4a4a-a897-ffd0b4e844b5", "site_type": "state", "alert": "accessible" }, "geometry": { "type": "Point", "coordinates": [ -117.283179724074856, 33.762445329588836 ] } },
{ "type": "Feature", "properties": { "sitename": "OPTUMServe 5", "fulladdr": "21091 Rider St, Perris, CA 92570", "agency": "OPTUMServe", "phone": "(888) 634-1123", "globalid": "0f4b0440-3b05-4355-b071-366bea67c128", "site_type": "state", "alert": "accessible" }, "geometry": { "type": "Point", "coordinates": [ -117.294062186717881, 33.829780451339886 ] } },
{ "type": "Feature", "properties": { "sitename": "OPTUMServe 6", "fulladdr": "390 West Oak Valley Parkway, Beaumont, CA 92223", "agency": "OPTUMServe", "phone": "(888) 634-1123", "globalid": "33f2781e-bac9-4b3c-843d-a4cbbe62c8df", "site_type": "state", "alert": "accessible" }, "geometry": { "type": "Point", "coordinates": [ -116.985798829102237, 33.947073202902047 ] } },
{ "type": "Feature", "properties": { "sitename": "OPTUMServe 7", "fulladdr": "3737 Crestview Dr, Norco, CA 92860", "agency": "OPTUMServe", "phone": "(888) 634-1123", "globalid": "f17b923b-ae8d-4f3c-a04f-93b12e7a598a", "site_type": "state", "alert": "accessible" }, "geometry": { "type": "Point", "coordinates": [ -117.523801906310155, 33.935669482534216 ] } },
{ "type": "Feature", "properties": { "sitename": "OPTUMServe 8", "fulladdr": "91391 66th Ave, Mecca, CA 92254", "agency": "OPTUMServe", "phone": "(916) 658-3280", "globalid": "c08c34f1-a392-4b4c-94d2-131b78a9cd1b", "site_type": "state", "alert": "accessible" }, "geometry": { "type": "Point", "coordinates": [ -116.072558803698328, 33.569179953129662 ] } },
{ "type": "Feature", "properties": { "sitename": "OPTUMServe 1", "fulladdr": "16335 East 14th Street, San Leandro, CA 94578", "agency": "OPTUMServe", "phone": "(888) 634-1123", "globalid": "98b13e7b-138a-4513-8d3d-848eb907b25c", "site_type": "state", "alert": "accessible" }, "geometry": { "type": "Point", "coordinates": [ -122.114733054648468, 37.695421973134188 ] } },
{ "type": "Feature", "properties": { "sitename": "OPTUMServe 2", "fulladdr": "2935 Pinole Valley Road, Pinole, CA 94564", "agency": "OPTUMServe", "phone": "(888) 634-1123", "globalid": "2e28007e-8859-4407-b73c-dbb7df5f534b", "site_type": "state", "alert": "accessible" }, "geometry": { "type": "Point", "coordinates": [ -122.285401365872445, 37.99235821937738 ] } },
{ "type": "Feature", "properties": { "sitename": "OPTUMServe 3", "fulladdr": "301 North San Carlos Drive, Walnut Creek, CA 94598", "agency": "OPTUMServe", "phone": "(888) 634-1123", "globalid": "f412eff6-bff1-4964-bf98-c8e2f42e474c", "site_type": "state", "alert": "accessible" }, "geometry": { "type": "Point", "coordinates": [ -122.043035422516624, 37.918709789819353 ] } },
{ "type": "Feature", "properties": { "sitename": "East Oakland (Elmhurst)", "fulladdr": "9925 International Blvd, Oakland, CA 94603", "agency": "Verily", "phone": null, "globalid": "6f845d23-166c-40a5-82a5-4ca8733e41a2", "site_type": "state", "alert": "accessible" }, "geometry": { "type": "Point", "coordinates": [ -122.170079447774199, 37.743222594936121 ] } },
{ "type": "Feature", "properties": { "sitename": "Bakersfield", "fulladdr": "2081 Ridge Road, Bakersfield, CA 93305", "agency": "Verily", "phone": null, "globalid": "b1f60fd3-e05c-4457-ae5d-76be45cfb5fc", "site_type": "state", "alert": "accessible" }, "geometry": { "type": "Point", "coordinates": [ -118.969160485058907, 35.38653886361454 ] } },
{ "type": "Feature", "properties": { "sitename": "St. Mary's Medical Center", "fulladdr": "1060 Long Beach Blvd, Long Beach, CA 90813", "agency": "Verily", "phone": null, "globalid": "01c596bd-0dde-43a6-80c9-9573e208804b", "site_type": "state", "alert": "accessible" }, "geometry": { "type": "Point", "coordinates": [ -118.189191026150397, 33.780106874917934 ] } },
{ "type": "Feature", "properties": { "sitename": "LA Expo Center", "fulladdr": "3986 Hoover St, Los Angeles, CA 90037", "agency": "Verily", "phone": null, "globalid": "84083af7-c3f0-4f98-ad6e-d82a78f61fed", "site_type": "state", "alert": "accessible" }, "geometry": { "type": "Point", "coordinates": [ -118.287264054711684, 34.011457892961083 ] } },
{ "type": "Feature", "properties": { "sitename": "East San Jose", "fulladdr": "680 S 34th Street, San Jose, CA 95116", "agency": "Verily", "phone": null, "globalid": "f05b748e-7445-453d-9d26-5d5966f203df", "site_type": "state", "alert": "accessible" }, "geometry": { "type": "Point", "coordinates": [ -121.849238966511777, 37.342542880331649 ] } },
{ "type": "Feature", "properties": { "sitename": "OPTUMServe 3", "fulladdr": "1900 Paseo Rancho Castilla, Los Angeles, CA 90032", "agency": "OPTUMServe", "phone": "(888) 634-1123", "globalid": "935a754c-1ddb-46a7-b308-9d5df40e80fd", "site_type": "state", "alert": "accessible" }, "geometry": { "type": "Point", "coordinates": [ -118.174222087754032, 34.062046076436197 ] } },
{ "type": "Feature", "properties": { "sitename": "OPTUMServe 4", "fulladdr": "1000 West Carson Street, Torrance, CA 90502", "agency": "OPTUMServe", "phone": "(888) 634-1123", "globalid": "ca57527e-c6dc-4351-a683-3db4fbb434c5", "site_type": "state", "alert": "accessible" }, "geometry": { "type": "Point", "coordinates": [ -118.293532020860567, 33.831556546777811 ] } },
{ "type": "Feature", "properties": { "sitename": "OPTUMServe 5", "fulladdr": "3901 West El Segundo Blvd, Hawthorne, CA 90250", "agency": "OPTUMServe", "phone": "(888) 634-1123", "globalid": "1e6fb857-9ef2-436c-8c29-b9eca1cb2863", "site_type": "state", "alert": "accessible" }, "geometry": { "type": "Point", "coordinates": [ -118.341816043377193, 33.916479043211403 ] } },
{ "type": "Feature", "properties": { "sitename": "OPTUMServe 6", "fulladdr": "2800 Airport Avenue, Santa Monica, CA 90405", "agency": "OPTUMServe", "phone": "(888) 634-1123", "globalid": "5491822a-3a70-4d2d-81bd-f7e6d414f4a3", "site_type": "state", "alert": "accessible" }, "geometry": { "type": "Point", "coordinates": [ -118.452330505061582, 34.01228986248109 ] } },
{ "type": "Feature", "properties": { "sitename": "OPTUMServe 7", "fulladdr": "3606 West Exposition Boulevard, Los Angeles, CA 90016", "agency": "OPTUMServe", "phone": "(888) 634-1123", "globalid": "ca22debd-3f18-4760-9514-0955b96be4f6", "site_type": "state", "alert": "accessible" }, "geometry": { "type": "Point", "coordinates": [ -118.335516946159601, 34.022428828178334 ] } },
{ "type": "Feature", "properties": { "sitename": "OPTUMServe 8", "fulladdr": "10408 Vacco Street South, El Monte, CA 91733", "agency": "OPTUMServe", "phone": "(888) 634-1123", "globalid": "85977133-6172-4dba-9b35-8f916ee81389", "site_type": "state", "alert": "accessible" }, "geometry": { "type": "Point", "coordinates": [ -118.044259422045158, 34.047255338156042 ] } },
{ "type": "Feature", "properties": { "sitename": "OPTUMServe 9", "fulladdr": "224 West Winton Ave, Hayward, CA 95455", "agency": "OPTUMServe", "phone": "(888) 634-1123", "globalid": "1366bd47-073c-4e03-adb4-5758ddc9c421", "site_type": "state", "alert": "accessible" }, "geometry": { "type": "Point", "coordinates": [ -122.09585133425054, 37.65850701487669 ] } },
{ "type": "Feature", "properties": { "sitename": "OPTUMServe 9", "fulladdr": "850 2nd Street, Brentwood, CA 94513", "agency": "OPTUMServe", "phone": "(888) 634-1123", "globalid": "be73def8-b8a0-48fd-a2a7-9d141f9ca2c3", "site_type": "state", "alert": "accessible" }, "geometry": { "type": "Point", "coordinates": [ -121.693248930299291, 37.935809553366852 ] } },
{ "type": "Feature", "properties": { "sitename": "OPTUMServe 9", "fulladdr": "204 South Hill Street, Arvin, CA 93203", "agency": "OPTUMServe", "phone": null, "globalid": "cea3a9bd-1595-4a48-a10d-3180dd600123", "site_type": "state", "alert": "accessible" }, "geometry": { "type": "Point", "coordinates": [ -118.830915716866613, 35.207933471169731 ] } },
{ "type": "Feature", "properties": { "sitename": "OPTUMServe 9", "fulladdr": "71 Mojave Fish Hatchery Road, Victorville, CA 92395", "agency": "OPTUMServe", "phone": null, "globalid": "47ee4d3e-c600-476f-aa03-f7271d075c09", "site_type": "state", "alert": "accessible" }, "geometry": { "type": "Point", "coordinates": [ -117.258236217953751, 34.471124973061215 ] } },
{ "type": "Feature", "properties": { "sitename": "OPTUMServe 9", "fulladdr": "1200 Stadium Way, Adelanto, CA 92301", "agency": "OPTUMServe", "phone": "(888) 634-1123", "globalid": "fc43a935-e8fc-4300-a9ed-5d19ebcb2a3c", "site_type": "state", "alert": "accessible" }, "geometry": { "type": "Point", "coordinates": [ -117.401578848128324, 34.555785801378427 ] } },
{ "type": "Feature", "properties": { "sitename": "OPTUMServe 9", "fulladdr": "3400 Calle Real, Santa Barbara, CA 93101", "agency": "OPTUMServe", "phone": null, "globalid": "c84f8c87-470f-48ce-bdfb-f9e01cf1a7fa", "site_type": "state", "alert": "accessible" }, "geometry": { "type": "Point", "coordinates": [ -119.735346684728, 34.428571874732356 ] } },
{ "type": "Feature", "properties": { "sitename": "OPTUMServe 9", "fulladdr": "125 West Walnut Avenue, Lompoc, CA 93436", "agency": "OPTUMServe", "phone": "(888) 634-1123", "globalid": "160dc004-3f54-4d12-ab23-34f4a028ffc8", "site_type": "state", "alert": "accessible" }, "geometry": { "type": "Point", "coordinates": [ -120.458780879639619, 34.640665401610896 ] } },
{ "type": "Feature", "properties": { "sitename": "OPTUMServe 9", "fulladdr": "2331 Borchard Road, Newbury Park, CA 91320", "agency": "OPTUMServe", "phone": "(888) 634-1123", "globalid": "c3cc043c-387f-489c-bb58-6cfbca61630d", "site_type": "state", "alert": "accessible" }, "geometry": { "type": "Point", "coordinates": [ -118.928256866406386, 34.181218249408005 ] } }
]
}
